台帳ID,管理対象ID,名称,ふりがな,員数,棟名,文化財種類,種別1,種別2,国,時代,年代,西暦,構造及び形式等,その他参考となるべき事項,登録番号,登録回,登録告示年月日,登録年月日,追加年月日,重文指定年月日,国宝指定年月日,登録基準1,登録基準2,都道府県,所在地,保管施設の名称,所有者名,所有者種別,管理団体又は責任者,緯度,経度,解説文,画像URL
101,00000060,南座,みなみざ,1棟,,登録有形文化財(建造物),文化福祉,建築物,,昭和前,昭和4,1929,鉄骨鉄筋コンクリート造・鉄骨造地上4階地下1階建、瓦葺、建築面積1797㎡,,26 － 0001,1,1996.12.26(平成8.12.26),1996.12.20(平成8.12.20),,19961220,,国土の歴史的景観に寄与しているもの,,京都府,京都府京都市東山区四条通大和大路西入中之町198,,松竹株式会社,,,35.00349000000000,135.77230000000000,桃山風の意匠を凝らした劇場建築で，総客席数1500余の大劇場を収容する。平成２年から３年にかけて改修が行われ，外観は竣工当時の姿に復元された。演劇の中心地の一つとして，また都市のランドマークとして，広く親しまれている。,https://bunka.nii.ac.jp/heritage/43967/_101050/43967_101050111225010329139_300.jpg
101,00000138,レストラン菊水,れすとらんきくすい,1棟,,登録有形文化財(建造物),産業3次,建築物,,大正,大正15,1926,鉄筋コンクリート造地上5階地下1階建塔屋付，建築面積203㎡,,26 － 0002,2,1997.05.29(平成9.05.29),1997.05.07(平成9.05.07),,19970507,,造形の規範となっているもの,,京都府,京都府京都市東山区川端通四条上る川端町187,,,,,35.00397000000000,135.77310000000000,京都における西欧料理の草分け的な存在である菊水の店舗で，ＲＣ造，５階建ての正面に塔屋が付く。建物の様式は表現主義を基調とし，内外に様々な新様式を取り入れ見事にまとめている。内部は改装されているが，大正期の京都の新建築活動の規範的作品である。,https://bunka.nii.ac.jp/heritage/43967/_101128/43967_101128111225010420455_300.jpg
101,00000218,楽々荘洋館,らくらくそうようかん,1棟,,登録有形文化財(建造物),住宅,建築物,,明治,明治31頃,1898頃,煉瓦造一部木造2階建，瓦葺，建築面積103㎡,,26 － 0003,3,1997.06.24(平成9.06.24),1997.06.12(平成9.06.12),,19970612,,再現することが容易でないもの,,京都府,京都府亀岡市北町44,,光明文化芸術株式会社,営利法人,,35.01600000000000,135.57650000000000,衆議院議員・貴族院議員をつとめた田中源太郎の住宅として建設されたもので、設計施工は清水組である。東と南にベランダを持つ外観に特徴があり、内部の各室の床や暖炉の仕様を変える等、各部に用いられた技能の水準が高い手の込んだつくりの建物である。,https://bunka.nii.ac.jp/heritage/43967/_101208/43967_101208111225010507642_300.jpg
101,00000219,楽々荘日本館,らくらくそうにほんかん,1棟,,登録有形文化財(建造物),住宅,建築物,,明治,明治31頃,1898頃,木造平屋建，瓦葺，建築面積235㎡,,26 － 0004,3,1997.06.24(平成9.06.24),1997.06.12(平成9.06.12),,19970612,,再現することが容易でないもの,,京都府,京都府亀岡市北町44,,光明文化芸術株式会社,,,35.01605000000000,135.57650000000000,和館部は、当初は主人室、夫人室として使用されていたと伝える。平屋建だが、屋根は庇屋根を廻し二重とする。主人室・夫人室の室内意匠を変えており、とくに両室のトコ㎡棚の構成や用いられた材料の扱い等に技術㎡技能の水準の高さを見ることができる。,https://bunka.nii.ac.jp/heritage/43967/_101209/43967_101209111225010508146_300.jpg
101,00000220,楽々荘玄関,らくらくそうげんかん,1棟,,登録有形文化財(建造物),住宅,建築物,,明治,明治31頃,1898頃,木造平屋建，瓦葺，建築面積83㎡,,26 － 0005,3,1997.06.24(平成9.06.24),1997.06.12(平成9.06.12),,19970612,,再現することが容易でないもの,,京都府,京都府亀岡市北町44,,光明文化芸術株式会社,営利法人,,35.01587000000000,135.57640000000000,洋館の南西側にあり、廊下を介して和館に通じる。式台を備えた本格的な和風の玄関だが、入母屋造の妻を小さくおさえる等、全体のバランスに配慮したつくりとなっている。設計を手がけた作者の技能の水準の高さをよく示す建物である。,https://bunka.nii.ac.jp/heritage/43967/_101210/43967_101210111225010508646_300.jpg
101,00000253,旧京都中央電話局上分局,きゅうきょうとちゅうおうでんわきょくかみぶんきょく,1棟,,登録有形文化財(建造物),生活関連,建築物,,大正,大正12,1923,鉄筋コンクリート造3階建，瓦葺，建築面積745㎡,,26 － 0006,4,1997.07.30(平成9.07.30),1997.07.15(平成9.07.15),,19970715,,造形の規範となっているもの,,京都府,京都府京都市上京区中筋通丸太町下る駒之町561-1,,西日本電信電話株式会社,,,35.01739000000000,135.77070000000000,逓信省技師吉田鉄郎の設計。施工清水組。吉田の表現主義から合理主義建築へ展開する過程を知ることのできる作品の一つ。現存するRC造電話局舎の中でも最も古い作品の一つ。鴨川の右岸に位置し、その特異な外観は近代教との河岸景観を特徴づけている。,https://bunka.nii.ac.jp/heritage/43967/_101243/43967_101243111225010532873_300.jpg
101,00000298,SACRA（旧不動貯金銀行京都支店）,さくら（きゅうふどうちょきんぎんこうきょうとしてん）,1棟,,登録有形文化財(建造物),産業3次,建築物,,大正,大正5頃,1916頃,木骨煉瓦造地上3階地下1階建，銅板葺，建築面積232㎡,,26 － 0008,5,1997.09.16(平成9.09.16),1997.09.03(平成9.09.03),,19970903,,造形の規範となっているもの,,京都府,京都府京都市中京区三条通富小路西入中之町20,,ツカキ株式会社,,,35.00872000000000,135.76480000000000,木骨煉瓦造，地上３階地下１階建で，屋根を銅板葺とする旧銀行の建物。全体に装飾豊かな洋風の意匠を持ち，１階部分のストライプ模様や正面中央の円形装飾等に代表されるように，細部に幾何学的な形態を用いてまとめる点に時代の特徴がよくあらわれている。,https://bunka.nii.ac.jp/heritage/43967/_101288/43967_101288111225010554023_300.jpg
101,00000357,日本生命京都三条ビル旧棟（旧日本生命京都支店）,にほんせいめいきょうとさんじょうびるきゅうとう（きゅうにほんせいめいきょうとしてん）,1棟,,登録有形文化財(建造物),産業3次,建築物,,大正,大正3,1914,煉瓦造2階建，銅板葺，建築面積65㎡,,26 － 0009,6,1997.12.03(平成9.12.03),1997.11.05(平成9.11.05),,19971105,,造形の規範となっているもの,,京都府,京都府京都市中京区三条通高倉東入桝屋町75,,京王電鉄株式会社,,,35.00876000000000,135.76390000000000,洋風の近代建築が多く立ち並ぶ三条通りに面して建つ。現在残るのは，明治４５年に着工，大正３年に竣工した社屋の通りに面した塔屋を含む１スパン部分である。設計は辰野片岡建築事務所で，外壁を石張りにする外観には，その作風がよくあらわれている。,https://bunka.nii.ac.jp/heritage/43967/_101347/43967_101347835076324631073_300.jpg
101,00000413,祇園閣,ぎおんかく,1棟,,登録有形文化財(建造物),その他,建築物,,昭和前,昭和2,1927,鉄筋コンクリート造・鉄骨鉄筋コンクリート造3階建，銅板葺，建築面積67㎡,,26 － 0010,7,1998.01.08(平成10.01.08),1997.12.12(平成9.12.12),,19971212,,再現することが容易でないもの,,京都府,京都府京都市東山区四条通大和大路東入祇園町南側594-1,,本山龍池山大雲院,,,35.00214000000000,135.77970000000000,大倉喜八郎の依頼により，伊東忠太が設計した普請道楽の一つ。施工大倉土木。総高約３４ｍの３階建塔状建築で，下層及び基礎部分を鉄筋コンクリート造，中層以上を鉄骨鉄筋コンクリートとする。山鉾をかたどった和風の外観，内部のグロテスク型の照明は特異。,https://bunka.nii.ac.jp/heritage/43967/_101403/43967_101403111225010711733_300.jpg
101,00000414,大雲院書院（旧大倉家京都別邸）,だいうんいんしょいん（きゅうおおくらけきょうとべってい）,1棟,,登録有形文化財(建造物),住宅,建築物,,昭和前,昭和2,1927,木造・鉄筋コンクリート造2階建，瓦葺，建築面積234㎡,,26 － 0011,7,1998.01.08(平成10.01.08),1997.12.12(平成9.12.12),,19971212,,造形の規範となっているもの,,京都府,京都府京都市東山区四条通大和大路東入祇園町南側594-1,,本山龍池山大雲院,,,35.00237000000000,135.77990000000000,もと大倉家の別邸で，寝室及び納戸のみ鉄筋コンクリート造とし，その他を木造とする。全体に吟味された良材を用い，洗練された技法になる質の高い和風住宅で，特に内部を八角形状に仕上げた応接室は見応えがある。設計は伊東忠太，施工は大倉土木。,https://bunka.nii.ac.jp/heritage/43967/_101404/43967_101404111225010712236_300.jpg
101,00000448,大覚寺心経殿,だいかくじしんきょうでん,1棟,,登録有形文化財(建造物),宗教,建築物,,大正,大正14,1925,鉄筋コンクリート造平屋建，銅板葺，建築面積31㎡,,26 － 0012,8,1998.02.12(平成10.02.12),1998.01.16(平成10.01.16),,19980116,,造形の規範となっているもの,,京都府,京都府京都市右京区嵯峨大沢町4-1,,宗教法人大覚寺,,,35.02864000000000,135.67860000000000,奉納された般若心経の写経を納めるための建物。木造の八角円堂を鉄筋コンクリートで模したもので，軒や縁の意匠等に素材の特性がいかされている。設計は昭和初期を代表する住宅建築家藤井厚二。藤井の住宅以外の珍しい作品として価値がある。,https://bunka.nii.ac.jp/heritage/43967/_101438/43967_101438111225010730519_300.jpg
101,00000544,関西日仏学館,かんさいにちふつがっかん,1棟,,登録有形文化財(建造物),文化福祉,建築物,,昭和前,昭和11,1936,鉄筋コンクリート造地上３階地下１階建，建築面積549㎡,,26 － 0013,9,1998.06.09(平成10.06.09),1998.04.21(平成10.04.21),,19980421,,造形の規範となっているもの,,京都府,京都府京都市左京区吉田泉殿町8-8,,財団法人日仏文化協会,,,35.02624000000000,135.77820000000000,２０世紀フランスを代表する建築家ペレの弟子メストラレが基本設計にあたる。ペレ流の洗練された柱型と軒線がつくる古典主義的骨格に，要所の曲面が優美さを与える。東大路通に面して建ち，京都大学の諸建築とともに学園街を形成する。,https://bunka.nii.ac.jp/heritage/43967/_101534/43967_101534111225010836101_300.jpg
101,00000592,聖ヨゼフ修道院門の家,せいよぜふしゅうどういんもんのいえ,1棟,,登録有形文化財(建造物),住宅,建築物,,大正,大正9,1920,木造平屋建，瓦葺，建築面積39㎡,,26 － 0014,10,1998.08.04(平成10.08.04),1998.07.23(平成10.07.23),,19980723,,造形の規範となっているもの,,京都府,京都府京都市北区北野東紅梅町6-2-1,,宗教法人カトリック聖ヨゼフ修道会,,,35.02900000000000,135.73280000000000,住友家京都衣笠別邸の跡地に建つ。煉瓦の腰壁とハツリ目をつけた木部が典型的なハーフティンバーの様式をつくりあげている。もと門衛所であるが，小住宅としての価値を充分有している。住友営繕の多久仁輔（工手学校出身）が担当したとされる。,https://bunka.nii.ac.jp/heritage/43967/_101582/43967_101582111225010906313_300.jpg
101,00000593,聖ヨゼフ修道院・門,せいよぜふしゅうどういん・もん,1棟,,登録有形文化財(建造物),住宅,その他工作,,大正,大正9,1920,煉瓦造，両袖壁延べ2.6m附属,,26 － 0015,10,1998.08.04(平成10.08.04),1998.07.23(平成10.07.23),,19980723,,造形の規範となっているもの,,京都府,京都府京都市北区北野東紅梅町6-2-1,,宗教法人カトリック聖ヨゼフ修道会,,,35.02893000000000,135.73280000000000,門衛所と一体的に造られる。門柱の台座と笠石に御影石を用い，袖壁頂部の煉瓦を縦に積む。意匠を凝らした門構えではないが，ところどころにハツリ面を見せた煉瓦を挟んで陰影をあたえるなど細やかな心配りが感じとられる。,https://bunka.nii.ac.jp/heritage/43967/_101583/43967_101583111225010906815_300.jpg
101,00000594,京都大学楽友会館,きょうとだいがくがくゆうかいかん,1棟,,登録有形文化財(建造物),文化福祉,建築物,,大正,大正14,1925,鉄筋コンクリート造２階建，瓦葺，建築面積715㎡,,26 － 0016,10,1998.08.04(平成10.08.04),1998.07.23(平成10.07.23),,19980723,,造形の規範となっているもの,,京都府,京都府京都市左京区吉田近衛町,,国立大学法人京都大学,,,35.02203000000000,135.77950000000000,京大創立２５周年記念の同窓会館。分離派建築会の森田慶一が設計にあたる。スパニッシュ・ミッションを基調としながら，Ｙ字型の柱に支えられた円みをもつポーチ屋根が破調を与える。森谷延雄による家具とともに内部空間も大正建築の特徴をよく伝える。,https://bunka.nii.ac.jp/heritage/43967/_101584/43967_101584111225010907073_300.jpg
101,00000595,京都大学農学部表門及び門衛所,きょうとだいがくのうがくぶおもてもんおよびもんえいじょ,1棟,,登録有形文化財(建造物),学校,建築物,,大正,大正13,1924,鉄筋コンクリート造平屋建，瓦葺，建築面積17㎡,,26 － 0017,10,1998.08.04(平成10.08.04),1998.07.23(平成10.07.23),,19980723,,造形の規範となっているもの,,京都府,京都府京都市左京区北白川追分町,,国立大学法人京都大学,,,35.02974000000000,135.78540000000000,分離派建築会に参加した森田慶一の秀作で，通用口の尖頭アーチなど楽友会館と共通するディテールが認められる。ドイツ表現派のモチーフを採りながら，日本瓦を載せた薄い屋根が頂部を明確に水平に区切って節度を与え，全体意匠を品格あるものに仕立てている。,https://bunka.nii.ac.jp/heritage/43967/_101585/43967_101585111225010907970_300.jpg
101,00000697,エンマ（旧村井銀行祇園支店）,えんま（きゅうむらいぎんこうぎおんしてん）,1棟,,登録有形文化財(建造物),産業3次,建築物,,大正,大正13,1924,鉄筋コンクリート造２階建，建築面積186㎡,,26 － 0019,11,1998.09.25(平成10.09.25),1998.09.02(平成10.09.02),,19980902,,造形の規範となっているもの,,京都府,京都府京都市東山区四条通大和大路東入祇園町南側573-5,,株式会社日興実業,,,35.00365000000000,135.77460000000000,たばこ王として知られた村井家のお抱え建築家的存在であった吉武長一による一連の村井銀行支店シリーズのひとつ。アメリカ仕込みの古典主義建築の作風がよく示されており，パラペットのバラストレードなどの細部もよく残されている。,https://bunka.nii.ac.jp/heritage/43967/_101687/43967_101687111225011036110_300.jpg
101,00000739,京都大学文学部陳列館,きょうとだいがくぶんがくぶちんれつかん,1棟,,登録有形文化財(建造物),文化福祉,建築物,,大正,大正3,1914,煉瓦造２階建，瓦葺，建築面積732㎡,,26 － 0020,12,1998.09.25(平成10.09.25),1998.09.02(平成10.09.02),,19980902,,造形の規範となっているもの,,京都府,京都府京都市左京区吉田本町,,国立大学法人京都大学,,,35.02737000000000,135.77980000000000,京都帝大拡張期の代表的建築で，陳列館としての記念碑的性格を有する。ブロークンペディメントや楕円形の窓などネオバロックに傾斜しながらも，細部装飾にはセセッション的意匠が認められ大正期建築の特徴をも示す。京大営繕の山本治兵衛と永瀬狂三の設計。,https://bunka.nii.ac.jp/heritage/43967/_101729/43967_101729111225011111561_300.jpg
101,00000740,京都大学尊攘堂,きょうとだいがくそんじょうどう,1棟,,登録有形文化財(建造物),学校,建築物,,明治,明治36,1903,煉瓦造平屋建，瓦葺，建築面積172㎡,,26 － 0021,12,1998.09.25(平成10.09.25),1998.09.02(平成10.09.02),,19980902,,造形の規範となっているもの,,京都府,京都府京都市左京区吉田本町,,国立大学法人京都大学,,,35.02679000000000,135.77900000000000,品川弥次郎が創設した記念堂に由来する。品川の死後、関係資料と建設資金が京大に寄付され、京大構内に新築された。煉瓦造スタッコ塗りで鉄造の玄関ポーチを有し，開口部など平明な意匠で仕上げられており，小堂ながら構内では異色の建築になっている。,https://bunka.nii.ac.jp/heritage/43967/_101730/43967_101730111225011112055_300.jpg
101,00000741,京都大学農学部演習林事務室,きょうとだいがくのうがくぶえんしゅうりんじむしつ,1棟,,登録有形文化財(建造物),学校,建築物,,昭和前,昭和6,1931,木造平屋建，瓦葺，建築面積438㎡,,26 － 0022,12,1998.09.25(平成10.09.25),1998.09.02(平成10.09.02),,19980902,,造形の規範となっているもの,,京都府,京都府京都市左京区北白川追分町,,国立大学法人京都大学,,,35.03118000000000,135.78540000000000,大倉三郎の設計。スパニッシュ瓦葺，ベランダをめぐらしたバンガロー風の木造建築で，ベランダ天井の意匠などモダニズムの清新さ溢れる作品に仕上がっている。京大北部構内の独特の農村的景観形成にも大きく寄与している。,https://bunka.nii.ac.jp/heritage/43967/_101731/43967_101731111225011112549_300.jpg
101,00000796,密語菴,みつごあん,1棟,,登録有形文化財(建造物),住宅,建築物,,明治,明治中期,1868-1911,木造２階建，瓦葺一部銅板葺，建築面積179㎡,,26 － 0023,13,1998.09.25(平成10.09.25),1998.09.02(平成10.09.02),,19980902,,国土の歴史的景観に寄与しているもの,,京都府,京都府京都市左京区若王寺町67,,,,,35.23592000000000,135.79280000000000,若王寺神社境内に隣接する広大な敷地に南面して建つ，上質の瀟洒な数寄屋造の住宅。中央に玄関部を置き西側に居住部分，東側に茶室や客室を配する構成になる。原三渓の番頭古郷時侍の旧宅で，後和辻哲郎や岡崎桃乞が居住，現在は哲学者梅原猛の居宅である。,https://bunka.nii.ac.jp/heritage/43967/_101786/43967_101786111225011151406_300.jpg
101,00000797,渡邊家住宅主屋,わたなべけじゅうたくしゅおく,1棟,,登録有形文化財(建造物),住宅,建築物,,明治,明治3頃,1870頃,木造２階建，瓦葺，建築面積142㎡,,26 － 0024,13,1998.09.25(平成10.09.25),1998.09.02(平成10.09.02),,19980902,,国土の歴史的景観に寄与しているもの,,京都府,京都府舞鶴市字竹屋101,,,,,35.45063000000000,135.32670000000000,渡邊家は近世末期に回船問屋を務めた旧家で，高野川を背に南北に続く竹屋町にある。主屋は大型の町家で，正面が近代商家風に改造されたが伝統的な町並みを形成している。土間部は豪壮な架構をみせ，居室部は欄間など優れた意匠になる良質の居宅である。,https://bunka.nii.ac.jp/heritage/43967/_101787/43967_101787111225011152164_300.jpg
101,00000798,渡邊家住宅什器蔵,わたなべけじゅうたくじゅうきぐら,1棟,,登録有形文化財(建造物),住宅,建築物,,明治,明治3,1870,土蔵造２階建，瓦葺，建築面積22㎡,,26 － 0025,13,1998.09.25(平成10.09.25),1998.09.02(平成10.09.02),,19980902,,国土の歴史的景観に寄与しているもの,,京都府,京都府舞鶴市字竹屋101,,,,,35.45070000000000,135.32640000000000,敷地の奥側に建つ小規模な白漆喰塗の土蔵で，切妻造の東西棟とし東面に引き戸を開いて出入口とする。家蔵の什器類を納めたことから，その名が付けられた。建築年代は，明治３年の記のある祈祷札があり，様式的にもその頃のものと考えられる。,https://bunka.nii.ac.jp/heritage/43967/_101788/43967_101788111225011152675_300.jpg
101,00000799,渡邊家住宅新蔵,わたなべけじゅうたくしんぐら,1棟,,登録有形文化財(建造物),住宅,建築物,,明治,明治期,1868-1911,土蔵造２階建，瓦葺，建築面積45㎡,,26 － 0026,13,1998.09.25(平成10.09.25),1998.09.02(平成10.09.02),,19980902,,再現することが容易でないもの,,京都府,京都府舞鶴市字竹屋101,,,,,35.45068000000000,135.32640000000000,高野川の河岸に平を見せて建つ切妻造，平入の２階建土蔵。煉瓦造の高い基底部を築き，腰回りの意匠とする近代的な蔵であるが，内部の架構は，登り梁式の伝統的な構法になる。河岸面に建ち並ぶ近隣の土蔵群とともに，かつての湊町の風情を良く残している。,https://bunka.nii.ac.jp/heritage/43967/_101789/43967_101789111225011153180_300.jpg
101,00000874,陽明文庫第一文庫,ようめいぶんこだいいちぶんこ,1棟,,登録有形文化財(建造物),文化福祉,建築物,,昭和前,昭和13,1938,鉄筋コンクリート造平屋建，瓦葺，建築面積73㎡,,26 － 0027,14,1998.10.26(平成10.10.26),1998.10.09(平成10.10.09),,19981009,,造形の規範となっているもの,,京都府,京都府京都市右京区鳴滝宇多野谷２,,財団法人陽明文庫,,,35.03161000000000,135.70970000000000,近衛家に伝わる古文書・美術品などを収める収蔵庫。当時の近衛家所有地の一角に建てられた。収蔵品の重要性に鑑み，湿度管理などを意識して設計されている。土蔵風であるが，ＲＣによる堅牢な構造である。設計は長谷部鋭吉，大工棟梁は俣野忠蔵。,https://bunka.nii.ac.jp/heritage/43967/_101864/43967_101864111225011248202_300.jpg
101,00000875,陽明文庫第二文庫,ようめいぶんこだいにぶんこ,1棟,,登録有形文化財(建造物),文化福祉,建築物,,昭和前,昭和15,1940,鉄筋コンクリート造２階建，瓦葺，建築面積121㎡,,26 － 0028,14,1998.10.26(平成10.10.26),1998.10.09(平成10.10.09),,19981009,,造形の規範となっているもの,,京都府,京都府京都市右京区鳴滝宇多野谷２,,財団法人陽明文庫,,,35.03163000000000,135.70980000000000,近衛家が所有する美術品等を収める収蔵庫。第一文庫と同じく湿度管理，耐震耐火などを意識して建てられたが，厳しい資材事情から床下吹き放ちを断念するなど設計・仕様が異なっている。第一文庫と同じく設計は長谷部鋭吉，大工棟梁は俣野忠蔵。,https://bunka.nii.ac.jp/heritage/43967/_101865/43967_101865111225011249121_300.jpg
101,00000876,陽明文庫事務所,ようめいぶんこじむしょ,1棟,,登録有形文化財(建造物),文化福祉,建築物,,昭和前,昭和13,1938,木造平屋建，瓦葺，建築面積159㎡,,26 － 0029,14,1998.10.26(平成10.10.26),1998.10.09(平成10.10.09),,19981009,,造形の規範となっているもの,,京都府,京都府京都市右京区宇多野上ノ谷町1-2,,財団法人陽明文庫,,,35.03175000000000,135.71010000000000,木造平屋建ての事務所建築。第一文庫，第二文庫と並んで配置されている。簡素な意匠・構成になるが，玄関周りの格子状の意匠，暖炉の煙突などに特徴が見られ，全体として洋風とも和風ともつかない特色あるデザインである。設計は長谷部鋭吉。,https://bunka.nii.ac.jp/heritage/43967/_101866/43967_101866111225011249637_300.jpg
101,00000877,陽明文庫虎山荘,ようめいぶんここざんそう,1棟,,登録有形文化財(建造物),文化福祉,建築物,,昭和前,昭和17,1942,木造平屋建，瓦葺，建築面積393㎡,,26 － 0030,14,1998.10.26(平成10.10.26),1998.10.09(平成10.10.09),,19981009,,造形の規範となっているもの,,京都府,京都府京都市右京区宇多野福王子町50,,財団法人陽明文庫,,,35.03118000000000,135.70980000000000,陽明文庫所蔵品の閲覧を目的として建てられた数寄屋造りの別荘建築。主屋部分と客殿部分から構成され，内部に茶室（滴庵）などを持つ。伝統的な構法の中にも設計者である長谷部鋭吉による新たな試みが随所になされ，細部にも見るべきものがある。,https://bunka.nii.ac.jp/heritage/43967/_101867/43967_101867111225011250157_300.jpg
101,00000986,藤田家住宅主屋,ふじたけじゅうたくしゅおく,1棟,,登録有形文化財(建造物),住宅,建築物,,明治,明治9,1876,木造平屋建，瓦葺，建築面積191㎡,,26 － 0032,15,1998.12.25(平成10.12.25),1998.12.11(平成10.12.11),,19981211,,国土の歴史的景観に寄与しているもの,,京都府,京都府京都市伏見区横大路草津町25-1,,,,,34.92963000000000,135.73580000000000,桂川の左岸の旧街道沿いにある旧家で，主屋は道から少し後退して建つ。平面は，主体部が南側を広い土間とした整形６間取りで，落棟部分に１０畳大の座敷２室を付加する。土間の架構に見るべきものがある。全体的に質は高く整った外観は広く親しまれている。,https://bunka.nii.ac.jp/heritage/43967/_101976/43967_101976794713050091966_300.jpg
101,00000987,藤田家住宅土蔵,ふじたけじゅうたくどぞう,1棟,,登録有形文化財(建造物),住宅,建築物,,明治,明治9,1876,土蔵造２階建，瓦葺，建築面積25㎡,,26 － 0033,15,1998.12.25(平成10.12.25),1998.12.11(平成10.12.11),,19981211,,国土の歴史的景観に寄与しているもの,,京都府,京都府京都市伏見区横大路草津町25-1,,,,,34.92972000000000,135.73570000000000,かつて桂川に通じた屋敷地の西寄りに建つ妻入の小規模な土蔵で，側面及び背面は竪板張りとし正面に庇が付く。小屋は登梁を用い，出入口のほか小窓を２ヶ所設けるだけの閉鎖的な構えになる。堤防側からは，主屋ともに伝統的な屋敷構えを見せている。,https://bunka.nii.ac.jp/heritage/43967/_101977/43967_101977569941356355551_300.jpg
101,00001079,順正清水店（旧松風嘉定邸）,じゅんせいきよみずてん（きゅうしょうふうかていてい）,1棟,,登録有形文化財(建造物),住宅,建築物,,大正,大正3,1914,木造３階建塔屋付，瓦葺，建築面積256㎡,,26 － 0034,16,1999.03.12(平成11.03.12),1999.02.17(平成11.02.17),,19990217,,造形の規範となっているもの,,京都府,京都府京都市東山区清水2-239,,株式会社順正,,,34.99568000000000,135.78110000000000,清水焼の窯元の家で，清水坂のかたわらに建つ。木造３階建，セセッションスタイルの洋館であるが，屋根を幾重にも重ね，鴟尾を載せるなど場所柄を意識した意匠が採り入れられている。設計は武田五一。現在は，料理店として活用されている。,https://bunka.nii.ac.jp/heritage/43967/_102069/43967_102069111225011441461_300.jpg
101,00001117,富士ラビット,ふじらびっと,1棟,,登録有形文化財(建造物),産業3次,建築物,,大正,大正14頃,1925頃,鉄筋コンクリート造地上３階地下１階建，建築面積119㎡,,26 － 0037,17,1999.07.19(平成11.07.19),1999.06.07(平成11.06.07),,19990607,,国土の歴史的景観に寄与しているもの,,京都府,京都府京都市下京区七条通新町西入夷之町721,,,,,34.98911000000000,135.75660000000000,京都で自動車販売の草分けといわれる日光社の社屋として建てた３階建の商業ビル。社名の日光を象ったといわれる塔屋の意匠や古典的な柱のオーナメント、１階正面の自動車の描かれたステンドグラスなど様々な要素が混じり合った建物として知られている。,https://bunka.nii.ac.jp/heritage/43967/_102107/43967_102107111225011459224_300.jpg
101,00001198,京都大学基督教青年会会館,きょうとだいがくきりすときょうせいねんかいかいかん,1棟,,登録有形文化財(建造物),文化福祉,建築物,,大正,大正2,1913,煉瓦造２階建，スレート葺，建築面積197㎡,,26 － 0038,18,1999.07.21(平成11.07.21),1999.07.08(平成11.07.08),,19990708,,造形の規範となっているもの,,京都府,京都府京都市左京区吉田牛ノ宮町21、23,,財団法人日本キリスト教青年会同盟,,,35.02535000000000,135.77700000000000,京都大学本部構内の西方、東一条通りに南面して建つ。モルタル塗でハーフティンバー風に見せている点に特徴がある。ヴォーリズの初期の作風の一端が窺われるとともに、大学ＹＭＣＡ会館の現存最古例としても貴重である。,https://bunka.nii.ac.jp/heritage/43967/_102188/43967_102188111225011556190_300.jpg
101,00001199,旧口大野村役場庁舎,きゅうくちおおのむらやくばちょうしゃ,1棟,,登録有形文化財(建造物),官公庁舎,建築物,,昭和前,昭和4,1929,木造２階建，瓦葺，建築面積201㎡,,26 － 0039,18,1999.07.21(平成11.07.21),1999.07.08(平成11.07.08),,19990708,,造形の規範となっているもの,,京都府,京都府京丹後市大宮町口大野628-1,,京丹後市,,,35.58359000000000,135.09170000000000,北近畿タンゴ鉄道宮津線丹後大宮駅の北方、織物業で栄えた口大野地区の街道筋に位置する。昭和２年の丹後地震後の建設で、階下を事務室、階上を議場とする。多数のバンドコースをいれた外観意匠が特徴的な昭和初期役場建築の好例である。,https://bunka.nii.ac.jp/heritage/43967/_102189/43967_102189111225011556699_300.jpg
101,00001281,冨田屋主屋,とんだやしゅおく,1棟,,登録有形文化財(建造物),産業3次,建築物,,明治,明治前期,1868-1911,木造２階建，瓦葺，建築面積117㎡,,26 － 0040,19,1999.09.07(平成11.09.07),1999.08.23(平成11.08.23),,19990823,,造形の規範となっているもの,,京都府,京都府京都市上京区大宮通元誓願寺下る二丁目石薬師町697他,,,,,35.02742000000000,135.74880000000000,近世末期まで伏見で両替商を営んでいた所有者が、明治18年頃にこの地に移り織物問屋を創業して建てた建築である。間口約５間、奥行７間の大規模な表屋造で、明治期に京都市内に作られた大規模商家建築の好例ということができる。,https://bunka.nii.ac.jp/heritage/43967/_102271/43967_102271111225011644259_300.jpg
101,00001282,冨田屋離れ,とんだやはなれ,1棟,,登録有形文化財(建造物),産業3次,建築物,,昭和前,昭和10代,1935-1944,木造平屋建，瓦葺，建築面積89㎡,,26 － 0041,19,1999.09.07(平成11.09.07),1999.08.23(平成11.08.23),,19990823,,造形の規範となっているもの,,京都府,京都府京都市上京区大宮通元誓願寺下る二丁目石薬師町697他,,,,,35.02739000000000,135.74850000000000,昭和１０年代に敷地が西側に拡張されたのを受けて建築された。次の間を伴う離れ座敷と、応接間、茶室から構成され、南側に庭に面して縁を廻す。北側で宝蔵、中蔵と接しており、上層商家の建築構成を示すものとして欠くことのできないものである。,https://bunka.nii.ac.jp/heritage/43967/_102272/43967_102272111225011644515_300.jpg
101,00001283,冨田屋表蔵,とんだやおもてぐら,1棟,,登録有形文化財(建造物),産業3次,建築物,,明治,明治前期,1868-1911,土蔵造平屋建，瓦葺，建築面積35㎡,,26 － 0042,19,1999.09.07(平成11.09.07),1999.08.23(平成11.08.23),,19990823,,国土の歴史的景観に寄与しているもの,,京都府,京都府京都市上京区大宮通元誓願寺下る二丁目石薬師町697他,,,,,35.02736000000000,135.74880000000000,主屋と並び、街路に面して建つ土蔵。角地であるため妻面と平面を街路に見せている。街路側には出入り口を設けず、腰から下を一枚板で飾る特徴的な外観を持つ。現在は内部が居室として利用され、角地に建つこともあってランドマーク的な役割を果たしている。,https://bunka.nii.ac.jp/heritage/43967/_102273/43967_102273111225011645832_300.jpg
101,00001284,冨田屋中蔵,とんだやなかぐら,1棟,,登録有形文化財(建造物),産業3次,建築物,,明治,明治前期,1868-1911,土蔵造２階建，瓦葺，建築面積17㎡,,26 － 0043,19,1999.09.07(平成11.09.07),1999.08.23(平成11.08.23),,19990823,,造形の規範となっているもの,,京都府,京都府京都市上京区大宮通元誓願寺下る二丁目石薬師町697他,,,,,35.02744000000000,135.74860000000000,敷地の北端中央に立つ二階建ての土蔵。年代を示す資料はないが主屋と同時期と思われる。東の主屋側に扉を開き縁を廻して主屋、離れと連絡している。入口の上部には小規模ではあるが幾何学的模様の鏝絵を設けるなど、デザインにも工夫の跡が見られる。,https://bunka.nii.ac.jp/heritage/43967/_102274/43967_102274111225011646089_300.jpg
101,00001285,冨田屋宝蔵,とんだやほうぞう,1棟,,登録有形文化財(建造物),産業3次,建築物,,昭和前,昭和10,1935,土蔵造２階建，瓦葺，建築面積26㎡,,26 － 0044,19,1999.09.07(平成11.09.07),1999.08.23(平成11.08.23),,19990823,,造形の規範となっているもの,,京都府,京都府京都市上京区大宮通元誓願寺下る二丁目石薬師町697他,,,,,35.02745000000000,135.74850000000000,昭和１０年の敷地拡張とほぼ同時に建築された土蔵である。中蔵と同じく東面に入口を設けている。扉の内側には屋号である富田屋を示す装飾を設け、扉上部には「宝蔵」と記している。明治期の上層商家の屋敷構成を知る上で欠くことのできない建築である。,https://bunka.nii.ac.jp/heritage/43967/_102275/43967_102275111225011646593_300.jpg
101,00001286,西島家住宅主屋,にしじまけじゅうたくしゅおく,1棟,,登録有形文化財(建造物),産業3次,建築物,,明治,明治13,1880,木造２階建，瓦葺，建築面積119㎡,,26 － 0045,19,1999.09.07(平成11.09.07),1999.08.23(平成11.08.23),,19990823,,造形の規範となっているもの,,京都府,京都府京都市中京区車屋町通夷川上る少将井御旅町352,,,,,35.01566000000000,135.76020000000000,街路に東面して建つ中規模の町屋である。間口４間、奥行７間半の規模を持ち、１階の格子と犬矢来、２階の虫籠窓が外観を特徴づけている。通り土間を設けるなど標準的な表屋造の構成を示しており、明治期の商家の様子を今日に伝えている。,https://bunka.nii.ac.jp/heritage/43967/_102276/43967_102276111225011647099_300.jpg
101,00001287,西島家住宅土蔵,にしじまけじゅうたくどぞう,1棟,,登録有形文化財(建造物),産業3次,建築物,,江戸,江戸末期,1830-1867,土蔵造２階建，瓦葺，建築面積33㎡,,26 － 0046,19,1999.09.07(平成11.09.07),1999.08.23(平成11.08.23),,19990823,,造形の規範となっているもの,,京都府,京都府京都市中京区車屋町通夷川上る少将井御旅町352,,,,,35.01570000000000,135.76040000000000,敷地の最も奥側、東端に建つ。妻面の大半を板張りとするほかは漆喰壁とし、西側に庇をさしかけて蔵前とする。桁行４間の規模を持ち、建ちが高いのが特徴。家伝によれば元治の大火以前の建築とされるが、少なくとも主屋以前の建造になる蔵である。,https://bunka.nii.ac.jp/heritage/43967/_102277/43967_102277111225011647617_300.jpg
101,00001334,福知山市立惇明小学校本館,ふくちやましりつじゅんめいしょうがっこうほんかん,1棟,,登録有形文化財(建造物),学校,建築物,,昭和前,昭和12,1937,木造・鉄骨造2階建、鉄板葺、建築面積755㎡,,26 － 0050,20,1999.10.28(平成11.10.28),1999.10.14(平成11.10.14),,19991014,,国土の歴史的景観に寄与しているもの,,京都府,京都府福知山市字内記21,,福知山市,,,35.29658000000000,135.12480000000000,木造を主体としつつ梁・小屋組に鉄骨を用いた２階建の学校建築。装飾要素は少なく，特に正面入口横と２階隅部の大小の丸窓と連続窓にモダニズム建築の影響が見られ，２階全体を占める講堂は光に溢れる空間となっている。,https://bunka.nii.ac.jp/heritage/43967/_102324/43967_102324111225011719222_300.jpg
101,00001395,俵屋旅館,たわらやりょかん,1棟,,登録有形文化財(建造物),産業3次,建築物,,明治,明治初期,1868-1911,木造2階建、瓦葺、建築面積283㎡,,26 － 0048,20,1999.10.28(平成11.10.28),1999.10.14(平成11.10.14),,19991014,,国土の歴史的景観に寄与しているもの,,京都府,京都府京都市中京区麸屋町通姉小路上る中白山町280,,株式会社俵屋旅館 佐藤年,,,35.01021000000000,135.76580000000000,京都に現存する最古の旅館として知られる。禁門の変で焼失の後に再建された木造２階建の建物。玄関は麸屋町通りに面し，敷地の中には複数の中庭・外庭が全客室から見えるように配置される。洗練された数寄屋風建築に優雅さと風格が感じられる。,https://bunka.nii.ac.jp/heritage/43967/_102385/43967_102385111225011753248_300.jpg
101,00001396,齋藤家住宅,さいとうけじゅうたく,1棟,,登録有形文化財(建造物),住宅,建築物,,大正,大正13頃,1924頃,木造2階建、銅板葺、建築面積90㎡,,26 － 0047,20,1999.10.28(平成11.10.28),1999.10.14(平成11.10.14),,19991014,,国土の歴史的景観に寄与しているもの,,京都府,京都府京都市左京区吉田神楽岡町8-158,,,,,35.02649000000000,135.78810000000000,大正末期から昭和１７年頃にかけて神楽岡北東傾斜地に８ブロックに分けて，主に京大教官を対象に建設された２８件の借家の内の１件。木造２階建銅板葺の瀟洒な和風の外観を持つ。２階に独立の子供部屋を持つ点に特徴がある。設計者は前田巧。,https://bunka.nii.ac.jp/heritage/43967/_102386/43967_102386111225011754598_300.jpg
101,00001397,日本聖公会京都聖三一教会,にほんせいこうかいきょうとせいさんいちきょうかい,1棟,,登録有形文化財(建造物),宗教,建築物,,昭和前,昭和5,1930,木造2階建、瓦葺、建築面積182㎡,,26 － 0049,20,1999.10.28(平成11.10.28),1999.10.14(平成11.10.14),,19991014,,造形の規範となっているもの,,京都府,京都府京都市中京区聚楽廻中町45-1,,日本聖公会京都教区,,,35.01767000000000,135.74080000000000,階下を幼稚園，階上を礼拝堂に充てる。基礎を煉瓦，階下を縦板貼りとした和風真壁造的なハーフティンバースタイルの教会建築で，礼拝堂は幾何学的曲線を用いた軽快なトラス小屋組を持つ。設計はバーガミニー。,https://bunka.nii.ac.jp/heritage/43967/_102387/43967_102387111225011755110_300.jpg
101,00001428,佐々木家住宅,ささきけじゅうたく,1棟,,登録有形文化財(建造物),住宅,建築物,,江戸,江戸後期,1751-1829,木造平屋建、瓦葺、建築面積155㎡,,26 － 0051,21,1999.12.02(平成11.12.02),1999.11.18(平成11.11.18),,19991118,,造形の規範となっているもの,,京都府,京都府京都市上京区上立売通大宮一丁目東入下る藤木町783,,,,,35.03160000000000,135.75030000000000,つし二階建ての中規模な町家で，通り土間に沿って居室２列を配する。屋根は切妻造で，上手１列は棟を一段低くする。二階正面に虫籠窓と格子窓を配し，土間側正面の円形虫籠窓は京都では珍しい。江戸後期の京都町家の姿を伝えるものとして貴重。,https://bunka.nii.ac.jp/heritage/43967/_102418/43967_102418111225011817477_300.jpg
101,00001429,島津創業記念資料館南棟,しまづそうぎょうきねんしりょうかんなんとう,1棟,,登録有形文化財(建造物),住宅,建築物,,明治,明治21,1888,木造2階建、瓦葺、建築面積138㎡,,26 － 0052,21,1999.12.02(平成11.12.02),1999.11.18(平成11.11.18),,19991118,,国土の歴史的景観に寄与しているもの,,京都府,京都府京都市中京区西木屋町通二条下る東入西生州町478-1,,株式会社島津製作所,,,35.01282000000000,135.77020000000000,明治期の科学研究の礎を築いた島津源蔵の住宅兼研究所であった建物で，現在は内部を改装して資料館とする。木造二階建，切妻造，桟瓦葺の伝統的な町家の形式を基調とながら，近代的なデザインを取り入れ，二階は土蔵造風にして大きな窓を並べる。,https://bunka.nii.ac.jp/heritage/43967/_102419/43967_102419111225011818034_300.jpg
101,00001430,島津創業記念資料館北棟,しまづそうぎょうきねんしりょうかんほくとう,1棟,,登録有形文化財(建造物),住宅,建築物,,明治,明治27,1894,木造2階建、瓦葺、建築面積168㎡,,26 － 0053,21,1999.12.02(平成11.12.02),1999.11.18(平成11.11.18),,19991118,,国土の歴史的景観に寄与しているもの,,京都府,京都府京都市中京区西木屋町通二条下る東入西生州町478-1,,株式会社島津製作所,,,35.01294000000000,135.77020000000000,島津源蔵の住宅兼研究所として，南棟の北に増築された本二階建ての建物。屋根は片寄棟造とし，南棟よりも棟を高めている。大斗肘木状の柱頭飾り，ステンドグラスを用いた欄間，軽快な吹き寄せ垂木などのデザイン要素を巧みに取り入れた質の高い和風建築。,https://bunka.nii.ac.jp/heritage/43967/_102420/43967_102420111225011818931_300.jpg
101,00001431,山口家住宅主屋,やまぐちけじゅうたくしゅおく,1棟,,登録有形文化財(建造物),住宅,建築物,,江戸,江戸末期～明治初期,1830-1911,木造平屋建、瓦葺、建築面積153㎡,,26 － 0054,21,1999.12.02(平成11.12.02),1999.11.18(平成11.11.18),,19991118,,造形の規範となっているもの,,京都府,京都府京都市西京区山田上ノ町26,,,,,34.98753000000000,135.68790000000000,代々庄屋を営んでいた旧家の主屋。つし二階建て，切妻造の中央部の周囲に庇を廻した形式で，桟瓦葺とする。囲炉裏や竈が残る広い土間に沿って一列に居室を並べる。最前の一室は土間から入る玄関の間とし，その上手に式台の間が張り出す。,https://bunka.nii.ac.jp/heritage/43967/_102421/43967_102421111225011819438_300.jpg
101,00001432,山口家住宅座敷棟,やまぐちけじゅうたくざしきとう,1棟,,登録有形文化財(建造物),住宅,建築物,,大正,大正期～昭和初期,1912-1988,木造平屋建、瓦葺、建築面積83㎡,,26 － 0055,21,1999.12.02(平成11.12.02),1999.11.18(平成11.11.18),,19991118,,造形の規範となっているもの,,京都府,京都府京都市西京区山田上ノ町26,,,,,34.98746000000000,135.68790000000000,主屋の式台の間の上手に接続し，主屋との間に中庭を挟んで座敷，仏間，次の間，茶室などを配す。大正から昭和初期の和風書院建築で，昭和４０年頃に現在地に移築したものである。良質で洗練された意匠を持ち，主屋とも調和して一体の趣をもつ。,https://bunka.nii.ac.jp/heritage/43967/_102422/43967_102422111225011819949_300.jpg
101,00001433,山口家住宅長屋門,やまぐちけじゅうたくながやもん,1棟,,登録有形文化財(建造物),住宅,建築物,,江戸,江戸後期,1751-1829,木造平屋建、茅葺、建築面積66㎡,,26 － 0056,21,1999.12.02(平成11.12.02),1999.11.18(平成11.11.18),,19991118,,国土の歴史的景観に寄与しているもの,,京都府,京都府京都市西京区山田上ノ町26,,,,,34.98752000000000,135.68810000000000,入母屋造，茅葺の大型の長屋門で，東面する。背面北半部と北側面に桟瓦葺の庇が張り出す。入口に両開きの板扉と脇戸を設け，右手外壁面に横連子窓を構える。旧家の表門としての豪壮で風格のある構えを良く伝えており，歴史的な街路景観を引き立たせている。,https://bunka.nii.ac.jp/heritage/43967/_102423/43967_102423111225011821444_300.jpg
101,00001434,神崎コンクリート株式会社旧煉瓦窯（旧京都竹村丹後製窯所煉瓦窯）,かんざきこんくりーとかぶしきがいしゃきゅうれんががま（きゅうきょうとたけむらたんごせいようしょれんががま）,1棟,,登録有形文化財(建造物),産業2次,建築物,,大正,大正末期,1912-1925,上屋付煉瓦造、長径45m、短径9m、大煙突1基及び小煙突11基附属,,26 － 0057,21,1999.12.02(平成11.12.02),1999.11.18(平成11.11.18),,19991118,,再現することが容易でないもの,,京都府,京都府舞鶴市字西神崎918,,,,公益財団法人舞鶴文化教育財団,35.51439300000000,135.29251100000000,明治３０年建設の登り窯を，大正末期にホフマン式輪窯に改造したもの。長径45ｍ，短径９ｍの楕円形輪釜で，内法高さ1.8ｍ，幅2.8ｍのトンネルヴォールトがドーナツ状に巡り，高さ２４ｍの大煙突１基と各焼成室ごとに設けた小煙突11基を備える。,https://bunka.nii.ac.jp/heritage/43967/_102424/43967_102424680540925138427_300.jpg
101,00001524,大谷大学尋源館（旧本館）,おおたにだいがくじんげんかん（きゅうほんかん）,1棟,,登録有形文化財(建造物),学校,建築物,,大正,大正2,1913,煉瓦造2階建、瓦葺、建築面積587㎡,,26 － 0058,22,2000.03.02(平成12.03.02),2000.02.15(平成12.02.15),,20000215,,造形の規範となっているもの,,京都府,京都府京都市北区小山上総町20-1,,学校法人真宗大谷学園,,,35.04185000000000,135.75840000000000,烏丸通北大路下るの現在地にキャンパスを移した際の大学本館。赤煉瓦に石でドレッシングした明治調の躯体に軽快な玄関ポーチと小塔を付ける。ゲーブルには大正期のセセッション的意匠が認められる。設計は須藤勉と山本八太郎とされる。,https://bunka.nii.ac.jp/heritage/43967/_102514/43967_102514111225011910848_300.jpg
101,00001525,藤井斉成会有鄰館第二館,ふじいさいせいかいゆうりんかんだいにかん,1棟,,登録有形文化財(建造物),住宅,建築物,,大正,大正初期／昭和3移築,1912-1925／1928移築,木造2階建、鉄板葺、建築面積250㎡,,26 － 0059,22,2000.03.02(平成12.03.02),2000.02.15(平成12.02.15),,20000215,,造形の規範となっているもの,,京都府,京都府京都市左京区岡崎円勝寺町44、45,,財団法人藤井斉成会,,,35.01126000000000,135.78120000000000,昭和の御大典に際し，大蔵大臣用の宿泊所として金沢市所在の横山鉱業部洋館を移築したもの。武田五一設計の第一館（京都市登録有形文化財）の背後に建つ。玄関ポーチの屋根形状や，内部のセセッション風意匠などに時代的な特色がよくあらわれている。,https://bunka.nii.ac.jp/heritage/43967/_102515/43967_102515111225011913678_300.jpg
101,00001526,藤井斉成会有鄰館収蔵庫,ふじいさいせいかいゆうりんかんしゅうぞうこ,1棟,,登録有形文化財(建造物),住宅,建築物,,昭和前,昭和3,1928,木造2階建、瓦葺、建築面積58㎡,,26 － 0060,22,2000.03.02(平成12.03.02),2000.02.15(平成12.02.15),,20000215,,造形の規範となっているもの,,京都府,京都府京都市左京区岡崎円勝寺町44、45,,財団法人藤井斉成会,,,35.01148000000000,135.78110000000000,第二館の北側，第一館との間に建つ。第二館の同様に，設計者は寺生元彦で，「取毀材を用いて新築」され，外壁には同じ仕様の白タイルが張られている。第二館と一体のものとして建てられ，２階には床と棚が設えられているなど上質な造りになる。,https://bunka.nii.ac.jp/heritage/43967/_102516/43967_102516111225011914181_300.jpg
101,00001715,河井寬次郎記念館（旧河井寬次郎邸）主屋,かわいかんじろうきねんかん（きゅうかわいかんじろうてい）しゅおく,1棟,,登録有形文化財(建造物),住宅,建築物,,昭和前,昭和12,1937,木造2階建、瓦葺、建築面積148㎡,,26 － 0061,24,2000.05.25(平成12.05.25),2000.04.28(平成12.04.28),,20000428,,造形の規範となっているもの,,京都府,京都府京都市東山区馬町通大和大路東入鐘鋳町569他,,,,,34.99357000000000,135.77430000000000,陶芸家河井寛次郎の居宅兼工房として建設、寛次郎自身の設計と伝える。主屋は寄棟造妻入で出桁造の建築に千本格子や矢来など京都の町家の意匠を取り入れ、囲炉裏付の板敷広間の空間構成や古色仕上げの材、漆塗りの建具などに独自の住宅観や美意識を示す。,https://bunka.nii.ac.jp/heritage/43967/_102705/43967_102705151214161840551_300.jpg
101,00001716,河井寬次郎記念館（旧河井寬次郎邸）陶房,かわいかんじろうきねんかん（きゅうかわいかんじろうてい）とうぼう,1棟,,登録有形文化財(建造物),住宅,建築物,,昭和前,昭和4頃,1929頃,木造平屋建、瓦葺、建築面積54㎡,,26 － 0062,24,2000.05.25(平成12.05.25),2000.04.28(平成12.04.28),,20000428,,造形の規範となっているもの,,京都府,京都府京都市東山区馬町通大和大路東入鐘鋳町569他,,,,,34.99347000000000,135.77450000000000,土間（現休憩室）と板間の２室からなる平屋。板間は椅子式生活用の低床部と、座敷生活用の高床部とに分かれ、高床部に轆轤を置いていた。主屋新築に先立って建設されたと伝える。室内床を二段構成とする手法は主屋の広間とも共通する。,https://bunka.nii.ac.jp/heritage/43967/_102706/43967_102706151214161841293_300.jpg
101,00001717,河井寬次郎記念館（旧河井寬次郎邸）小間,かわいかんじろうきねんかん（きゅうかわいかんじろうてい）こま,1棟,,登録有形文化財(建造物),住宅,建築物,,昭和前,昭和12,1937,木造平屋建、瓦葺、建築面積11㎡,,26 － 0063,24,2000.05.25(平成12.05.25),2000.04.28(平成12.04.28),,20000428,,造形の規範となっているもの,,京都府,京都府京都市東山区馬町通大和大路東入鐘鋳町569他,,,,,34.99346000000000,135.77440000000000,簀子天井の二畳の間と井戸を設けた土間からなり、併設されていた水屋は現在撤去されている。民家風の太い材料を用いた茶室建築として特色がある。茶を点てたことはなく思索の場として用いられたと言う。主屋と同時期の建築と伝える。,https://bunka.nii.ac.jp/heritage/43967/_102707/43967_102707151214161842083_300.jpg
101,00001718,河井寬次郎記念館（旧河井寬次郎邸）登り窯,かわいかんじろうきねんかん（きゅうかわいかんじろうてい）のぼりがま,1棟,,登録有形文化財(建造物),産業2次,建築物,,明治,明治期,1868-1911,煉瓦造、奥行15m、幅4.8m,,26 － 0064,24,2000.05.25(平成12.05.25),2000.04.28(平成12.04.28),,20000428,,再現することが容易でないもの,,京都府,京都府京都市東山区馬町通大和大路東入鐘鋳町569他,,,,,34.99338000000000,135.77470000000000,屋敷地東端に位置するレンガ造の登り窯で、木造平屋建の上屋が架かる。築造沿革は明らかでないが、大正９年に清水六兵衛から譲り受けた後、９室であった窯を８室に改めている。五条坂地区の京焼・清水焼の登り窯遺構として現存する数少ないもの。,https://bunka.nii.ac.jp/heritage/43967/_102708/43967_102708151214161842447_300.jpg
101,00001719,河井寬次郎記念館（旧河井寬次郎邸）素焼窯,かわいこうじろうきねんかん（きゅうかわいこうじろうてい）すやきがま,1棟,,登録有形文化財(建造物),住宅,その他工作物,,昭和前,昭和初期,1926-1988,煉瓦造、奥行き1.8m、幅1.6m,,26 － 0065,24,2000.05.25(平成12.05.25),2000.04.28(平成12.04.28),,20000428,,再現することが容易でないもの,,京都府,京都府京都市東山区馬町通大和大路東入鐘鋳町569他,,,,,34.99345000000000,135.77440000000000,陶房の東に隣接する木造平屋建の土間内にあるレンガ造の窯。登り窯での本焼行程の前に成形した陶土を素焼きするための施設。寛次郎の設計により窯築職人が築造したものと言われる。陶房・登り窯と一連の工房施設として重要な構成要素。,https://bunka.nii.ac.jp/heritage/43967/_102709/43967_102709151214161842838_300.jpg
101,00001776,百石斎（旧田邉朔郎書斎）,ひゃくせきさい（きゅうたなべさくろうしょさい）,1棟,,登録有形文化財(建造物),住宅,建築物,,大正,大正6頃,1917頃,鉄筋コンクリート造2階建、瓦葺、建築面積25㎡,,26 － 0066,25,2000.10.11(平成12.10.11),2000.09.26(平成12.09.26),,20000926,,国土の歴史的景観に寄与しているもの,,京都府,京都府京都市左京区浄土寺真如町10-2,,,,,35.02261000000000,135.78770000000000,琵琶湖疏水を計画・設計した田邉朔郎の設計による鉄筋コンクリート造２階建の書斎。内部にキングポストトラスを用いる。土蔵造風であるが，妻面に各階二つの窓を配すと共に小庇を四面に周し，採光に考慮する。ＲＣ造を得意とした田邉の堅実な作風が窺える。,https://bunka.nii.ac.jp/heritage/43967/_102766/43967_102766111225012201318_300.jpg
101,00001918,同志社女子大学ジェームズ館,どうししゃじょしだいがくじぇーむずかん,1棟,,登録有形文化財(建造物),学校,建築物,,大正,大正2,1913,煉瓦造地上2階地下1階建、瓦葺、建築面積697㎡,,26 － 0067,26,2000.11.06(平成12.11.06),2000.10.18(平成12.10.18),,20001018,,造形の規範となっているもの,,京都府,京都府京都市上京区今出川通烏丸東入玄武町602-1,,学校法人同志社,,,35.02962000000000,135.76360000000000,明治末期に始まるキャンパス内校舎改築時に，Ｗ・ジェームズ夫人の寄付により建設。煉瓦造２階建，桟瓦葺で正面玄関に歯飾をあしらった櫛形ペディメントを構える。カルフォルニアの民家建築を参考にしたと伝わる。栄光館と同じく武田五一の設計。,https://bunka.nii.ac.jp/heritage/43967/_102908/43967_102908111225012343542_300.jpg
101,00001919,同志社女子大学栄光館,どうししゃじょしだいがくえいこうかん,1棟,,登録有形文化財(建造物),学校,建築物,,昭和前,昭和7,1932,鉄筋コンクリート造地上2階一部3階地下1階建、瓦葺、建築面積1637㎡、塔屋付,,26 － 0068,26,2000.11.06(平成12.11.06),2000.10.18(平成12.10.18),,20001018,,造形の規範となっているもの,,京都府,京都府京都市上京区今出川通烏丸東入玄武町602-1,,学校法人同志社,,,35.02972000000000,135.76420000000000,ジェームズ館と静和館（現存せず）間に建造。ＲＣ造２階一部３階建。煉瓦造の前述２館との景観的統一性に配慮し煉瓦タイル張とする。中央玄関上の庇とテラス高欄に浅彫を施し，その上部に大規模な八角塔屋を冠す。玄関と背面に突出する講堂の内部意匠は秀逸。,https://bunka.nii.ac.jp/heritage/43967/_102909/43967_102909111225012344950_300.jpg
101,00001920,京都大学本部構内正門（旧第三高等中学校正門）,きょうとだいがくほんぶこうないせいもん（きゅうだいさんこうとうちゅうがっこうせいもん）,1基,,登録有形文化財(建造物),学校,その他工作,,明治,明治26,1893,石造、間口3.3m、片側通用門及び左右袖壁付,,26 － 0069,26,2000.11.06(平成12.11.06),2000.10.18(平成12.10.18),,20001018,,国土の歴史的景観に寄与しているもの,,京都府,京都府京都市左京区吉田本町,,国立大学法人京都大学,,,35.02539000000000,135.78080000000000,京都大学キャンパスの中枢をなす本部の正門。当キャンパス内で最初期の建造物で，第三高等中学校正門として建設。門柱は石面と擬石面を交互に重ね，背面に大きな控えをとる。門柱の左右に石造袖塀を付け，西側に通用口を開ける。設計は山口半六と久留正道。,https://bunka.nii.ac.jp/heritage/43967/_102910/43967_102910111225012345450_300.jpg
101,00001921,京都大学総合人間学部正門（旧第三高等学校正門）,きょうとだいがくそうごうにんげんがくぶせいもん（きゅうだいさんこうとうがっこうせいもん）,1基,,登録有形文化財(建造物),学校,その他工作,,明治,明治30,1897,木造、間口3.3m、左右通用門及び袖壁付,,26 － 0070,26,2000.11.06(平成12.11.06),2000.10.18(平成12.10.18),,20001018,,国土の歴史的景観に寄与しているもの,,京都府,京都府京都市左京区吉田二本松町,,国立大学法人京都大学,,,35.02516000000000,135.78040000000000,京大構内南部吉田二本松地区に位置する。木造門柱の両脇に，通用門が付く。大門柱の礎石部と木製柱身部が追掛大栓継ぎで結合される点に特徴があり，門扉は上桟をアーチ状とし，全体で和洋が混在したデザインとする。門衛所と共に真水英夫の設計と伝える。,https://bunka.nii.ac.jp/heritage/43967/_102911/43967_102911111225012345962_300.jpg
101,00001922,京都大学総合人間学部門衛所（旧第三高等学校門番所）,きょうとだいがくそうごうにんげんがくぶもんえいじょ（きゅうだいさんこうとうがっこうもんばんしょ）,1棟,,登録有形文化財(建造物),学校,建築物,,明治,明治30,1897,木造平屋建、鉄板葺、建築面積19㎡,,26 － 0071,26,2000.11.06(平成12.11.06),2000.10.18(平成12.10.18),,20001018,,国土の歴史的景観に寄与しているもの,,京都府,京都府京都市左京区吉田二本松町,,国立大学法人京都大学,,,35.02510000000000,135.78030000000000,三高吉田学舎が京都帝国大学に譲渡されるに伴い，新三高キャンパスの門衛所として正門と同時に建設。木造，鉄板葺，ドイツ下見の平屋建。東面の受付部を八角屋根状に造り，居室部の切妻屋根と組み合わせる。二本松学舎における明治期建造物の数少ない遺構。,https://bunka.nii.ac.jp/heritage/43967/_102912/43967_102912111225012346485_300.jpg
101,00001923,京都大学人文科学研究所附属漢字情報研究センター,きょうとだいがくじんぶんかがくけんきゅうじょふぞくかんじじょうほうけんきゅうせんたー,1棟,,登録有形文化財(建造物),文化福祉,建築物,,昭和前,昭和5,1930,鉄筋コンクリート2階建、建築面積2436㎡、塔屋付,,26 － 0072,26,2000.11.06(平成12.11.06),2000.10.18(平成12.10.18),,20001018,,造形の規範となっているもの,,京都府,京都府京都市左京区北白川東小倉町47,,国立大学法人京都大学,,,35.03023000000000,135.78980000000000,外務省東方文化学院京都研究所として建設。ＲＣ造，外壁スタッコ仕上で、塔付２階建の西棟と平屋建の他棟が中庭を囲みロ字形平面を構成する。スパニッシュ･ミッション様式を基調に外観･内装ともに高密度のデザインが施される。設計は武田五一と東畑謙三。,https://bunka.nii.ac.jp/heritage/43967/_102913/43967_102913111225012347000_300.jpg
101,00001924,近鉄澱川橋梁,きんてつよどがわきょうりょう,1基,,登録有形文化財(建造物),交通,土木構造物,,昭和前,昭和3,1928,鉄製トラス橋、橋長165m、幅員11m,,26 － 0073,26,2000.11.06(平成12.11.06),2000.10.18(平成12.10.18),,20001018,,国土の歴史的景観に寄与しているもの,,京都府,京都府京都市伏見区弾正島～向島西堤町,,近畿日本鉄道株式会社,,,34.92564000000000,135.76550000000000,旧奈良電鉄によって宇治川に架けられた下路式曲弦プラット分格トラス橋。陸軍演習に支障がないよう無橋脚橋梁として建設され，我が国の単純トラス橋で最大の径間長１６５ｍを誇る。関場茂樹の設計で，神戸川崎造船所製作。宇治川の鉄道景観を代表する建造物。,https://bunka.nii.ac.jp/heritage/43967/_102914/43967_102914111225012348422_300.jpg
101,00002051,キンシ正宗堀野記念館（旧堀野家本宅）主屋,きんしまさむねほりのきねんかん（きゅうほりのけほんたく）しゅおく,1棟,,登録有形文化財(建造物),産業3次,建築物,,明治,明治中期,1868-1911,木造2階建、瓦葺、建築面積210㎡,,26 － 0074,27,2000.12.20(平成12.12.20),2000.12.04(平成12.12.04),,20001204,,造形の規範となっているもの,,京都府,京都府京都市中京区堺町通二条上る亀屋町172,,キンシ正宗株式会社,,,35.01409000000000,135.76300000000000,堺町通に東面して建つ間口６間半規模のやや大型の町家。主体部は南北棟，切妻造，桟瓦葺で，正面は階下に２本切子格子，階上に虫籠窓を並べ，黒漆喰で仕上げる。内部は２段２列に室を配置し，階上に書院座敷，階下に数寄屋風座敷を設ける点に特徴がある。,https://bunka.nii.ac.jp/heritage/43967/_103041/43967_103041111225012507154_300.jpg
101,00002052,キンシ正宗堀野記念館（旧堀野家本宅）天明蔵,きんしまさむねほりのきねんかん（きゅうほりのけほんたく）てんめいぐら,1棟,,登録有形文化財(建造物),産業2次,建築物,,江戸,元治元以前,1864以前,土蔵造2階建、瓦葺、建築面積70㎡,,26 － 0075,27,2000.12.20(平成12.12.20),2000.12.04(平成12.12.04),,20001204,,国土の歴史的景観に寄与しているもの,,京都府,京都府京都市中京区堺町通二条上る亀屋町172,,キンシ正宗株式会社,,,35.01412000000000,135.76280000000000,もと酒蔵で，主屋の西北方奥，敷地の西辺に沿って建つ。桁行５間半，梁行４間規模，南北棟，切妻造，本瓦葺，平入のやや大型の２階建土蔵で，中央に棟持柱を置いて棟を支持する構造に古式が認められる。北側はレストランに改修され利活用が図られている。,https://bunka.nii.ac.jp/heritage/43967/_103042/43967_103042111225012508078_300.jpg
101,00002053,キンシ正宗堀野記念館（旧堀野家本宅）文庫蔵,きんしまさむねほりのきねんかん（きゅうほりのけほんたく）ぶんこぐら,1棟,,登録有形文化財(建造物),住宅,建築物,,江戸,文政3,1820,土蔵造2階建、瓦葺、建築面積19㎡,,26 － 0076,27,2000.12.20(平成12.12.20),2000.12.04(平成12.12.04),,20001204,,再現することが容易でないもの,,京都府,京都府京都市中京区堺町通二条上る亀屋町172,,キンシ正宗株式会社,,,35.01407000000000,135.76270000000000,主屋の西方，井戸の奥に建つ。桁行２間半，梁行２間半規模，南北棟，切妻造，本瓦葺，平入のたちの低い２階建土蔵で，東面に桟瓦葺の庇を差し掛けて戸前をする。２階棟木下の棟札により文政３年８月４日の上棟，「棟梁　三巻善兵衛」が判明する。,https://bunka.nii.ac.jp/heritage/43967/_103043/43967_103043111225012508606_300.jpg
101,00002054,旧徳力彦之助邸（ギャラリー工房・チェリ）,,1棟,,登録有形文化財(建造物),住宅,建築物,,昭和前,昭和12,1937,木造一部鉄筋コンクリート地上2階地下1階建、スレート葺、建築面積187㎡,,26 － 0077,27,2000.12.20(平成12.12.20),2000.12.04(平成12.12.04),,20001204,,造形の規範となっているもの,,京都府,京都府京都市右京区太秦組石町2-2,,,,,35.01180000000000,135.70820000000000,京福電鉄嵐山本線太秦駅の南方，太秦小学校校庭に面して建つ。漆芸家・徳力彦之助が英国客船の調度品を購入し自ら設計した住宅兼アトリエ。櫻井馬淵建築事務所が実施設計にあたり，チューダーゴシックに仕上げる。傾斜地のためＲＣ造地下室に玄関を設ける。,https://bunka.nii.ac.jp/heritage/43967/_103044/43967_103044111225012508871_300.jpg
101,00002055,上田家住宅（町家ぎゃらりー妙芸）主屋,うえだけじゅうたく（まちやぎゃらりーみょうげい）しゅおく,1棟,,登録有形文化財(建造物),住宅,建築物,,大正,大正10,1921,木造2階建、瓦葺、建築面積139㎡,,26 － 0078,27,2000.12.20(平成12.12.20),2000.12.04(平成12.12.04),,20001204,,造形の規範となっているもの,,京都府,京都府京都市右京区花園木辻南町24-1,,,,,35.02097000000000,135.72280000000000,妙心寺道に北面して建つ。施主は妙心寺出入りの大工で，その弟子が建設にあたったことが判明している。間口５間半規模，東西棟，切妻造，桟瓦葺の町家で，たちが高く，土間上部の架構も繊細で，大正から昭和にかけて普及した近代京町家の特徴をそなえている。,https://bunka.nii.ac.jp/heritage/43967/_103045/43967_103045111225012510252_300.jpg
101,00002056,芦田家住宅（旧片岡家別荘）主屋,あしだけじゅうたく（きゅうかたおかけべっそう）しゅおく,1棟,,登録有形文化財(建造物),住宅,建築物,,大正,大正15,1926,木造地上2階地下1階建、瓦葺、建築面積123㎡,,26 － 0079,27,2000.12.20(平成12.12.20),2000.12.04(平成12.12.04),,20001204,,造形の規範となっているもの,,京都府,京都府福知山市下柳18,,,,,35.30301000000000,135.12610000000000,近代福知山の基盤を築いた実業家の別業で，由良川左岸の堤防道路に沿った敷地に建つ。堤防の高低差を巧みに利用した三層建物で，中層階を生活空間に充て，上層階に奇想に富んだ床構えをもつ座敷を配置する。赤松の上材をふんだんに用いた近代別荘建築の好例。,https://bunka.nii.ac.jp/heritage/43967/_103046/43967_103046111225012511011_300.jpg
101,00002057,石田家住宅主屋,いしだけじゅうたくしゅおく,1棟,,登録有形文化財(建造物),産業3次,建築物,,江戸,江戸末期,1830-1867,木造平屋建、瓦葺、建築面積183㎡,,26 － 0080,27,2000.12.20(平成12.12.20),2000.12.04(平成12.12.04),,20001204,,造形の規範となっているもの,,京都府,京都府長岡京市神足2-13-10,,長岡京市,,,34.91995000000000,135.69840000000000,市内を縦貫する旧西国街道に東面して建つ。切妻造，桟瓦葺，つし２階の町家で，北東南３面に桟瓦葺の庇を廻す。内部は南に通り庭を，北に２列６室を配する。神足村旧家の商家を石田家先代が購入したもので，茶の小売業を営みつつ旧街道の佇まいを今に伝える。,https://bunka.nii.ac.jp/heritage/43967/_103047/43967_103047111225012511512_300.jpg
101,00002289,近又主屋,きんまたしゅおく,1棟,,登録有形文化財(建造物),産業3次,建築物,,明治,明治中期,1868-1911,木造2階建、瓦葺、建築面積110㎡,,26 － 0081,29,2001.09.14(平成13.09.14),2001.08.28(平成13.08.28),,20010828,,造形の規範となっているもの,,京都府,京都府京都市中京区御幸町通四条上る大日町407,,,,,35.00475000000000,135.76620000000000,近江出身の近江屋又八が創業した商人宿。近又は屋号で，明治３６年頃に現在地に移った。御幸町通に東面して建つ２階建・平入・桟瓦葺の町家建築で，１階北半と２階に客室を設ける。数寄屋風の意匠でまとめられ，床や棚，窓，欄間など変化に富んだ造形を持つ。,https://bunka.nii.ac.jp/heritage/43967/_103279/43967_103279111225012741902_300.jpg
101,00002290,近又離れ,きんまたはなれ,1棟,,登録有形文化財(建造物),産業3次,建築物,,昭和前,昭和3頃,1928頃,木造2階建、瓦葺、建築面積98㎡,,26 － 0082,29,2001.09.14(平成13.09.14),2001.08.28(平成13.08.28),,20010828,,造形の規範となっているもの,,京都府,京都府京都市中京区御幸町通四条上る大日町407,,,,,35.00476000000000,135.76620000000000,主屋の後方に中庭を挟んで連なり，昭和３年の御大礼に際して建設されたという。２階建，切妻造・桟瓦葺で，１階・２階とも中廊下とし，上手２室，下手１室の客室を配する。主屋と同じく数寄屋風で，障子等の建具や板欄間など細部に凝ったつくりをみせる。,https://bunka.nii.ac.jp/heritage/43967/_103280/43967_103280111225012742425_300.jpg
101,00002291,ぎ園甲部歌舞練場本館,ぎおんこうぶかぶれんじょうほんかん,1棟,,登録有形文化財(建造物),文化福祉,建築物,,大正,大正2,1913,木造地上2階一部地下1階建、瓦葺、建築面積1035㎡,,26 － 0083,29,2001.09.14(平成13.09.14),2001.08.28(平成13.08.28),,20010828,,国土の歴史的景観に寄与しているもの,,京都府,京都府京都市東山区祇園町南側570-2,,学校法人八坂女紅場学園,,,35.00141000000000,135.77580000000000,西面して建つ木造２階建で，広大な南北棟の入母屋造・瓦葺屋根を架け，西面に千鳥破風を設ける。北側を舞台，南側を客席とした構成で，良質の檜材を用いた丁寧なつくりになる。記念的な木造の大劇場建築であり，明治期の祇園町都踊りの盛況を物語っている。,https://bunka.nii.ac.jp/heritage/43967/_103281/43967_103281111225012742939_300.jpg
101,00002292,ぎ園甲部歌舞練場別館,ぎおんこうぶかぶれんじょうべっかん,1棟,,登録有形文化財(建造物),文化福祉,建築物,,大正,大正2,1913,木造2階建、瓦葺、建築面積712㎡,,26 － 0084,29,2001.09.14(平成13.09.14),2001.08.28(平成13.08.28),,20010828,,国土の歴史的景観に寄与しているもの,,京都府,京都府京都市東山区祇園町南側570-2,,学校法人八坂女紅場学園,,,35.00126000000000,135.77590000000000,本館の南側に接する東西棟・妻入の細長い建物で，１階は当初７０畳敷の点茶席，２階は休憩室・待合室で床・棚付の２室とする。正面となる西面は車寄の唐破風，玄関となる妻庇上の千鳥破風，入母屋造の妻飾が階段状に続き，躍動感のある外観を構成している。,https://bunka.nii.ac.jp/heritage/43967/_103282/43967_103282111225012743456_300.jpg
101,00002293,ぎ園甲部歌舞練場玄関,ぎおんこうぶかぶれんじょうげんかん,1棟,,登録有形文化財(建造物),文化福祉,建築物,,大正,大正2,1913,木造平屋建、瓦葺、建築面積286㎡,,26 － 0085,29,2001.09.14(平成13.09.14),2001.08.28(平成13.08.28),,20010828,,国土の歴史的景観に寄与しているもの,,京都府,京都府京都市東山区祇園町南側570-2,,学校法人八坂女紅場学園,,,35.00194000000000,135.77520000000000,東側本館，南側別館，北側の弥栄会館に囲まれた位置に建ち，演舞会時には一等玄関・一等待合に使用されてきた。入母屋造の主体部に唐破風の車寄を接続した形態で，主体部は４５畳と３０畳の板間に分かれていた。入口に相応しい堂々とした外観を備えている。,https://bunka.nii.ac.jp/heritage/43967/_103283/43967_103283111225012744850_300.jpg
101,00002294,ぎ園甲部歌舞練場正門,ぎおんこうぶかぶれんじょうせいもん,1棟,,登録有形文化財(建造物),文化福祉,建築物,,昭和前,昭和11,1936,鉄筋コンクリート造平屋建、瓦葺、建築面積174㎡,,26 － 0086,29,2001.09.14(平成13.09.14),2001.08.28(平成13.08.28),,20010828,,国土の歴史的景観に寄与しているもの,,京都府,京都府京都市東山区祇園町南側570-2,,学校法人八坂女紅場学園,,,35.00166000000000,135.77500000000000,祇園甲部歌舞練場は，明治６年に杉浦治郎右衛門が新しい歌舞芸能として考案した「都踊り」開催場として建設したことに始まる。鉄筋コンクリート造，平屋建，寄棟造・銅板瓦葺の建物で，敷地西側の花見小路に面して建ち，アプローチを構成する重要な要素。,https://bunka.nii.ac.jp/heritage/43967/_103284/43967_103284111225012745673_300.jpg
101,00002295,八坂倶楽部,やさかくらぶ,1棟,,登録有形文化財(建造物),文化福祉,建築物,,大正,大正2,1913,木造2階建、瓦葺、建築面積746㎡,,26 － 0087,29,2001.09.14(平成13.09.14),2001.08.28(平成13.08.28),,20010828,,国土の歴史的景観に寄与しているもの,,京都府,京都府京都市東山区祇園町南側570-2,,学校法人八坂女紅場学園,,,35.00117000000000,135.77550000000000,木造２階建，入母屋造・瓦葺の大屋根を架けた建物で，敷地南奥に建つ。北面西側に軒唐破風付の玄関を設け，東面と南面から庭園を望む。１階は特等客向けの待合・点茶などに用いられ，２階は広大な１３２畳敷の客席と舞台からなる広壮な舞台座敷としている。,https://bunka.nii.ac.jp/heritage/43967/_103285/43967_103285111225012746173_300.jpg
101,00002296,弥栄会館,やさかかいかん,1棟,,登録有形文化財(建造物),文化福祉,建築物,,昭和前,昭和11,1936,鉄骨鉄筋コンクリート造地上5階地下1階建、瓦葺、建築面積1272㎡,,26 － 0088,29,2001.09.14(平成13.09.14),2001.08.28(平成13.08.28),,20010828,,国土の歴史的景観に寄与しているもの,,京都府,京都府京都市東山区祇園町南側570-2,,学校法人八坂女紅場学園,,,35.00178000000000,135.77540000000000,鉄骨鉄筋コンクリート造，地上５階地下１階建で，南面して建つ。各階に銅板瓦葺屋根をかけ，塔屋状の正面中央部は付庇や宝形造屋根が城郭の天守を思わせる造形で，和風意匠の伝統を巧みに織り込んでいる。設計は劇場建築を手がけた木村得三郎，施工は大林組。,https://bunka.nii.ac.jp/heritage/43967/_103286/43967_103286111225012746674_300.jpg
101,00002412,仲家住宅主屋,なかけじゅうたくしゅおく,1棟,,登録有形文化財(建造物),住宅,建築物,,大正,大正5頃,1916頃,木造2階建、瓦葺、建築面積106㎡、正面高塀付,,26 － 0089,30,2001.10.29(平成13.10.29),2001.10.12(平成13.10.12),,20011012,,造形の規範となっているもの,,京都府,京都府京都市中京区室町通御池上る御池之町322,,,,,35.01125000000000,135.75810000000000,室町通の東側に位置し，通りに面して建つ高塀の奥に座敷を繋げるいわゆる高塀造の町家。高塀に接して平屋の応接間，その奥に２階建，通り土間をもつ居室部を配す。島原角屋（重要文化財）を参考にしたといい，座敷飾りや窓回りの随所に凝った意匠が見られる。,https://bunka.nii.ac.jp/heritage/43967/_103402/43967_103402111225012858686_300.jpg
101,00002413,仲家住宅土蔵,なかけじゅうたくどぞう,1棟,,登録有形文化財(建造物),住宅,建築物,,大正,大正5頃,1916頃,土蔵造2階建、瓦葺、建築面積21㎡,,26 － 0090,30,2001.10.29(平成13.10.29),2001.10.12(平成13.10.12),,20011012,,再現することが容易でないもの,,京都府,京都府京都市中京区室町通御池上る御池之町322,,,,,35.01125000000000,135.75820000000000,主屋の背後，短冊型の敷地の東端に建つ。土蔵造，２階建，本瓦葺で，現在トタンで囲われているが，外部は漆喰塗で仕上げる。小規模な蔵だが，半間毎に柱を建て，戸口には精巧な鉄扉を構え，各窓には持送り付きの瓦葺庇を設けるなど，本格的な造りになる。,https://bunka.nii.ac.jp/heritage/43967/_103403/43967_103403111225012900203_300.jpg
101,00002414,旧並河靖之邸主屋,きゅうなみかわやすゆきていしゅおく,1棟,,登録有形文化財(建造物),住宅,建築物,,明治,明治26,1893,木造2階建、瓦葺、建築面積238㎡,,26 － 0091,30,2001.10.29(平成13.10.29),2001.10.12(平成13.10.12),,20011012,,造形の規範となっているもの,,京都府,京都府京都市東山区三条通北裏白川筋東入堀池町384、385、388,,財団法人並河靖之有線七宝記念財団,,,35.00987000000000,135.78130000000000,七宝作家並河靖之の自邸。いわゆる表屋造で，表側はせがいの軒に虫籠窓，名栗の駒寄せといった伝統的な京町家の構えをもつ。良材を用い瀟洒な意匠でまとめられるが，内法が高く，庭園に面する縁先は総ガラス戸入りとするなど，新時代の要素がみられる。,https://bunka.nii.ac.jp/heritage/43967/_103404/43967_103404111225012900717_300.jpg
101,00002415,旧並河靖之邸工房,きゅうなみかわやすゆきていこうぼう,1棟,,登録有形文化財(建造物),産業2次,建築物,,明治,明治35頃／明治44改造,1902頃／1911改造,木造平屋建、瓦葺、建築面積52㎡,,26 － 0092,30,2001.10.29(平成13.10.29),2001.10.12(平成13.10.12),,20011012,,国土の歴史的景観に寄与しているもの,,京都府,京都府京都市東山区三条通北裏白川筋東入堀池町384、385、388,,財団法人並河靖之有線七宝記念財団,,,35.00994000000000,135.78150000000000,主屋の東に建つ入母屋造，桟瓦葺の平屋。もと工房として建てられたが，その後住居として改装された。４畳半の座敷と洋風の部屋の２間からなり，南東に窯場が接続する。多くの棚や物入を造り，天井などに変化を付けるなど，変化に富んだ意匠になる。,https://bunka.nii.ac.jp/heritage/43967/_103405/43967_103405111225012901247_300.jpg
101,00002416,旧並河靖之邸窯場,きゅうなみかわやすゆきていかまば,1棟,,登録有形文化財(建造物),産業2次,建築物,,明治,明治35頃／明治44改造,1902頃／1911改造,木造平屋建、瓦葺、建築面積18㎡,,26 － 0093,30,2001.10.29(平成13.10.29),2001.10.12(平成13.10.12),,20011012,,国土の歴史的景観に寄与しているもの,,京都府,京都府京都市東山区三条通北裏白川筋東入堀池町384、385、388,,財団法人並河靖之有線七宝記念財団,,,35.00987000000000,135.78150000000000,工房の南東に突出して設けられる。入母屋造，桟瓦葺の屋根は緩く起り，腰高に焼板を張るなど瀟洒な外観をもつ。内装は洋室に改装されているが，板戸建の横長窓，漆喰塗込の天井など，窯場当時の仕様が残る。当家の歴史を知る上で欠くことのできない施設。,https://bunka.nii.ac.jp/heritage/43967/_103406/43967_103406111225012901755_300.jpg
101,00002552,北村美術館四君子苑離れ茶席,きたむらびじゅつかんしくんしえんはなれちゃせき,1棟,,登録有形文化財(建造物),住宅,建築物,,昭和前,昭和19,1944,木造平屋建、瓦葺一部檜皮葺、建築面積109㎡,,26 － 0094,31,2001.12.04(平成13.12.04),2001.11.20(平成13.11.20),,20011120,,造形の規範となっているもの,,京都府,京都府京都市上京区御車道通清和院口上る梶井町448-4,,財団法人北村文華財団,,,35.02790000000000,135.77060000000000,苑の最奥に独立して建つ。２畳台目中板入の小間（珍散蓮）と広間・次の間からなる座敷を構え，その間に水屋を配する。小間は相伴席，貴人口を備えるなど技巧を凝らした構成を創意に満ちた巧妙な手法で処理する。広間は地味な造りだが穏和で上質な意匠になる。,https://bunka.nii.ac.jp/heritage/43967/_103542/43967_103542111225013014734_300.jpg
101,00002553,北村美術館四君子苑玄関・寄付,きたむらびじゅつかんしくんしえんげんかん・よりつき,1棟,,登録有形文化財(建造物),住宅,建築物,,昭和前,昭和19,1944,木造平屋建、瓦葺一部檜皮葺、建築面積65㎡,,26 － 0095,31,2001.12.04(平成13.12.04),2001.11.20(平成13.11.20),,20011120,,造形の規範となっているもの,,京都府,京都府京都市上京区御車道通清和院口上る梶井町448-4,,財団法人北村文華財団,,,35.02796000000000,135.77030000000000,洋間の室礼で立礼席にもなる寄付を中心に，その周囲に玄関，鞘の間，瓦四半敷の廊下を配す。玄関内部は飛石を配して内露地風に造り，上り口の小部屋には躙口をあけ，丸炉を切った珍しい趣向を見せる。茶の湯の施設として使用しうる構成で，外観も軽快に造る。,https://bunka.nii.ac.jp/heritage/43967/_103543/43967_103543111225013016484_300.jpg
101,00002554,北村美術館四君子苑表門,きたむらびじゅつかんしくんしえんおもてもん,1棟,,登録有形文化財(建造物),住宅,建築物,,昭和前,昭和19,1944,木造平屋建、瓦葺、建築面積14㎡,,26 － 0096,31,2001.12.04(平成13.12.04),2001.11.20(平成13.11.20),,20011120,,造形の規範となっているもの,,京都府,京都府京都市上京区御車道通清和院口上る梶井町448-4,,財団法人北村文華財団,,,35.02797000000000,135.77010000000000,長屋門形式ながら格式ばった構えとせず，細い?丸太の柱・梁を用い，緩い勾配の桟瓦葺切妻屋根をかけ数寄を凝らした造りとする。疎らに配した丸太垂木上に丸竹を密に打ち並べた化粧屋根裏や，門口上小壁のむしこ窓風の欄間など，随所に斬新な意匠が見られる。,https://bunka.nii.ac.jp/heritage/43967/_103544/43967_103544111225013017250_300.jpg
101,00002555,北村美術館四君子苑渡廊下・外腰掛,きたむらびじゅつかんしくんしえんわたりろうか・そとこしかけ,1棟,,登録有形文化財(建造物),住宅,建築物,,昭和前,昭和19,1944,木造平屋建、瓦葺、建築面積25㎡,,26 － 0097,31,2001.12.04(平成13.12.04),2001.11.20(平成13.11.20),,20011120,,造形の規範となっているもの,,京都府,京都府京都市上京区御車道通清和院口上る梶井町448-4,,財団法人北村文華財団,,,35.02790000000000,135.77040000000000,寄付から東に延びた四半敷廊下と，離れ茶席に付随する外腰掛からなる。渡廊下は途中折れたり梁間を広げ変化を付ける。外腰掛は貴人席と相伴席をもち，天井は竹の隅木・垂木で化粧屋根裏を造る。簡素だが技巧を凝らした構成には名工北村捨次郎の作意が溢れる。,https://bunka.nii.ac.jp/heritage/43967/_103545/43967_103545111225013017763_300.jpg
101,00002642,近藤家住宅主屋,こんどうけじゅうたくしゅおく,1棟,,登録有形文化財(建造物),住宅,建築物,,江戸,18世紀後期,1701-1800,木造平屋建、瓦葺、建築面積144㎡,,26 － 0098,32,2002.03.12(平成14.03.12),2002.02.14(平成14.02.14),,20020214,,造形の規範となっているもの,,京都府,京都府城陽市寺田乾出北11,,,,,34.85493000000000,135.77060000000000,幕府領の村役を務めた農家の主屋。通りに向かって北面し，桁行７間，梁間３間半，東半を土間，西半を田字型平面の座敷部とする。つし２階を設け正面に虫籠窓を明け，屋根は登梁形式の小屋組で入母屋造，桟瓦葺とする。南山城で最初期の瓦葺農家の姿を伝える。,https://bunka.nii.ac.jp/heritage/43967/_103632/43967_103632663792286614576_300.jpg
101,00002643,近藤家住宅離れ座敷,こんどうけじゅうたくはなれざしき,1棟,,登録有形文化財(建造物),住宅,建築物,,江戸,18世紀後期／大正5移築,1701-1800／1916移築,木造平屋建、瓦葺、建築面積65㎡,,26 － 0099,32,2002.03.12(平成14.03.12),2002.02.14(平成14.02.14),,20020214,,造形の規範となっているもの,,京都府,京都府城陽市寺田乾出北11,,,,,34.85502000000000,135.77050000000000,文化年間に領主を迎えるため鳥羽から移築したと伝え，さらに大正５年に主屋北西の現位置に移された。８畳の主室，次の間，４畳の控えの間からなり，主室に床・違棚・付書院を備え，次の間境に竹ノ節欄間を入れる。面皮の柱・長押を用いた瀟洒な数寄屋風書院。,https://bunka.nii.ac.jp/heritage/43967/_103633/43967_103633330609837599947_300.jpg
101,00002787,真宗本廟東本願寺菊の門,しんしゅうほんびょうひがしほんがんじきくのもん,1棟,,登録有形文化財(建造物),宗教,その他工作,,明治,明治44,1911,木造四脚門、檜皮葺、建築面積33㎡、左右袖塀付,,26 － 0105,33,2002.07.16(平成14.07.16),2002.06.25(平成14.06.25),,20020625,,造形の規範となっているもの,,京都府,京都府京都市下京区烏丸通七条上る二丁目常葉町754,,宗教法人真宗大谷派,,,34.99209000000000,135.75940000000000,御影堂門の北方に大寝殿への表門として宗祖６５０年遠忌事業で建設された。四脚門，切妻造，檜皮葺で，前後に軒唐破風を付し，木部は総漆塗とする。設計は亀岡末吉で，全体は伝統的な四脚門の形式を踏襲しつつ，彫刻や木鼻絵様には近代的感覚が充溢している。,https://bunka.nii.ac.jp/heritage/43967/_103777/43967_103777111225013246494_300.jpg
101,00002788,真宗本廟東本願寺玄関門,しんしゅうほんびょうひがしほんがんじげんかんもん,1棟,,登録有形文化財(建造物),宗教,その他工作,,明治,明治44,1911,木造薬医門、瓦葺、建築面積26㎡、左右袖塀付,,26 － 0106,33,2002.07.16(平成14.07.16),2002.06.25(平成14.06.25),,20020625,,造形の規範となっているもの,,京都府,京都府京都市下京区烏丸通七条上る二丁目常葉町754,,宗教法人真宗大谷派,,,34.99246000000000,135.75940000000000,菊の門のすぐ北に並んで建つ。薬医門形式，切妻造，本瓦葺で，桁行を３間に分け，中央間を戸口とし両脇に板壁の脇間をとる。桁行約８．６ｍ，棟高約１０ｍの大型の薬医門で，装飾は少ないが派手な絵様の肘木や頭貫木鼻により，華やかで堂々とした構えを造る。,https://bunka.nii.ac.jp/heritage/43967/_103778/43967_103778111225013247012_300.jpg
101,00002789,真宗本廟東本願寺大玄関,しんしゅうほんびょうひがしほんがんじおおげんかん,1棟,,登録有形文化財(建造物),宗教,建築物,,江戸,慶応3,1867,木造平屋建、瓦葺、建築面積420㎡,,26 － 0107,33,2002.07.16(平成14.07.16),2002.06.25(平成14.06.25),,20020625,,造形の規範となっているもの,,京都府,京都府京都市下京区烏丸通七条上る二丁目常葉町754,,宗教法人真宗大谷派,,,34.99230000000000,135.75910000000000,伽藍の北方，大寝殿の北東に接続する。正面入母屋造，桟瓦葺で，式台を構え，田字型に４室を取り周囲に広い入側縁を回す。元治元年火災直後の仮建ての建物で装飾要素は少ないが，１０ｍを越える間口の式台など格式の高さを示している。寺内で現存最古の建物。,https://bunka.nii.ac.jp/heritage/43967/_103779/43967_103779111225013247523_300.jpg
101,00002790,真宗本廟東本願寺大寝殿,しんしゅうほんびょうひがしほんがんじだいしんでん,1棟,,登録有形文化財(建造物),宗教,建築物,,明治,明治元頃,1868頃,木造平屋建、瓦葺、建築面積945㎡,,26 － 0108,33,2002.07.16(平成14.07.16),2002.06.25(平成14.06.25),,20020625,,造形の規範となっているもの,,京都府,京都府京都市下京区烏丸通七条上る二丁目常葉町754,,宗教法人真宗大谷派,,,34.99205000000000,135.75880000000000,大玄関南西に雁行して接続し，東本願寺正殿として重要な法要儀式の場となる。入母屋造，桟瓦葺の大きな妻面を正面に見せ，平面は真宗大広間の形式を踏襲する。座敷の最奥は全面上段とし，床・棚・書院さらに帳台構を備える。幕末真宗大広間の姿をよく伝える。,https://bunka.nii.ac.jp/heritage/43967/_103780/43967_103780111225013248033_300.jpg
101,00002791,真宗本廟東本願寺造合廊下,しんしゅうほんびょうひがしほんがんじつくりあいろうか,1棟,,登録有形文化財(建造物),宗教,建築物,,明治,明治27頃,1894頃,木造平屋建、瓦葺、建築面積110㎡,,26 － 0109,33,2002.07.16(平成14.07.16),2002.06.25(平成14.06.25),,20020625,,造形の規範となっているもの,,京都府,京都府京都市下京区烏丸通七条上る二丁目常葉町754,,宗教法人真宗大谷派,,,34.99055000000000,135.75840000000000,御影堂と阿弥陀堂の間を繋ぐ２筋の廊下のうち東表側にあるもの。高床，吹放しで，唐破風造，本瓦葺とし，約５，５ｍの梁間に虹梁を架け輪垂木天井を見せる。前後に出梁で縁葛を支え擬宝珠高欄を付け，床下にも桁行，梁間に虹梁を架けるなど凝った造りとなる。,https://bunka.nii.ac.jp/heritage/43967/_103781/43967_103781111225013249290_300.jpg
101,00002792,真宗本廟東本願寺二筋廊下,しんしゅうほんびょうひがしほんがんじふたすじろうか,1棟,,登録有形文化財(建造物),宗教,建築物,,明治,明治27頃,1894頃,木造2階建、瓦葺、建築面積150㎡,,26 － 0110,33,2002.07.16(平成14.07.16),2002.06.25(平成14.06.25),,20020625,,造形の規範となっているもの,,京都府,京都府京都市下京区烏丸通七条上る二丁目常葉町754,,宗教法人真宗大谷派,,,34.99055000000000,135.75820000000000,御影堂・阿弥陀堂間を繋ぐ廊下のうち裏側にあるもの。２階建で，階上は棟通りに押入を設けて前後２筋の廊下に分け，階下は中央に通路を取り他は部屋とする。表側階上は全柱間に異形花頭形の格子窓を明け，背面は全面塗り込めとし，両堂と共通した構えを造る。,https://bunka.nii.ac.jp/heritage/43967/_103782/43967_103782111225013249798_300.jpg
101,00002793,真宗本廟東本願寺阿弥陀堂門南側築地塀,しんしゅうほんびょうひがしほんがんじあみだどうもんみなみがわついじべい,1棟,,登録有形文化財(建造物),宗教,その他工作,,明治,明治28以前,1895以前,土塀、瓦葺、折廻り延長96m,,26 － 0111,33,2002.07.16(平成14.07.16),2002.06.25(平成14.06.25),,20020625,,国土の歴史的景観に寄与しているもの,,京都府,京都府京都市下京区烏丸通七条上る二丁目常葉町754他,,宗教法人真宗大谷派,,,34.99004000000000,135.75950000000000,阿弥陀堂門の南方に折曲がりに約１００ｍ続く土塀で，外堀に面する外側は切石垣基礎を築きその上に建つ。柱形をあらわして出桁で垂木を受け本瓦葺屋根を架け，柱間漆喰壁面には５筋の目地を付けた本格的な築地塀。中間の折曲がり部の南方は大正に延長された。,https://bunka.nii.ac.jp/heritage/43967/_103783/43967_103783111225013250313_300.jpg
101,00002794,真宗本廟東本願寺御影堂門南側築地塀,しんしゅうほんびょうひがしほんがんじごえいどうもんみなみがわついじべい,1棟,,登録有形文化財(建造物),宗教,その他工作,,明治,明治28以前,1895以前,土塀、瓦葺、折廻り延長55m,,26 － 0112,33,2002.07.16(平成14.07.16),2002.06.25(平成14.06.25),,20020625,,国土の歴史的景観に寄与しているもの,,京都府,京都府京都市下京区烏丸通七条上る二丁目常葉町754,,宗教法人真宗大谷派,,,34.99061000000000,135.75950000000000,阿弥陀堂門の北，御影堂門との間に折曲がりに続く土塀で，御影堂門の脇には戸口１所を開く。他と同様に内外とも柱形を見せ，柱間漆喰壁に５筋の目地を切った本格的な築地塀で，両門の前で矩ね折れとなり，正面両端に小さな妻面を見せ変化に富んだ外観を造る。,https://bunka.nii.ac.jp/heritage/43967/_103784/43967_103784111225013250829_300.jpg
101,00002795,真宗本廟東本願寺御影堂門北側築地塀,しんしゅうほんびょうひがしほんがんじごえいどうもんきたがわついじべい,1棟,,登録有形文化財(建造物),宗教,その他工作,,明治,明治28以前,1895以前,土塀、瓦葺、折廻り延長109m,,26 － 0113,33,2002.07.16(平成14.07.16),2002.06.25(平成14.06.25),,20020625,,国土の歴史的景観に寄与しているもの,,京都府,京都府京都市下京区烏丸通七条上る二丁目常葉町754,,宗教法人真宗大谷派,,,34.99161000000000,135.75950000000000,御影堂門の北方，菊の門との間に折曲がりに続く土塀。南寄りに参拝所への通用門を設け，御影堂門側にも戸口１所を開く。他と同様の本格的な築地塀で，烏丸通りに面して寺域を限る延長さ１００ｍを越えて一直線に連なる姿は，壮大な伽藍構成上欠かせない存在。,https://bunka.nii.ac.jp/heritage/43967/_103785/43967_103785111225013251341_300.jpg
101,00002796,真宗本廟東本願寺菊の門北側築地塀,しんしゅうほんびょうひがしほんがんじきくのもんきたがわついじべい,1棟,,登録有形文化財(建造物),宗教,その他工作,,明治,明治28以前,1895以前,土塀、瓦葺、折廻り延長44m,,26 － 0114,33,2002.07.16(平成14.07.16),2002.06.25(平成14.06.25),,20020625,,国土の歴史的景観に寄与しているもの,,京都府,京都府京都市下京区烏丸通七条上る二丁目常葉町754,,宗教法人真宗大谷派,,,34.99228000000000,135.75950000000000,菊の門の北，玄関門までの間を折曲がりに仕切る土塀。他と同様の形式による築地塀だが，菊の門側の矩折れ部では正面側に妻面を見せるのに対して，玄関門側端部は妻面を正面ではなく北面に造るなど，門の形式を考慮して全体の構成を整える巧みな計画が窺える。,https://bunka.nii.ac.jp/heritage/43967/_103786/43967_103786111225013252650_300.jpg
101,00002797,真宗本廟東本願寺玄関門北側築地塀,しんしゅうほんびょうひがしほんがんじげんかんもんきたがわついじべい,1棟,,登録有形文化財(建造物),宗教,その他工作,,明治,明治28以前,1895以前,土塀、瓦葺、折廻り延長88m,,26 － 0115,33,2002.07.16(平成14.07.16),2002.06.25(平成14.06.25),,20020625,,国土の歴史的景観に寄与しているもの,,京都府,京都府京都市下京区烏丸通七条上る二丁目常葉町754他,,宗教法人真宗大谷派,,,34.99285000000000,135.75940000000000,玄関門の北，寺域北辺を限る乾町通りに至るまでの土塀。南端部で短く斜めに折れ，寺域の鬼門となる北端部は折曲がりに隅を欠き取るように配され，伽藍正面，烏丸通り側北端部の景観を整える。南端部折曲がり部より北は大正に寺域が拡張されてから延長された。,https://bunka.nii.ac.jp/heritage/43967/_103787/43967_103787111225013253151_300.jpg
101,00002926,平安神宮透塀及び後門,へいあんじんぐうすきべいおよびこうもん,1棟,,登録有形文化財(建造物),宗教,その他工作,,昭和前,昭和15,1940,木造透塀、銅板葺、折曲り延長90m、及び棟門、間口3.0m,,26 － 0116,34,2002.09.03(平成14.09.03),2002.08.21(平成14.08.21),,20020821,,国土の歴史的景観に寄与しているもの,,京都府,京都府京都市左京区岡崎入江町121,,宗教法人平安神宮,,,35.01706000000000,135.78240000000000,昭和１５年，孝明天皇合祀時に行われた一連の造営の一つ。これらの設計は内務省神社局技師であった角南隆と谷重雄である。一間棟門の後門を中心に左右に透塀を延ばし，当初は総延長で１１４ｍに達していた。本殿の背後を区切る建築である。,https://bunka.nii.ac.jp/heritage/43967/_103916/43967_103916111225013406757_300.jpg
101,00002927,平安神宮東神庫,へいあんじんぐうひがしじんこ,1棟,,登録有形文化財(建造物),宗教,建築物,,昭和前,昭和15,1940,木造校倉、銅板葺、建築面積13㎡,,26 － 0117,34,2002.09.03(平成14.09.03),2002.08.21(平成14.08.21),,20020821,,造形の規範となっているもの,,京都府,京都府京都市左京区岡崎入江町121,,宗教法人平安神宮,,,35.01701000000000,135.78260000000000,本殿の背後，透塀内の東北隅に位置し，１２尺（約３．６ｍ）四方の妻入正方形平面を持つ。屋根は切妻造，銅板葺で，正面には縁を設け，その左側に石階及び木階を備える。その殆どが丹塗の境内にあって，白木の外観が特徴的な校倉である。,https://bunka.nii.ac.jp/heritage/43967/_103917/43967_103917111225013407279_300.jpg
101,00002928,平安神宮西神庫,へいあんじんぐうにしじんこ,1棟,,登録有形文化財(建造物),宗教,建築物,,昭和前,昭和15,1940,木造校倉、銅板葺、建築面積13㎡,,26 － 0118,34,2002.09.03(平成14.09.03),2002.08.21(平成14.08.21),,20020821,,造形の規範となっているもの,,京都府,京都府京都市左京区岡崎入江町121,,宗教法人平安神宮,,,35.01700000000000,135.78220000000000,東神庫と対をなす神庫。本殿の背後，透塀内の西北隅に位置し，形式・規模・意匠ともに東神庫と厳密な対称型をなす。正面には両開き板扉を設け，軒は一軒疎垂木である。比較的小規模ではあるが，校倉建築の好例である。,https://bunka.nii.ac.jp/heritage/43967/_103918/43967_103918160215100421247_300.jpg
101,00002929,平安神宮内廻廊,へいあんじんぐううちかいろう,1棟,,登録有形文化財(建造物),宗教,その他工作,,昭和前,昭和15,1940,木造平屋建、銅板葺、建築面積88㎡,,26 － 0119,34,2002.09.03(平成14.09.03),2002.08.21(平成14.08.21),,20020821,,国土の歴史的景観に寄与しているもの,,京都府,京都府京都市左京区岡崎入江町121,,宗教法人平安神宮,,,35.01665000000000,135.78270000000000,昭和１５年の一連の造営時に建てられた。西側と東側に分かれ，内拝殿と北東及び北西歩廊をつなぎ，大極殿背後の空間を区画している。基壇上にあって，１間幅の外側を連子窓を設けた壁とし，内側は円柱を建て，屋根は緩やかな反りをもたせている。,https://bunka.nii.ac.jp/heritage/43967/_103919/43967_103919111225013408648_300.jpg
101,00002930,平安神宮南歩廊,へいあんじんぐうみなみほろう,1棟,,登録有形文化財(建造物),宗教,その他工作,,昭和前,昭和15,1940,木造平屋建、瓦葺、建築面積288㎡,,26 － 0120,34,2002.09.03(平成14.09.03),2002.08.21(平成14.08.21),,20020821,,国土の歴史的景観に寄与しているもの,,京都府,京都府京都市左京区岡崎西天王町97,,宗教法人平安神宮,,,35.01620000000000,135.78310000000000,Ｌ字型平面で蒼龍楼と東外廻廊，白虎楼と西外廻廊を結ぶ歩廊。２間幅で，中央を連子窓を設けた壁で区切る。二軒の丸垂木で，屋根は本瓦葺。左右とも東西棟部中央に扉口を開く。形式・規模ともに本殿廻りの塀とは明確に区別され，境内景観を形作っている。,https://bunka.nii.ac.jp/heritage/43967/_103920/43967_103920111225013409406_300.jpg
101,00002931,平安神宮神楽殿,へいあんじんぐうかぐらでん,1棟,,登録有形文化財(建造物),宗教,建築物,,昭和前,昭和15,1940,木造平屋建、瓦葺、建築面積272㎡,,26 － 0121,34,2002.09.03(平成14.09.03),2002.08.21(平成14.08.21),,20020821,,国土の歴史的景観に寄与しているもの,,京都府,京都府京都市左京区岡崎西天王町97,,宗教法人平安神宮,,,35.01582000000000,135.78300000000000,南内庭東側に位置し，東外廻廊と東側で接続する。基壇を設けて桁行８間，梁間４間の丸柱を建て，南，西，北の３面１間通りを吹き放しとする。屋根は入母屋造，本瓦葺。神楽の奉奏とともに結婚式等を行う場として建てられたもので，広く親しまれている。,https://bunka.nii.ac.jp/heritage/43967/_103921/43967_103921111225013410177_300.jpg
101,00002932,平安神宮額殿,へいあんじんぐうがくでん,1棟,,登録有形文化財(建造物),宗教,建築物,,昭和前,昭和15,1940,木造平屋建、瓦葺、建築面積272㎡,,26 － 0122,34,2002.09.03(平成14.09.03),2002.08.21(平成14.08.21),,20020821,,国土の歴史的景観に寄与しているもの,,京都府,京都府京都市左京区岡崎西天王町97,,宗教法人平安神宮,,,35.01581000000000,135.78180000000000,南内庭西側に位置する。規模，構造形式は神楽殿と同一とするが，内部は四半敷の総土間とする。東，南，北の３面は中央に板唐戸，両脇に蔀戸を立て，西面で廻廊に接続する。参拝者の休憩や講演などを目的とした建物で，境内景観上欠くことができない。,https://bunka.nii.ac.jp/heritage/43967/_103922/43967_103922111225013410687_300.jpg
101,00002933,平安神宮東門及び東外廻廊,へいあんじんぐうひがしもんおよびひがしそとかいろう,1棟,,登録有形文化財(建造物),宗教,その他工作,,昭和前,昭和15,1940,木造平屋建、瓦葺、建築面積296㎡,,26 － 0123,34,2002.09.03(平成14.09.03),2002.08.21(平成14.08.21),,20020821,,国土の歴史的景観に寄与しているもの,,京都府,京都府京都市左京区岡崎西天王町97,,宗教法人平安神宮,,,35.01540000000000,135.78310000000000,南歩廊から神門翼廊までを矩折れに結び，南内庭の東側を区切る。中程には宣政門とも称する東門を開く。門は切妻造，本瓦葺，二軒半繁垂木の切妻造。廻廊は単廊式で本瓦葺，総延長約５０ｍに達する。丹塗と緑の連子窓の組合せが，境内景観を特徴付けている。,https://bunka.nii.ac.jp/heritage/43967/_103923/43967_103923111225013412045_300.jpg
101,00002934,平安神宮西門及び西外廻廊,へいあんじんぐうにしもんおよびにしかいろう,1棟,,登録有形文化財(建造物),宗教,その他工作,,昭和前,昭和15,1940,木造平屋建、瓦葺、建築面積296㎡,,26 － 0124,34,2002.09.03(平成14.09.03),2002.08.21(平成14.08.21),,20020821,,国土の歴史的景観に寄与しているもの,,京都府,京都府京都市左京区岡崎西天王町97,,宗教法人平安神宮,,,35.01535000000000,135.78170000000000,昭和１５年の一連の造営時に建設されたもの。南歩廊から神門翼廊までを矩折れに結び，中程には章善門とも称する西門を開く。東門・東外廻廊と完全な対称型をなし，両者で龍尾壇下の南内庭を区画する。広大な境内空間の街路側に位置し，広く親しまれている。,https://bunka.nii.ac.jp/heritage/43967/_103924/43967_103924111225013412555_300.jpg
101,00002935,平安神宮神門翼廊,へいあんじんぐうしんもんよくろう,1棟,,登録有形文化財(建造物),宗教,建築物,,昭和前,昭和15,1940,木造平屋建、瓦葺、建築面積300㎡,,26 － 0125,34,2002.09.03(平成14.09.03),2002.08.21(平成14.08.21),,20020821,,国土の歴史的景観に寄与しているもの,,京都府,京都府京都市左京区岡崎西天王町97,,宗教法人平安神宮,,,35.01542000000000,135.78270000000000,神門（応天門）両脇から東西に延び，それぞれ梁間２間，桁行４間の南北棟につながる。神門脇には扉口を開き，１間おいて両外側は畳敷きの室内とする。木部は破風板等も含めて丹塗とし，屋根は本瓦葺。境内の正面側景観を形つくる要素である。,https://bunka.nii.ac.jp/heritage/43967/_103925/43967_103925111225013413071_300.jpg
101,00002936,平安神宮斎館,へいあんじんぐうさいかん,1棟,,登録有形文化財(建造物),宗教,建築物,,昭和前,昭和15,1940,木造平屋建、瓦葺一部銅板葺、建築面積448㎡,,26 － 0126,34,2002.09.03(平成14.09.03),2002.08.21(平成14.08.21),,20020821,,造形の規範となっているもの,,京都府,京都府京都市左京区岡崎西天王町97,,宗教法人平安神宮,,,35.01570000000000,135.78320000000000,東外廻廊の外側に位置する。木造平屋建，瓦葺一部銅板葺，建築面積４４８㎡。廻廊内の丹塗の建物群とは趣を異にするが，床・棚を備え折上小組格天井とする旧供進使室など内外ともに質が高く，唐破風造の玄関を備えるなど，近代和風建築の好例である。,https://bunka.nii.ac.jp/heritage/43967/_103926/43967_103926111225013413588_300.jpg
101,00002937,平安神宮東祭器庫,へいあんじんぐうひがしさいきこ,1棟,,登録有形文化財(建造物),宗教,建築物,,明治,明治40／昭和15移築,1907／1940移築,土蔵造2階建、瓦葺、建築面積145㎡,,26 － 0127,34,2002.09.03(平成14.09.03),2002.08.21(平成14.08.21),,20020821,,造形の規範となっているもの,,京都府,京都府京都市左京区岡崎西天王町97,,宗教法人平安神宮,,,35.01571000000000,135.78140000000000,西外廻廊の西に位置する土蔵造２階建の祭器庫。正面入口には切妻造瓦葺の屋根をかけ，寄棟造の小屋はトラスを組む。外壁は腰部を板張りとする特徴的な外観である。昭和１５年の一連の造営時に，旧位置から移築されている。,https://bunka.nii.ac.jp/heritage/43967/_103927/43967_103927111225013415095_300.jpg
101,00002938,平安神宮西祭器庫,へいあんじんぐうにしさいきこ,1棟,,登録有形文化財(建造物),宗教,建築物,,昭和前,昭和15,1940,土蔵造2階建、瓦葺、建築面積145㎡,,26 － 0128,34,2002.09.03(平成14.09.03),2002.08.21(平成14.08.21),,20020821,,造形の規範となっているもの,,京都府,京都府京都市左京区岡崎西天王町97,,宗教法人平安神宮,,,35.01569000000000,135.78130000000000,東祭器庫の西側に並ぶ。東祭器庫に倣って造られたもので，ほぼ同様の規模，形式，意匠を持つが，外壁腰部など細部意匠が異なる。内部は二階建とし，小屋はトラス組になる。軒部は漆喰で塗り上げており，腰部は海鼠壁風の目地を切るなど特徴的な土蔵である。,https://bunka.nii.ac.jp/heritage/43967/_103928/43967_103928111225013415326_300.jpg
101,00002939,平安神宮大鳥居,へいあんじんぐうおおとりい,1基,,登録有形文化財(建造物),宗教,その他工作,,昭和前,昭和3,1928,鉄筋コンクリート造一部鉄骨造、高さ24m、幅18m,,26 － 0129,34,2002.09.03(平成14.09.03),2002.08.21(平成14.08.21),,20020821,,国土の歴史的景観に寄与しているもの,,京都府,京都府京都市左京区岡崎成勝寺町・岡崎円勝寺町,,宗教法人平安神宮,,,35.01255000000000,135.78260000000000,昭和天皇大礼を記念して建てられた。設計は京都府技師の阪谷良之進。構造は鉄筋コンクリート及び鉄骨造、形式は明神鳥居で、幅18ｍ、高24ｍになり、当時国内最大であった。柱が太いプロポーションが特徴で、洛東岡崎のシンボルとして広く親しまれている。,https://bunka.nii.ac.jp/heritage/43967/_103929/43967_103929111225013415632_300.jpg
101,00002940,桐村家住宅主屋,きりむらけじゅうたくしゅおく,1棟,,登録有形文化財(建造物),住宅,建築物,,明治,明治中期,1868-1911,木造2階建、瓦葺、建築面積106㎡,,26 － 0130,34,2002.09.03(平成14.09.03),2002.08.21(平成14.08.21),,20020821,,造形の規範となっているもの,,京都府,京都府福知山市上小田196,,有限会社コンタクト・キリムラ,,,35.32792000000000,135.07030000000000,市北西部，国道９号に接する六十内地区にある。木造二階建，切妻造，桟瓦葺，平入で，東西に長い敷地の中央に建つ。真壁造，腰を簓子下見板張とし，養蚕に使われていた二階の中央部に越屋根を設ける。内外部とも丁寧な造りで，洗練された意匠でまとめている。,https://bunka.nii.ac.jp/heritage/43967/_103930/43967_103930111225013416035_300.jpg
101,00002941,桐村家住宅別座敷,きりむらけじゅうたくべつざしき,1棟,,登録有形文化財(建造物),住宅,建築物,,明治,明治中期,1868-1911,木造2階建、瓦葺、建築面積23㎡,,26 － 0131,34,2002.09.03(平成14.09.03),2002.08.21(平成14.08.21),,20020821,,造形の規範となっているもの,,京都府,京都府福知山市上小田196,,有限会社コンタクト・キリムラ,,,35.32797000000000,135.07050000000000,敷地奥の東南端に位置する。木造２階建，桟瓦葺の入母屋造で，外観は，水切り庇を付けた大壁部分と，広い開口部を設けた真壁部分からなり，２階張出し部の上部にバージーボード風の幕板を付けるなど洋風を加味し，全体として変化のある外観を構成している。,https://bunka.nii.ac.jp/heritage/43967/_103931/43967_103931111225013416537_300.jpg
101,00002942,桐村家住宅土蔵,きりむらけじゅうたくどぞう,1棟,,登録有形文化財(建造物),住宅,建築物,,明治,明治中期,1868-1911,土蔵造2階建、瓦葺、建築面積17㎡,,26 － 0132,34,2002.09.03(平成14.09.03),2002.08.21(平成14.08.21),,20020821,,国土の歴史的景観に寄与しているもの,,京都府,京都府福知山市上小田196,,有限会社コンタクト・キリムラ,,,35.32776000000000,135.07030000000000,敷地南部に位置する。切妻造妻入，外装漆喰塗，桟瓦葺の土蔵で，簡素ながら丁寧に造られた開口部の意匠などを見所とする。屋敷で唯一通りに面した建築物で，街路の歴史的景観の形成に寄与している。主屋，別座敷と共に一般公開し，市民に広く親しまれている。,https://bunka.nii.ac.jp/heritage/43967/_103932/43967_103932111225013417050_300.jpg
101,00002944,北吸隧道,きたすいずいどう,1基,,登録有形文化財(建造物),交通,土木構造物,,明治,明治37,1904,煉瓦造、延長110m、幅員3.8m,,26 － 0134,34,2002.09.03(平成14.09.03),2002.08.21(平成14.08.21),,20020821,,国土の歴史的景観に寄与しているもの,,京都府,京都府舞鶴市字北吸・浜,,舞鶴市,,,35.47146000000000,135.38940000000000,官設舞鶴線と同時期に築かれた旧軍港引込線の煉瓦造隧道。五枚厚の馬蹄形坑口を有し，笠石・帯石・ピラスターを備えた坑門を延長１１０ｍの両端に構える。舞鶴の工業化を支えた旧軍港引込線の代表的遺構で，現在自転車道として市民に広く親しまれている。,https://bunka.nii.ac.jp/heritage/43967/_103934/43967_103934111225013417564_300.jpg
101,00002945,今林家住宅主屋,いまばやしけじゅうたくしゅおく,1棟,,登録有形文化財(建造物),産業3次,建築物,,明治,明治25／大正期増築,1892／1912-1925増築,木造2階建、瓦葺、建築面積261㎡,,26 － 0135,34,2002.09.03(平成14.09.03),2002.08.21(平成14.08.21),,20020821,,国土の歴史的景観に寄与しているもの,,京都府,京都府宮津市字万町604-1,,,,,35.53607000000000,135.19190000000000,市中心部にある。木造２階建，切妻造，平入で，通り側に半間幅の下屋庇を設ける。正面には平格子・出格子を構え，玄関戸口に引上式大戸を残す。棟の東方には越屋根を設け，軒高を低くした２階西方には袖卯建を付ける。旧宮津城下を代表する町家建築のひとつ。,https://bunka.nii.ac.jp/heritage/43967/_103935/43967_103935111225013419013_300.jpg
101,00002946,今林家住宅米蔵,いまばやしけじゅうたくこめぐら,1棟,,登録有形文化財(建造物),住宅,建築物,,明治,明治期,1868-1911,土蔵造2階建、瓦葺、建築面積25㎡,,26 － 0136,34,2002.09.03(平成14.09.03),2002.08.21(平成14.08.21),,20020821,,再現することが容易でないもの,,京都府,京都府宮津市字万町604-1,,,,,35.53601000000000,135.19200000000000,通りに面し，主屋の東側に位置する。東西棟，切妻造，桟瓦葺の妻入２階建土蔵で，通り側に主屋と高さを揃えた半間幅の下屋庇を設ける。平側をたすき状，妻側を格子状とした海鼠壁で築き，形の異なる開口部を上下に設けるなど，外観に変化を付けている。,https://bunka.nii.ac.jp/heritage/43967/_103936/43967_103936111225013419531_300.jpg
101,00002947,今林家住宅糸蔵,いまばやしけじゅうたくいとぐら,1棟,,登録有形文化財(建造物),産業3次,建築物,,明治,明治期,1868-1911,土蔵造2階建、瓦葺、建築面積44㎡,,26 － 0137,34,2002.09.03(平成14.09.03),2002.08.21(平成14.08.21),,20020821,,造形の規範となっているもの,,京都府,京都府宮津市字万町604-1,,,,,35.53615000000000,135.19180000000000,敷地の北西部に主屋に接しながら，東西棟で建つ。丁寧なつくりに加えて敷地内最大規模の蔵で，糸問屋として機能上かつ建築上の中心的建造物。切妻造，妻入で，梁間を桁行よりも長くとり，２階に２つの開口部を左右対称に設けた大きな妻面を造るのが特徴的。,https://bunka.nii.ac.jp/heritage/43967/_103937/43967_103937111225013419794_300.jpg
101,00002948,今林家住宅道具蔵,いまばやしけじゅうたくどうぐぐら,1棟,,登録有形文化財(建造物),住宅,建築物,,明治,明治期,1868-1911,土蔵造2階建、瓦葺、建築面積39㎡,,26 － 0138,34,2002.09.03(平成14.09.03),2002.08.21(平成14.08.21),,20020821,,再現することが容易でないもの,,京都府,京都府宮津市字万町604-1,,,,,35.53632000000000,135.19190000000000,敷地北端にあり，東西棟で建つ。切妻造，桟瓦葺，外装漆喰塗の平入２階建土蔵で，梁間を桁行よりも長くとり，大きな妻面を造り，その北側の上下に窓をとる。市内の土蔵に散見される，垂木を扇状に配する特異なつくりをよく残している。,https://bunka.nii.ac.jp/heritage/43967/_103938/43967_103938111225013420052_300.jpg
101,00002949,今林家住宅味噌蔵,いまばやしけじゅうたくみそぐら,1棟,,登録有形文化財(建造物),住宅,建築物,,明治,明治期,1868-1911,土蔵造2階建、瓦葺、建築面積17㎡,,26 － 0139,34,2002.09.03(平成14.09.03),2002.08.21(平成14.08.21),,20020821,,再現することが容易でないもの,,京都府,京都府宮津市字万町604-1,,,,,35.53612000000000,135.19200000000000,敷地北東端にある東西棟，切妻造，桟瓦葺，平入の２階建土蔵。漆喰塗を基調とし，腰を竪板張とした外装で，妻面中央の上下に窓を設けるなど，全体的に簡素ながら変化のある外観を見せる。他３棟の蔵と同じく垂木を扇状に配する構造を特徴とする。,https://bunka.nii.ac.jp/heritage/43967/_103939/43967_103939111225013420316_300.jpg
101,00003108,中村宗哲家住宅,なかむらそうてつけじゅうたく,1棟,,登録有形文化財(建造物),住宅,建築物,,江戸,嘉永7,1854,木造2階建、瓦葺、建築面積158㎡,,26 － 0140,35,2003.02.26(平成15.02.26),2003.01.31(平成15.01.31),,20030131,,再現することが容易でないもの,,京都府,京都府京都市上京区武者小路通新町西入西無車小路町603,,,,,35.02787000000000,135.75530000000000,京都西陣にある塗師の住宅で，南と西側に高塀を建て，通り庭を持つ町家の形式。安政３年（１８５６）の裏千家の増築を手がけた木村清兵衛が建て，柱は色付けを施した面皮柱や絞り丸太を使用するなど，数寄屋大工の作品らしい雰囲気が漂う。,https://bunka.nii.ac.jp/heritage/43967/_104098/43967_104098111225013556509_300.jpg
101,00003109,フランソア喫茶室,ふらんそあきっさしつ,1棟,,登録有形文化財(建造物),産業3次,建築物,,昭和前,昭和16,1941,木造2階建、瓦葺、建築面積40㎡,,26 － 0141,35,2003.02.26(平成15.02.26),2003.01.31(平成15.01.31),,20030131,,国土の歴史的景観に寄与しているもの,,京都府,京都府京都市下京区西木屋町通四条下る船頭町184,,,,,35.00334000000000,135.77020000000000,繁華街木屋町にある喫茶店で，木造２階建の伝統的な長屋を洋風に改築したもの。今回の登録は昭和１６年改築の北半部分。設計は当時京大に留学していたイタリア人のベンチベニ氏で，京都の知識人のサロンとして長年親しまれてきた。内装や家具も良く残る。,https://bunka.nii.ac.jp/heritage/43967/_104099/43967_104099111225013558231_300.jpg
101,00003110,稲葉家住宅主屋,いなばけじゅうたくしゅおく,1棟,,登録有形文化財(建造物),住宅,建築物,,明治,明治23,1890,木造2階建、瓦葺、建築面積390㎡,,26 － 0142,35,2003.02.26(平成15.02.26),2003.01.31(平成15.01.31),,20030131,,再現することが容易でないもの,,京都府,京都府京丹後市久美浜町3102,,京丹後市,,,35.60619000000000,134.89750000000000,稲葉家は江戸時代以来の豪商で，久美浜町の中央に広い敷地を構える。主屋は，地元の大工黒崎文吉が手がけた大規模な切妻造，桟瓦葺，２階建の住宅で，地域の伝統を保持しながら近代的な中廊下の平面を取り入れた新機軸を見せる。内部の吹き抜け空間も見所。,https://bunka.nii.ac.jp/heritage/43967/_104100/43967_104100111225013559918_300.jpg
101,00003111,稲葉家住宅長屋門,いなばけじゅうたくながやもん,1棟,,登録有形文化財(建造物),住宅,建築物,,江戸,江戸末期,1830-1867,木造2階建、瓦葺、建築面積34㎡,,26 － 0143,35,2003.02.26(平成15.02.26),2003.01.31(平成15.01.31),,20030131,,国土の歴史的景観に寄与しているもの,,京都府,京都府京丹後市久美浜町3102,,京丹後市,,,35.60598000000000,134.89730000000000,敷地南側の道路に開く長屋門。通常の長屋門とは異なり２階建で２階は前方に１尺持ち出され，切妻造桟瓦葺の屋根には卯建が上げられるなど，町家の主屋のような外観に見える。道路から望見できる位置にあって豪商の家格をあらわす。,https://bunka.nii.ac.jp/heritage/43967/_104101/43967_104101111225013600428_300.jpg
101,00003112,稲葉家住宅南宝蔵,いなばけじゅうたくみなみほうぞう,1棟,,登録有形文化財(建造物),住宅,建築物,,明治,明治中期,1868-1911,土蔵造2階建、瓦葺、建築面積23㎡,,26 － 0144,35,2003.02.26(平成15.02.26),2003.01.31(平成15.01.31),,20030131,,国土の歴史的景観に寄与しているもの,,京都府,京都府京丹後市久美浜町3102,,京丹後市,,,35.60601000000000,134.89760000000000,主屋東側に廊下で接続する２棟の土蔵のうち南側の蔵で，東西棟で建つ。桁行３間梁間２間，２階建，切妻造，桟瓦葺の置屋根で，主屋と同時に建てられたと考えられる。主屋と一体となって建築群を構成し，屋敷の景観要素として評価できる。,https://bunka.nii.ac.jp/heritage/43967/_104102/43967_104102111225013601864_300.jpg
101,00003113,稲葉家住宅北宝蔵,いなばけじゅうたくきたほうぞう,1棟,,登録有形文化財(建造物),住宅,建築物,,江戸,江戸末期,1830-1867,土蔵造2階建、瓦葺、建築面積12㎡,,26 － 0145,35,2003.02.26(平成15.02.26),2003.01.31(平成15.01.31),,20030131,,国土の歴史的景観に寄与しているもの,,京都府,京都府京丹後市久美浜町3102,,京丹後市,,,35.60608000000000,134.89770000000000,主屋東側に廊下で接続する２棟の土蔵のうち北側の蔵で，南北棟で建つ。桁行２間梁間１間半規模，切妻造，桟瓦葺の２階建土蔵で，古図から主屋建設時に曳家された経緯がわかる。主屋，長屋門，南宝蔵とともに屋敷の景観を形成する。,https://bunka.nii.ac.jp/heritage/43967/_104103/43967_104103111225013602370_300.jpg
101,00003263,安楽寺本堂,あんらくじほんどう,1棟,,登録有形文化財(建造物),宗教,建築物,,江戸,江戸後期,1751-1829,木造平屋建、瓦葺、建築面積111㎡,,26 － 0146,36,2003.04.08(平成15.04.08),2003.03.18(平成15.03.18),,20030318,,造形の規範となっているもの,,京都府,京都府京都市左京区鹿ケ谷御所ノ段町21,,宗教法人安楽寺,,,35.02161000000000,135.79650000000000,本堂は境内北寄りに南面して建つ。一重，宝形造，本瓦葺，裳階付の前堂の背後に，後設の切妻造，桟瓦葺の正堂を張り出す。前堂は方１間格天井の身舎周囲に化粧屋根裏の庇を回した形式で，正堂は鏡天井で須弥壇を構える。江戸後期浄土宗本堂の展開を示す遺構。,https://bunka.nii.ac.jp/heritage/43967/_104253/43967_104253111225013736716_300.jpg
101,00003264,安楽寺書院（客殿）,あんらくじしょいん（きゃくでん）,1棟,,登録有形文化財(建造物),宗教,建築物,,江戸,江戸後期,1751-1829,木造平屋建、瓦葺、建築面積96㎡,,26 － 0147,36,2003.04.08(平成15.04.08),2003.03.18(平成15.03.18),,20030318,,造形の規範となっているもの,,京都府,京都府京都市左京区鹿ケ谷御所ノ段町21,,宗教法人安楽寺,,,35.02158000000000,135.79670000000000,本堂の東に位置し，渡廊下で連絡する。桁行約１３．７ｍ，梁間約７ｍ，切妻造，桟瓦葺で，南に下屋を付す。南北に３室を並べ（もとは１５畳２室），東西及び南に縁を回す。奥の主室には床・違棚を備え，丸太や色土壁を用いて，簡素だが数寄屋風の座敷に造る。,https://bunka.nii.ac.jp/heritage/43967/_104254/43967_104254111225013737244_300.jpg
101,00003265,安楽寺山門,あんらくじさんもん,1棟,,登録有形文化財(建造物),宗教,その他工作,,明治,明治25,1892,木造、茅葺、間口2.2m、袖塀付,,26 － 0148,36,2003.04.08(平成15.04.08),2003.03.18(平成15.03.18),,20030318,,造形の規範となっているもの,,京都府,京都府京都市左京区鹿ケ谷御所ノ段町21,,宗教法人安楽寺,,,35.02135000000000,135.79620000000000,寺地南西隅の緩い石段を上がったところに西面して建つ。八角円柱の本柱と面皮の控柱を立て，丸太の桁を回し，小丸太の垂木を扇に配して軒を構成し，屋根を寄棟造，茅葺とする。数寄屋風の造りで特徴ある彫物を付すなど景観構成上欠かせない意匠を凝らした門。,https://bunka.nii.ac.jp/heritage/43967/_104255/43967_104255111225013738623_300.jpg
101,00003266,大河内山荘大乗閣,おおこうちさんそうだいじょうかく,1棟,,登録有形文化財(建造物),住宅,建築物,,昭和前,昭和16,1941,木造平屋建、檜皮葺一部茅葺・柿葺及び瓦葺、建築面積131㎡,,26 － 0149,36,2003.04.08(平成15.04.08),2003.03.18(平成15.03.18),,20030318,,造形の規範となっているもの,,京都府,京都府京都市右京区嵯峨小倉山田淵山町8-29他,,有限会社大河内山荘,,,35.01726000000000,135.66930000000000,大河内傳次郎が営んだ別荘の中心施設。数寄屋風の書院をはじめとして，泉殿のように突出した寝殿，如庵写しの小間の茶室，民家風の勝手，土間を一体化させた斬新な建物。各様式の特性に応じ屋根形式や意匠に工夫を凝らした数寄屋師笛吹嘉一郎の代表作になる。,https://bunka.nii.ac.jp/heritage/43967/_104256/43967_104256111225013739140_300.jpg
101,00003267,大河内山荘滴水庵,おおこうちさんそうてきすいあん,1棟,,登録有形文化財(建造物),住宅,建築物,,明治,明治期／昭和7移築,1868-1911／1932移築,木造平屋建、茅葺一部瓦葺及び柿葺、建築面積63㎡,,26 － 0150,36,2003.04.08(平成15.04.08),2003.03.18(平成15.03.18),,20030318,,造形の規範となっているもの,,京都府,京都府京都市右京区嵯峨小倉山田淵山町8-29他,,有限会社大河内山荘,,,35.01652000000000,135.66930000000000,大乗閣の南方庭園内にある茶屋。平屋建で，桁行５間，梁間２間，入母屋造，茅葺の主体部の南面西半に，切妻造，土庇付の突出部をもつ。２室の広間の茶室と土間のある水屋は，丸太や竹を多用した軽快な数寄屋風の造りになり，苑内の景観形成に欠かせない建物。,https://bunka.nii.ac.jp/heritage/43967/_104257/43967_104257111225013739908_300.jpg
101,00003268,大河内山荘持仏堂,おおこうちさんそうじぶつどう,1棟,,登録有形文化財(建造物),住宅,建築物,,昭和前,昭和6,1931,木造平屋建、瓦葺、建築面積6.0㎡,,26 － 0151,36,2003.04.08(平成15.04.08),2003.03.18(平成15.03.18),,20030318,,造形の規範となっているもの,,京都府,京都府京都市右京区嵯峨小倉山田淵山町8-29他,,有限会社大河内山荘,,,35.01611000000000,135.66960000000000,苑内の南西部に東面して建つ。正面１間，側面２間，入母屋造，桟瓦葺，妻入で，正側面３方に刎高欄付切目縁を回す。円柱を頭貫，内法長押で固め，台輪上に三斗組，中備蟇股を置く。小規模だが，軒は吹寄垂木を１支おきに疎らに配すなど，全体に技巧的な造り。,https://bunka.nii.ac.jp/heritage/43967/_104258/43967_104258111225013740686_300.jpg
101,00003269,大河内山荘中門,おおこうちさんそうちゅうもん,1棟,,登録有形文化財(建造物),住宅,その他工作,,昭和前,昭和16,1941,木造、檜皮葺、間口1.7m,,26 － 0152,36,2003.04.08(平成15.04.08),2003.03.18(平成15.03.18),,20030318,,造形の規範となっているもの,,京都府,京都府京都市右京区嵯峨小倉山田淵山町8-29他,,有限会社大河内山荘,,,35.01693000000000,135.66950000000000,庭園の内外郭を区切る位置に建つ門。親柱，控柱，冠木で軸部を構成し，その上に大きく弓形に曲げた垂木を配して迫持状の檜皮葺屋根を載せる。間口約１．７ｍの小規模な門だが，丸太や名栗の部材を多用した数寄屋風の意匠で，奇巧性に富んだ特異な形式になる。,https://bunka.nii.ac.jp/heritage/43967/_104259/43967_104259111225013742011_300.jpg
101,00003439,船岡温泉脱衣場,ふなおかおんせんだついじょう,1棟,,登録有形文化財(建造物),産業3次,建築物,,大正,大正12／昭和3改造,1923／1928改造,木造2階建、瓦葺、建築面積99㎡,,26 － 0153,37,2003.07.17(平成15.07.17),2003.07.01(平成15.07.01),,20030701,,国土の歴史的景観に寄与しているもの,,京都府,京都府京都市北区紫野南舟岡町82-1,,,,,35.03700000000000,135.74460000000000,料理旅館船岡楼の付属浴場として建設された施設の１つ。木造２階建で，１階は表に玄関・番台，奥に脱衣場を配し，２階に和室２室を取る。欄間・天井に奇抜な木彫を飾る内部や，昭和３年新設の軒唐破風のある鞍馬口通側外観など，市民に親しまれた建物である。,https://bunka.nii.ac.jp/heritage/43967/_104429/43967_104429111225013922793_300.jpg
101,00003440,船岡温泉浴場,ふなおかおんせんよくじょう,1棟,,登録有形文化財(建造物),産業3次,建築物,,昭和前,昭和7,1932,鉄筋コンクリート造平屋建、建築面積121㎡,,26 － 0154,37,2003.07.17(平成15.07.17),2003.07.01(平成15.07.01),,20030701,,造形の規範となっているもの,,京都府,京都府京都市北区紫野南舟岡町82-1,,,,,35.03687000000000,135.74460000000000,創業当初の煉瓦造浴場を建て替えたもの。ＲＣ造，平屋建で，脱衣場に続く廊下と男女浴場（後方は旧焚場）からなる。一段切上げた採光部に丸窓を明け，千本鞍馬口にあった菊水橋の石造欄干を転用し，内部を装飾タイルで飾るなど，奇抜な造形が親しまれている。,https://bunka.nii.ac.jp/heritage/43967/_104430/43967_104430111225013924121_300.jpg
101,00003441,船岡温泉旧船岡楼,ふなおかおんせんきゅうふなおかろう,1棟,,登録有形文化財(建造物),産業3次,建築物,,大正,大正12頃／昭和5改造,1923頃／1930改造,木造2階建、瓦葺、建築面積194㎡,,26 － 0155,37,2003.07.17(平成15.07.17),2003.07.01(平成15.07.01),,20030701,,国土の歴史的景観に寄与しているもの,,京都府,京都府京都市北区紫野南舟岡町82-1,,,,,35.03692000000000,135.74440000000000,脱衣場，浴場の西方に隣接して建つ。木造，２階建で，玄関部，主棟，北棟からなる。主棟１階に小間，２階に広間を取り，北棟１，２階にも座敷を配す。目立った装飾はないが，客室床・棚回りや欄間，縁高欄等に瀟洒な意匠を凝らし旅館建築らしい佇まいを造る。,https://bunka.nii.ac.jp/heritage/43967/_104431/43967_104431111225013925769_300.jpg
101,00003442,船岡温泉旧理髪店,ふなおかおんせんきゅうりはつてん,1棟,,登録有形文化財(建造物),産業3次,建築物,,大正,大正12頃,1923頃,木造2階建、瓦葺、建築面積29㎡,,26 － 0156,37,2003.07.17(平成15.07.17),2003.07.01(平成15.07.01),,20030701,,国土の歴史的景観に寄与しているもの,,京都府,京都府京都市北区紫野南舟岡町82-1,,,,,35.03709000000000,135.74470000000000,脱衣場北東に通りに面して建つ。木造，２階建で，正側面の２階壁面をモルタル塗で高く立ち上げたいわゆる看板建築。温泉の付属施設で，１階の表側に土間の店舗，その背後と２階に和室を配す。内部腰回りの装飾タイル，正側面壁頂部の蛇腹などに意匠を凝らす。,https://bunka.nii.ac.jp/heritage/43967/_104432/43967_104432111225013926278_300.jpg
101,00003443,旧藤ノ森湯,きゅうふじのもりゆ,1棟,,登録有形文化財(建造物),産業3次,建築物,,昭和前,昭和5,1930,木造2階建、瓦葺、建築面積140㎡,,26 － 0157,37,2003.07.17(平成15.07.17),2003.07.01(平成15.07.01),,20030701,,造形の規範となっているもの,,京都府,京都府京都市北区紫野東藤ノ森町11-1,,,,,35.03759000000000,135.74680000000000,船岡温泉の東方，鞍馬口通に面して建つ。脱衣場，浴場・釜場からなり，脱衣場棟２階に和室を設ける。木造だが，浴場左右と釜場境の壁は木骨煉瓦造とする。正面出入口に唐破風を付け，内外を装飾タイル張とするなど，随所に意匠を凝らす。現在飲食店等に転用。,https://bunka.nii.ac.jp/heritage/43967/_104433/43967_104433111225013926887_300.jpg
101,00003679,パビリオンコート（旧山中合名会社美術館）洋館,ぱびりおんこーと（きゅうやまなかごうめいがいしゃびじゅつかん）ようかん,1棟,,登録有形文化財(建造物),産業3次,建築物,,大正,大正9,1920,煉瓦造地上2階地下1階建、建築面積198㎡,,26 － 0158,39,2003.12.25(平成15.12.25),2003.12.01(平成15.12.01),,20031201,,造形の規範となっているもの,,京都府,京都府京都市東山区粟田口三条坊町14-2,,株式会社京都山中商会,,,35.00805000000000,135.78230000000000,古美術品の展示・収蔵施設として建てられた。設計は池村元之助，施工は清水組である。構造は壁体を煉瓦積とし，床をＲＣ造の梁とスラブでつくる。外観は昭和１１年に改修され，地上階部分がタイル貼となっている。ＲＣを用いた初期の建築の好例である。,https://bunka.nii.ac.jp/heritage/43967/_104669/43967_104669111225014204024_300.jpg
101,00003680,パビリオンコート（旧山中合名会社美術館）和館,ぱびりおんこーと（きゅうやまなかごうめいがいしゃびじゅつかん）わかん,1棟,,登録有形文化財(建造物),産業3次,建築物,,明治,明治37／昭和42移築,1904／1967移築,木造平屋建、瓦葺、建築面積105㎡,,26 － 0159,39,2003.12.25(平成15.12.25),2003.12.01(平成15.12.01),,20031201,,国土の歴史的景観に寄与しているもの,,京都府,京都府京都市東山区粟田口三条坊町14-2,,株式会社京都山中商会,,,35.00793000000000,135.78250000000000,当初古美術品の陳列施設として建てられたものを，昭和４２年に現在地に移築したもの。木造平屋建，桟瓦葺で，舟肘木を用い，窓上部に菱形格子を巡らす。南側面上部は蟇股や欄間彫刻を飾る。現在では内部を改装し，喫茶店等に活用されている。,https://bunka.nii.ac.jp/heritage/43967/_104670/43967_104670111225014206443_300.jpg
101,00003681,パビリオンコート（旧山中合名会社美術館）門,ぱびりおんこーと（きゅうやまなかごうめいがいしゃびじゅつかん）もん,1棟,,登録有形文化財(建造物),産業3次,その他工作,,大正,大正元／平成14移築,1912／2002移築,木造、鉄板葺、間口2.0m,,26 － 0160,39,2003.12.25(平成15.12.25),2003.12.01(平成15.12.01),,20031201,,再現することが容易でないもの,,京都府,京都府京都市東山区粟田口三条坊町14-2,,株式会社京都山中商会,,,35.00792000000000,135.78260000000000,大正元年に，現在地の南側隣接地に離れ等と同時に建てられた。寺院等の旧材を利用して建てられた腕木門形式の門で，扉は七宝文装飾の両折戸とする。各部材は装飾・風蝕度合いなどから複数の建築から集められたと思われ，一部に鉄材も用いられている。,https://bunka.nii.ac.jp/heritage/43967/_104671/43967_104671111225014206961_300.jpg
101,00003889,安藤家住宅（旧藤井繁次郎邸）,あんどうけじゅうたく（きゅうふじいしげじろうてい）,1棟,,登録有形文化財(建造物),住宅,建築物,,昭和前,昭和11,1936,木造平屋建、瓦葺、建築面積342㎡,,26 － 0161,40,2004.03.04(平成16.03.04),2004.02.17(平成16.02.17),,20040217,,造形の規範となっているもの,,京都府,京都府京都市左京区鹿ケ谷桜谷町126,,若菜屋本家株式会社,営利法人,,35.01944000000000,135.79600000000000,ハーフティンバー・スタイルを基調とする英国風住宅で，一部に古典様式の列柱等の独自色を見せる。内部は一部に客船の建具等を使用し，寄木張の床，プラスターによる壁面装飾など，船舶を意識した豪華な内装を誇る。設計・施工は，ともに鴻池組による。,https://bunka.nii.ac.jp/heritage/43967/_104879/43967_104879151214161853280_300.jpg
101,00003992,大原茶屋（田中家住宅）,おおはらちゃや（たなかけじゅうたく）,1棟,,登録有形文化財(建造物),住宅,建築物,,江戸,江戸後期／明治11曳家改造,1751-1829／1878曳家改造,木造平屋建、茅葺、建築面積113㎡,,26 － 0162,41,2004.03.29(平成16.03.29),2004.03.02(平成16.03.02),,20040302,,国土の歴史的景観に寄与しているもの,,京都府,京都府京都市左京区大原来迎院町275,,,,,35.11813000000000,135.83252000000000,大原三千院の門前通りに南面する農家住宅。木造平屋建，入母屋造茅葺の四周に桟瓦葺の庇を巡らす。桁行６間梁間４間規模の食違いのある四間取平面で，正面右手に土間を配す。現在は土産物店として活用されており，内外ともに農家の佇まいを良好に残している。,https://bunka.nii.ac.jp/heritage/43967/_104982/43967_104982104781563680101_300.jpg
101,00003993,鳥彌三主屋,とりやさしゅおく,1棟,,登録有形文化財(建造物),産業3次,建築物,,江戸,江戸後期,1751-1829,木造2階建、瓦葺、建築面積136㎡,,26 － 0163,41,2004.03.29(平成16.03.29),2004.03.02(平成16.03.02),,20040302,,国土の歴史的景観に寄与しているもの,,京都府,京都府京都市下京区西石垣通四条下る斎藤町136他,,有限会社鳥弥三,,,35.00209000000000,135.77030000000000,鴨川右岸，西石垣通に西面する木造２階建の料亭。桁行７間梁間５間半の切妻造，平入で，左手２間分の大棟がわずかに低い。１階の通り土間沿いを厨房とし，２階を中心に大小の客間を配す。出格子や２階縁の格子組手摺など，多彩な格子が趣ある外観を形成する。,https://bunka.nii.ac.jp/heritage/43967/_104983/43967_104983111225014543837_300.jpg
101,00003994,鳥彌三中二階,とりやさちゅうにかい,1棟,,登録有形文化財(建造物),産業3次,建築物,,江戸,江戸末期,1830-1867,木造平屋建、瓦葺、建築面積12㎡,,26 － 0164,41,2004.03.29(平成16.03.29),2004.03.02(平成16.03.02),,20040302,,国土の歴史的景観に寄与しているもの,,京都府,京都府京都市下京区西石垣通四条下る斎藤町136他,,有限会社鳥弥三,,,35.00197000000000,135.77030000000000,主屋の東裏手，鴨川に面して建つ。桁行１間半梁間２間の切妻造，桟瓦葺。新座敷に接続し，中庭から階段を昇った中２階高に６畳室を設け，妻側に奥行の浅いトコ，タナを備え，川側には腰高に縁を付ける。新座敷と軒高を違え，川岸の外観に変化を与えている。,https://bunka.nii.ac.jp/heritage/43967/_104984/43967_104984111225014544354_300.jpg
101,00003995,鳥彌三新座敷,とりやさしんざしき,1棟,,登録有形文化財(建造物),産業3次,建築物,,昭和前,昭和初期,1926-1988,木造2階建、瓦葺、建築面積27㎡,,26 － 0165,41,2004.03.29(平成16.03.29),2004.03.02(平成16.03.02),,20040302,,国土の歴史的景観に寄与しているもの,,京都府,京都府京都市下京区西石垣通四条下る斎藤町136他,,有限会社鳥弥三,,,35.00201000000000,135.77030000000000,主屋の東裏手，中庭を介して，鴨川に面して建つ。南に中二階が続き，主屋とは２階南端の渡り廊下で接続する。１階は客室２室の間に土間通路を開き，夏季には川岸に仮設したユカへ至る。２階は広間で，川側に腰高の縁を設ける。鴨川縁の景観の一要素をなす。,https://bunka.nii.ac.jp/heritage/43967/_104985/43967_104985111225014545604_300.jpg
101,00004092,順正南禅寺本店（順正書院）書院,じゅんせいなんぜんじほんてん（じゅんせいしょいん）しょいん,1棟,,登録有形文化財(建造物),住宅,建築物,,江戸,天保10,1839,木造平屋建，瓦葺，建築面積279㎡,,26 － 0035,17,1999.07.19(平成11.07.19),1999.06.07(平成11.06.07),,19990607,,再現することが容易でないもの,,京都府,京都府京都市左京区南禅寺草川町60,,,,,35.01154000000000,135.79010000000000,南禅寺山門の南に位置する書院で、蘭学医新宮涼庭が所司代間部詮勝の勧めで閑静な佇まいの現地に建てたもの。平面は東南に上段の間を置き西側にイロリの間、次の間などを配し、奥に茶室を付設する。改造はあるが、伝統技法になる上質の書院として知られる。,https://bunka.nii.ac.jp/heritage/43967/_105082/43967_105082111225014641815_300.jpg
101,00004093,順正南禅寺本店（順正書院）石門,じゅんせいなんぜんじほんてん（じゅんせいしょいん）いしもん,1棟,,登録有形文化財(建造物),住宅,その他工作,,江戸,天保10,1839,石造冠木門,,26 － 0036,17,1999.07.19(平成11.07.19),1999.06.07(平成11.06.07),,19990607,,再現することが容易でないもの,,京都府,京都府京都市左京区南禅寺草川町60,,,,,35.01154000000000,135.79010000000000,書院上段の間を中心に展開される前庭の西側の通路境に設けられた切石積の塀に開かれた門。両脇に板状の大きな切石の親柱を立て、頭部に屋根石を置く簡素な造りになる。内開きの扉は新しいが、斬新なデザインになり、庭への導入部を軽快に演出している。,https://bunka.nii.ac.jp/heritage/43967/_105083/43967_105083111225014644476_300.jpg
101,00004140,平安女学院明治館,へいあんじょがくいんめいじかん,1棟,,登録有形文化財(建造物),学校,建築物,,明治,明治27,1894,煉瓦造2階建、瓦葺、建築面積370㎡,,26 － 0166,42,2004.06.24(平成16.06.24),2004.06.09(平成16.06.09),,20040609,,造形の規範となっているもの,,京都府,京都府京都市上京区下立売通室町東入五町目町178-2,,学校法人平安女学院,,,35.01952000000000,135.75870000000000,平安女学院の現在地への移転に際して建てられた校舎建築。煉瓦造の南北棟，桟瓦葺，切妻造３棟を並べ，妻面はダッチ・ゲイブルを持ち特色ある外観をつくる。設計はＡ・Ｎ・ハンセル。我国におけるクイーン・アン・リバイバル様式の最初期の事例である。,https://bunka.nii.ac.jp/heritage/43967/_105130/43967_105130111225014714637_300.jpg
101,00004141,嶋臺絲店,,1棟,,登録有形文化財(建造物),産業3次,建築物,,明治,明治16,1883,木造2階建、瓦葺、建築面積113㎡,,26 － 0167,42,2004.06.24(平成16.06.24),2004.06.09(平成16.06.09),,20040609,,造形の規範となっているもの,,京都府,京都府京都市中京区御池通烏丸東入仲保利町191,,,,,35.01108000000000,135.76060000000000,御池通りに南面して建つ。切妻造，桟瓦葺，平入で，西側を一段高く葺く。正面には庇をかけ，出格子を設ける。庇上の壁面は土壁とし，横長の虫籠窓を設けている。平面ほぼ中央南北に土間を通し，１階はその両脇を広い２室とする。近代初頭京町屋の好例である。,https://bunka.nii.ac.jp/heritage/43967/_105131/43967_105131111225014716026_300.jpg
101,00004142,嶋臺酒店,,1棟,,登録有形文化財(建造物),産業3次,建築物,,明治,明治16,1883,木造2階建、瓦葺、建築面積80㎡,,26 － 0168,42,2004.06.24(平成16.06.24),2004.06.09(平成16.06.09),,20040609,,国土の歴史的景観に寄与しているもの,,京都府,京都府京都市中京区御池通烏丸東入仲保利町191,,,,,35.01112000000000,135.76090000000000,敷地の南東隅に建ち，東街路側を正面とする。平面は巽蔵を囲むＬ字型で，総土間とする。１階正面は連子格子を設け，南寄りに入り口を開く。庇上は土壁とし，虫籠窓を開く。御池通に面した妻面は上部白漆喰塗とし，巽蔵と連続する景観を形成している。,https://bunka.nii.ac.jp/heritage/43967/_105132/43967_105132111225014717287_300.jpg
101,00004143,嶋臺書院（古硯堂）,,1棟,,登録有形文化財(建造物),住宅,建築物,,明治,明治16／昭和27移築,1833／1952移築,木造平屋建、瓦葺、建築面積88㎡,,26 － 0169,42,2004.06.24(平成16.06.24),2004.06.09(平成16.06.09),,20040609,,国土の歴史的景観に寄与しているもの,,京都府,京都府京都市中京区御池通烏丸東入仲保利町191,,,,,35.01121000000000,135.76060000000000,敷地の奥に建ち，絲店と中庭を介して向かい合う。昭和２７年に敷地内で移築されている。切妻造，桟瓦葺で，１２畳半の主室と，９畳の次の間からなる。天井をやや低めにとり，栂などの良材を用いた質の高い意匠を備え，欄間彫刻などにも特徴がある。,https://bunka.nii.ac.jp/heritage/43967/_105133/43967_105133111225014717807_300.jpg
101,00004144,嶋臺巽蔵,,1棟,,登録有形文化財(建造物),産業3次,建築物,,明治,明治16,1883,土蔵造2階建、瓦葺、建築面積44㎡,,26 － 0170,42,2004.06.24(平成16.06.24),2004.06.09(平成16.06.09),,20040609,,国土の歴史的景観に寄与しているもの,,京都府,京都府京都市中京区御池通烏丸東入仲保利町191,,,,,35.01107000000000,135.76080000000000,御池通に面して建つ土蔵。３間四方の平面で，東と北の酒店側に扉口を開く。外観は腰縦板張，上部は漆喰塗とし，軒まで塗込め，屋根は本瓦葺である。内部は１階・２階とも柱を現し，いずれも一室とする。京都の近代初頭の景観を今日に伝える建築である。,https://bunka.nii.ac.jp/heritage/43967/_105134/43967_105134111225014718318_300.jpg
101,00004260,茂庵（旧谷川茂次郎茶苑）旧点心席,もあん（きゅうたにがわしげじろうちゃえん）きゅうてんしんせき,1棟,,登録有形文化財(建造物),住宅,建築物,,大正,大正末期～昭和初期,1912-1988,木造2階建、銅板葺、建築面積64㎡,,26 － 0171,43,2004.08.17(平成16.08.17),2004.07.23(平成16.07.23),,20040723,,造形の規範となっているもの,,京都府,京都府京都市左京区吉田神楽岡町7-2他,,株式会社ヤマチカ,,,35.02631000000000,135.78710000000000,数寄者谷川茂庵が営んだ吉田山荘の独立して建つ食堂で，２階建，寄棟造，銅板葺で基壇上に建つ。軸部，小屋組等全体に丸太で構成され，東側面１階は壁面を後退させ懸造のようにみせる。棟両端に鳥形の鬼瓦をのせるなど，趣味性の強い，かつ優れた意匠の建物。,https://bunka.nii.ac.jp/heritage/43967/_105250/43967_105250111225014824442_300.jpg
101,00004261,茂庵（旧谷川茂次郎茶苑）田舎席,もあん（きゅうたにがわしげじろうちゃえん）いなかせき,1棟,,登録有形文化財(建造物),住宅,建築物,,大正,大正末期～昭和初期,1912-1988,木造平屋建、銅板葺、建築面積47㎡,,26 － 0172,43,2004.08.17(平成16.08.17),2004.07.23(平成16.07.23),,20040723,,造形の規範となっているもの,,京都府,京都府京都市左京区吉田神楽岡町7-2他,,株式会社ヤマチカ,,,35.02565000000000,135.78700000000000,６畳の茶席を中心に，４畳半の前室，水屋，台所，風呂場等からなる。茶席は躙口を構え東面北端の壁に織部板を付し壁床を設け，東端半間を垂れ壁で区切り，北半間を網代天井，南１間を化粧屋根裏とする。東に如意ヶ岳を望む開放的な構えで随所に創意が窺える。,https://bunka.nii.ac.jp/heritage/43967/_105251/43967_105251111225014824973_300.jpg
101,00004262,茂庵（旧谷川茂次郎茶苑）静閑亭,もあん（きゅうたにがわしげじろうちゃえん）せいかんてい,1棟,,登録有形文化財(建造物),住宅,建築物,,大正,大正末期～昭和初期,1912-1988,木造地上1階一部地下1階建、銅板葺、建築面積30㎡,,26 － 0173,43,2004.08.17(平成16.08.17),2004.07.23(平成16.07.23),,20040723,,造形の規範となっているもの,,京都府,京都府京都市左京区吉田神楽岡町7-2他,,株式会社ヤマチカ,,,35.02610000000000,135.78720000000000,主室の他水屋，玄関，便所を付し，斜面に建ち東側は懸造になる。主室は曲木を巧みに組み合わせた梁組をみせ，西面に大床と脇に火灯形に刳った平書院風の窓を開ける。当初は床を張らない立礼の席で，装飾タイル張りの地下室を備えるなど，独創的な構成になる。,https://bunka.nii.ac.jp/heritage/43967/_105252/43967_105252111225014826251_300.jpg
101,00004263,茂庵（旧谷川茂次郎茶苑）待合,もあん（きゅうたにがわしげじろうちゃえん）まちあい,1棟,,登録有形文化財(建造物),住宅,建築物,,大正,大正末期～昭和初期,1912-1988,木造平屋建、銅板葺、建築面積9㎡,,26 － 0174,43,2004.08.17(平成16.08.17),2004.07.23(平成16.07.23),,20040723,,造形の規範となっているもの,,京都府,京都府京都市左京区吉田神楽岡町7-2他,,株式会社ヤマチカ,,,35.02634000000000,135.78730000000000,山頂付近にあった本席に付属する供待。内部は南西に１畳半大の腰掛を設け，床はモルタル塗で四半敷状の目地を切り，曲木による変化に富んだ梁組をみせる。小規模で簡素ながら，軒の深い緩勾配の寄棟屋根による外観や丸太を多用した造作など，雅趣に富む建築。,https://bunka.nii.ac.jp/heritage/43967/_105253/43967_105253111225014827021_300.jpg
101,00004264,堀江家住宅主屋,ほりえけじゅうたくしゅおく,1棟,,登録有形文化財(建造物),住宅,建築物,,大正,大正10,1921,木造平屋建、瓦葺、建築面積121㎡,,26 － 0175,43,2004.08.17(平成16.08.17),2004.07.23(平成16.07.23),,20040723,,造形の規範となっているもの,,京都府,京都府京都市右京区花園木辻南町15,,,,,35.02078000000000,135.72380000000000,妙心寺南東の住宅地に建つ。平屋，寄棟造，桟瓦葺で，座敷飾りを備えた２室続きの座敷，玄関と寄付，茶の間と台所の各部分を，矩折れの中廊下で連絡する。台檜を用いた上質な造りで，全て和室ながら独立性を確保した間取りに近代的な郊外住宅の萌芽が窺える。,https://bunka.nii.ac.jp/heritage/43967/_105254/43967_105254111225014827797_300.jpg
101,00004265,アサヒビール大山崎山荘美術館本館,あさひびーるおおやまざきさんそうびじゅつかんほんかん,1棟,,登録有形文化財(建造物),住宅,建築物,,大正,大正初期／昭和2増築,1912-1925／1927増築,鉄筋コンクリート造及び木造地上3階地下1階建、鉄板葺、建築面積372㎡,,26 － 0176,43,2004.08.17(平成16.08.17),2004.07.23(平成16.07.23),,20040723,,造形の規範となっているもの,,京都府,京都府乙訓郡大山崎町字大山崎小字銭原5-3,,アサヒビール株式会社,,,34.89556000000000,135.67960000000000,実業家加賀正太郎の別邸。鉄筋コンクリート造及び木造，屋根瓦葺形鉄板葺で，急勾配の切妻屋根を戴く平屋部分とハーフティンバーの３階建部分がＴ字形平面を構成する。変化に富んだ外観と，ジャコビアン様式を基調とした充実した室内意匠をもつ質の高い建物。,https://bunka.nii.ac.jp/heritage/43967/_105255/43967_105255111225014829358_300.jpg
101,00004266,アサヒビール大山崎山荘美術館彩月庵（茶室）,あさひびーるおおやまざきさんそうびじゅつかんさいげつあん（ちゃしつ）,1棟,,登録有形文化財(建造物),住宅,建築物,,昭和前,昭和初期,1926-1988,木造平屋建、瓦葺、建築面積29㎡,,26 － 0177,43,2004.08.17(平成16.08.17),2004.07.23(平成16.07.23),,20040723,,造形の規範となっているもの,,京都府,京都府乙訓郡大山崎町字大山崎小字銭原5-3,,アサヒビール株式会社,,,34.89554000000000,135.67920000000000,本館北西，宝積寺との境界近くに建つ茶室。切妻造，桟瓦葺で，持仏堂を兼ねた立礼席と前室及び水屋からなる。室内は石敷で，主室に２畳の床上部，床，仏壇を備える。丸太を用いた軽快で開放的な数寄屋風の造りで，簡素ながら瀟洒で見所の多い室内を構成する。,https://bunka.nii.ac.jp/heritage/43967/_105256/43967_105256111225014830978_300.jpg
101,00004267,アサヒビール大山崎山荘美術館橡の木茶屋,あさひびーるおおやまざきさんそうびじゅつかんとちのきちゃしつ,1棟,,登録有形文化財(建造物),住宅,建築物,,昭和前,昭和初期,1926-1988,木造平屋建地階付、瓦葺、建築面積16㎡,,26 － 0178,43,2004.08.17(平成16.08.17),2004.07.23(平成16.07.23),,20040723,,造形の規範となっているもの,,京都府,京都府乙訓郡大山崎町字大山崎小字銭原5-3,,アサヒビール株式会社,,,34.89525000000000,135.67950000000000,山腹に鉄筋コンクリート造石張の地階を築き，その上に張り出して建つ。南，西面は腰掛を設け，外部壁面は丸太組でつくる。内部は寄木張の土間床とし，柱，梁は丸太で，床や下地窓を備えた数寄屋風意匠になる。和洋を巧みに折衷した構成の建物。,https://bunka.nii.ac.jp/heritage/43967/_105257/43967_105257111225014831492_300.jpg
101,00004268,大山崎山荘栖霞楼（物見塔）,おおやまざきさんそうせいかろう（ものみのとう）,1棟,,登録有形文化財(建造物),住宅,建築物,,大正,大正4,1915,木造3階建、鉄板葺、建築面積12㎡,,26 － 0179,43,2004.08.17(平成16.08.17),2004.07.23(平成16.07.23),,20040723,,国土の歴史的景観に寄与しているもの,,京都府,京都府乙訓郡大山崎町字大山崎小字銭原5-5,,京都府,,,34.89596000000000,135.67910000000000,敷地北奥の高台に南面して建つ。３ｍ×４ｍほどの矩形平面の小塔で，木造３階建，急勾配の切妻造，鉄板葺の屋根をかける。１階の円形，アーチ形などの出入口，２階南面の縦長窓，３階展望室の大きく開いた横長窓など，多彩な開口部をもつ遊び心あふれる建物。,https://bunka.nii.ac.jp/heritage/43967/_105258/43967_105258111225014832267_300.jpg
101,00004269,大山崎山荘旧車庫（京都府休憩所）,おおやまざきさんそうきゅうしゃこ（きょうとふきゅうけいじょ）,1棟,,登録有形文化財(建造物),住宅,建築物,,昭和前,昭和初期,1926-1988,鉄筋コンクリート造及び木造2階建、瓦葺、建築面積61㎡,,26 － 0180,43,2004.08.17(平成16.08.17),2004.07.23(平成16.07.23),,20040723,,造形の規範となっているもの,,京都府,京都府乙訓郡大山崎町字大山崎小字銭原5-2,,京都府,,,34.89470000000000,135.67910000000000,鉄筋コンクリート造の１階の前方に張り出して木造２階をのせ，軒及び螻羽を大きく出した切妻造，桟瓦葺の屋根を妻入にかける。１階は車庫，２階は畳敷３室と板敷の台所を配した居室とする。壁面に化粧積煉瓦積を見せたハーフティンバーの印象的な外観をもつ。,https://bunka.nii.ac.jp/heritage/43967/_105259/43967_105259111225014833616_300.jpg
101,00004270,大山崎山荘琅洞（トンネル）,おおやまざきさんそうろうかんどう（とんねる）,1基,,登録有形文化財(建造物),住宅,土木構造物,,昭和前,昭和初期,1926-1988,煉瓦造、延長5.6m、幅員3.6m,,26 － 0181,43,2004.08.17(平成16.08.17),2004.07.23(平成16.07.23),,20040723,,造形の規範となっているもの,,京都府,京都府乙訓郡大山崎町字大山崎小字上ノ田5-1,,京都府,,,34.89524000000000,135.68070000000000,敷地の南東隅部，山荘への進入路として設けられたトンネル。延長５．６ｍ，幅員３．６ｍ，岩盤をくり抜いて煉瓦造躯体でフラットアーチ形に築き，正面側坑門は切石積とする。小規模だが，内部覆工の煉瓦積に焼過ぎ煉瓦を織りまぜるなど，装飾的な造りとする。,https://bunka.nii.ac.jp/heritage/43967/_105260/43967_105260111225014834140_300.jpg
101,00004366,武者小路千家主屋,むしゃのこうじせんけしゅおく,1棟,,登録有形文化財(建造物),住宅,建築物,,明治,明治14頃,1881頃,木造2階建、瓦葺、建築面積201㎡,,26 － 0182,44,2004.11.29(平成16.11.29),2004.11.08(平成16.11.08),,20041108,,造形の規範となっているもの,,京都府,京都府京都市上京区武者小路通新町西入西無車小路町613-2他,,財団法人官休庵,,,35.02789000000000,135.75480000000000,木造２階建，桟瓦葺の瀟洒な数寄屋住宅で，表門から路地を経て玄関に至る。居室の周囲に４畳桝床の半宝庵，７畳広間の環翠園（矢倉家広間を移築），３畳台目の行舟亭の３茶室と千利休像を祀る祖堂を配した茶家ならではの構成をもつ。大工棟梁は平井儀助。,https://bunka.nii.ac.jp/heritage/43967/_105356/43967_105356111225014937982_300.jpg
101,00004367,武者小路千家茶室官休庵,むしゃのこうじせんけちゃしつかんきゅうあん,1棟,,登録有形文化財(建造物),住宅,建築物,,大正,大正15,1926,木造平屋建、瓦葺一部こけら葺、建築面積11㎡,,26 － 0183,44,2004.11.29(平成16.11.29),2004.11.08(平成16.11.08),,20041108,,造形の規範となっているもの,,京都府,京都府京都市上京区武者小路通新町西入西無車小路町613-2他,,財団法人官休庵,,,35.02800000000000,135.75490000000000,主屋の北付属棟の東に接続する。武者小路千家の初代一翁好みの茶室として再建。１畳の客座と台目の点前座との間に５寸２分幅の半板を入れた独特の平面で，東に二つの下地窓，南に躙口と下地窓を開き，北に水屋が続く。屋根は桟瓦葺で螻羽と軒をこけら葺とする。,https://bunka.nii.ac.jp/heritage/43967/_105357/43967_105357111225014938753_300.jpg
101,00004368,武者小路千家茶室弘道庵,むしゃのこうじせんけちゃしつこうどうあん,1棟,,登録有形文化財(建造物),住宅,建築物,,昭和前,昭和15,1940,木造平屋建、瓦葺、建築面積59㎡,,26 － 0184,44,2004.11.29(平成16.11.29),2004.11.08(平成16.11.08),,20041108,,造形の規範となっているもの,,京都府,京都府京都市上京区武者小路通新町西入西無車小路町613-2他,,財団法人官休庵,,,35.02790000000000,135.75490000000000,武者小路千家の九代愈好斎が再建した稽古の間。庭を挟んで主屋東に建つ。木造平屋建，屋根は桟瓦葺で軒を銅板葺とする。南側道路からやや引込んで玄関の土間，寄付６畳，次の間６畳半が並ぶ。１５畳広間の弘道庵には床と附書院を設け，土縁を巡らせている。,https://bunka.nii.ac.jp/heritage/43967/_105358/43967_105358111225014939267_300.jpg
101,00004369,武者小路千家土蔵,むしゃのこうじせんけどぞう,1棟,,登録有形文化財(建造物),住宅,建築物,,明治,明治14頃,1881頃,土蔵造2階建、瓦葺、建築面積23㎡,,26 － 0185,44,2004.11.29(平成16.11.29),2004.11.08(平成16.11.08),,20041108,,国土の歴史的景観に寄与しているもの,,京都府,京都府京都市上京区武者小路通新町西入西無車小路町613-2他,,財団法人官休庵,,,35.02801000000000,135.75480000000000,敷地の西辺に位置し，主屋の北に接続する。桁行３間梁間２間半の土蔵造平屋建で，屋根は切妻造，本瓦葺で，外壁を白漆喰仕上げとする。主屋から北へ延びる廊下に蔵前を設け，両開きの土戸，裏白戸，網戸を建て込む。西面に円形の小窓二つを開けている。,https://bunka.nii.ac.jp/heritage/43967/_105359/43967_105359111225014939790_300.jpg
101,00004370,上木屋町幾松本館東棟,かみきやまちいくまつほんかんひがしとう,1棟,,登録有形文化財(建造物),産業3次,建築物,,江戸,江戸末期～明治初期,1830-1867,木造2階建、瓦葺、建築面積83㎡,,26 － 0186,44,2004.11.29(平成16.11.29),2004.11.08(平成16.11.08),,20041108,,国土の歴史的景観に寄与しているもの,,京都府,京都府京都市中京区木屋町通二条下る上樵木町497-1、498-1,,,,,35.01164000000000,135.77090000000000,鴨川に面して木屋町通東側に建つ料理旅館である。木造２階建で，屋根は切妻造，桟瓦葺で，外壁は杉皮張とする。１階に８畳２室と次の間６畳，２階に１５畳広間と８畳，次の間４畳を配す。各客室は鴨川に向かって開放され，夏季には川岸に床が設けられる。,https://bunka.nii.ac.jp/heritage/43967/_105360/43967_105360111225014940057_300.jpg
101,00004371,上木屋町幾松本館南棟,かみきやまちいくまつほんかんみなみとう,1棟,,登録有形文化財(建造物),産業3次,建築物,,明治,明治中期,1868-1911,木造2階建、瓦葺、建築面積75㎡,,26 － 0187,44,2004.11.29(平成16.11.29),2004.11.08(平成16.11.08),,20041108,,国土の歴史的景観に寄与しているもの,,京都府,京都府京都市中京区木屋町通二条下る上樵木町497-1、498-1,,,,,35.01165000000000,135.77080000000000,東棟の西に接続する木造２階建，桟瓦葺，外壁は杉皮張である。木屋町通から露地を通って式台の構えの玄関に至る。敷地の南辺に沿って建ち，北には池水を配した中庭がある。１階は応接室と２０畳大の広間，２階は６畳，１０畳と次の間４畳の客室が配される。,https://bunka.nii.ac.jp/heritage/43967/_105361/43967_105361111225014941321_300.jpg
101,00004589,西川家住宅主屋,にしかわけじゅうたくしゅおく,1棟,,登録有形文化財(建造物),住宅,建築物,,昭和前,昭和8,1933,木造2階建、瓦葺、建築面積153㎡,,26 － 0188,45,2005.02.28(平成17.02.28),2005.02.09(平成17.02.09),,20050209,,造形の規範となっているもの,,京都府,京都府京都市北区衣笠総門町3-1,,,,,35.03702000000000,135.72910000000000,金閣寺の南方に位置する。木造２階建で，外観は水平線を強調した深い軒や丸窓などモダニズムの意匠でまとめる。内部は基本的に上質で瀟洒なつくりの和室で構成されるが，洋風の応接室や階段室等にはモダニズムが反映されている。昭和初期の郊外住宅の好事例。,https://bunka.nii.ac.jp/heritage/43967/_105579/43967_105579111225015341138_300.jpg
101,00004590,西川家住宅土蔵,にしかわけじゅうたくどぞう,1棟,,登録有形文化財(建造物),住宅,建築物,,昭和前,昭和8,1933,鉄筋コンクリート造2階建、瓦葺、建築面積23㎡,,26 － 0189,45,2005.02.28(平成17.02.28),2005.02.09(平成17.02.09),,20050209,,造形の規範となっているもの,,京都府,京都府京都市北区衣笠総門町3-1,,,,,35.03712000000000,135.72910000000000,主屋の北西に建つ。外観は通例の土蔵と同様であるが，鉄筋コンクリート造の２階建で，屋根は切妻造，桟瓦葺，南面に庇を架け，１階戸口や２階窓に鉄扉を設ける。小屋組や床組は木造で，内壁も化粧板を張る。伝統的な形式を，近代の素材でつくりあげた事例。,https://bunka.nii.ac.jp/heritage/43967/_105580/43967_105580111225015343557_300.jpg
101,00004591,瀬川家住宅主屋,せがわけじゅうたくしゅおく,1棟,,登録有形文化財(建造物),住宅,建築物,,江戸,江戸後期,1751-1829,木造平屋建、瓦葺、建築面積118㎡,,26 － 0190,45,2005.02.28(平成17.02.28),2005.02.09(平成17.02.09),,20050209,,造形の規範となっているもの,,京都府,京都府京都市上京区下立売通御前通西入堀川町522,,,,,35.02103000000000,135.73350000000000,妙心寺道に北面して建つ。つし２階建，切妻造，桟瓦葺で，両側面にうだつを設ける。正面２階は漆喰塗で，虫籠窓を開ける。内部は基本的に西半を居室，東半を土間とする。桁行方向に貫を用いない小屋組，２階座敷がないことなど，江戸後期の町家の好例。,https://bunka.nii.ac.jp/heritage/43967/_105581/43967_105581111225015346203_300.jpg
101,00004592,瀬川家住宅土蔵,せがわけじゅうたくどぞう,1棟,,登録有形文化財(建造物),住宅,建築物,,江戸,宝永7頃,1710頃,土蔵造2階建、瓦葺、建築面積27㎡,,26 － 0191,45,2005.02.28(平成17.02.28),2005.02.09(平成17.02.09),,20050209,,造形の規範となっているもの,,京都府,京都府京都市上京区下立売通御前通西入堀川町522,,,,,35.02097000000000,135.73360000000000,主屋の南東にある。土蔵造２階建，東西棟の切妻造，桟瓦葺で，東妻面は街路に面している。北面１階には観音開きの扉をつけ，深い庇を掛ける。外壁は漆喰塗とし，２階まで高く縦板張で覆う。階段板に宝永７年の墨書があり，建築年代がほぼ明確な数少ない土蔵。,https://bunka.nii.ac.jp/heritage/43967/_105582/43967_105582111225015347861_300.jpg
101,00004593,家邊徳時計店（家邊家住宅）店舗,やべとくとけいてん（やべけじゅうたく）てんぽ,1棟,,登録有形文化財(建造物),産業3次,建築物,,明治,明治23,1890,煉瓦造2階建、瓦葺、建築面積107㎡,,26 － 0193,45,2005.02.28(平成17.02.28),2005.02.09(平成17.02.09),,20050209,,国土の歴史的景観に寄与しているもの,,京都府,京都府京都市中京区三条通富小路東入中之町25,,株式会社家辺徳時計店,営利法人,,35.00854000000000,135.76520000000000,街路に北面して建つ煉瓦造２階建の店舗建築で，内部には金庫室や螺旋階段がある。１階は３連アーチを飾り，２階をセットバックさせる。エンタブレチュア，隅石に加え，豊かな装飾細部を随所に配す。三条通の近代的な町並景観の核として，広く親しまれている。,https://bunka.nii.ac.jp/heritage/43967/_105583/43967_105583111225015349638_300.jpg
101,00004594,家邊徳時計店（家邊家住宅）主屋,やべとくとけいてん（やべけじゅうたく）しゅおく,1棟,,登録有形文化財(建造物),住宅,建築物,,明治,明治23頃,1890頃,木造2階一部平屋建、瓦葺、建築面積129㎡,,26 － 0194,45,2005.02.28(平成17.02.28),2005.02.09(平成17.02.09),,20050209,,造形の規範となっているもの,,京都府,京都府京都市中京区三条通富小路東入中之町25,,株式会社家辺徳時計店,営利法人,,35.00843000000000,135.76520000000000,店舗後方に建つ居住棟。８畳の座敷がある２階建を中心に，店舗との接続部には平屋建の玄関があり，背後にも平屋建の茶の間や離れを附属する。真壁造，桟瓦葺，端正なつくりの和風建築で，効果的に中庭や坪庭を用いた平面構成になり，京の町家の伝統が窺える。,https://bunka.nii.ac.jp/heritage/43967/_105584/43967_105584111225015351426_300.jpg
101,00004595,旧京都市立有済小学校太鼓望楼,きゅうきょうとしりつゆうさいしょうがっこうたいこぼうろう,1棟,,登録有形文化財(建造物),学校,建築物,,明治,明治9／昭和27移築,1876／1952移築,木造2層、鉄板葺、建築面積9㎡,,26 － 0195,45,2005.02.28(平成17.02.28),2005.02.09(平成17.02.09),,20050209,,国土の歴史的景観に寄与しているもの,,京都府,京都府京都市東山区大和大路通三条下る東側大黒町169,,京都市,,,35.00788000000000,135.77360000000000,木造２階建の有済小学校講堂の大棟中央に付設されていた。ＲＣ造校舎新築に伴い，屋上に保存された。木造で，内部は２層構成になる。宝形造の望楼部を高く立て，庇を付けた下部を袴腰風の縦板張で覆う簡素なつくりであるが，地域の人々に広く親しまれている。,https://bunka.nii.ac.jp/heritage/43967/_105585/43967_105585111225015353063_300.jpg
101,00004596,京都市学校歴史博物館（旧京都市立開智小学校）正門,きょうとしがっこうれきしはくぶつかん（きゅうきょうとしりつかいちしょうがっこう）せいもん,1棟,,登録有形文化財(建造物),学校,その他工作,,明治,明治34／大正7移築,1901／1918移築,木造、瓦葺、間口3.5m、両側袖塀付,,26 － 0196,45,2005.02.28(平成17.02.28),2005.02.09(平成17.02.09),,20050209,,国土の歴史的景観に寄与しているもの,,京都府,京都府京都市下京区御幸町通仏光寺下る橘町437,,京都市,,,35.00076000000000,135.76620000000000,御幸町通に東面して建つ。間口３．５ｍの背面に控柱を立てた高麗門形式で，屋根は切妻造，本瓦葺になる。南北に袖塀をつけ，南には潜戸を設ける。親柱は高く延ばして棟木を支え，桁は前後とも腕木で受ける。明治期における学校建築の形式の一端を伝えている。,https://bunka.nii.ac.jp/heritage/43967/_105586/43967_105586111225015354638_300.jpg
101,00004597,京都市学校歴史博物館（旧京都市立開智小学校）石塀,きょうとしがっこうれきしはくぶつかん（きゅうきょうとしりつかいちしょうがっこう）いしべい,1基,,登録有形文化財(建造物),学校,その他工作,,大正,大正7,1918,石造、延長56m,,26 － 0197,45,2005.02.28(平成17.02.28),2005.02.09(平成17.02.09),,20050209,,国土の歴史的景観に寄与しているもの,,京都府,京都府京都市下京区御幸町通仏光寺下る橘町437,,京都市,,,35.00053000000000,135.76620000000000,大正期の敷地拡張時に建設された。正門南北に延び，門廻りの隅は円形に築く。京都白川石を用いた重厚な間知石布積で，通り側は丁寧な瘤出仕上げとする。頂部には笠石を置き，現在は土盛に芝を張っている。往時の有様を伝えるとともに，街路景観を整えている。,https://bunka.nii.ac.jp/heritage/43967/_105587/43967_105587111225015356261_300.jpg
101,00004681,重森三玲邸書院・茶室,しげもりみれいていしょいん・ちゃしつ,1棟,,登録有形文化財(建造物),住宅,建築物,,江戸,江戸末期／昭和28増築,1830-1867／1953増築,木造平屋建、瓦葺、建築面積105㎡,,26 － 0192,45,2005.02.28(平成17.02.28),2005.02.09(平成17.02.09),,20050209,,造形の規範となっているもの,,京都府,京都府京都市左京区吉田上大路町34-23,,,,,35.02414000000000,135.78220000000000,平屋建で南の１５畳の書院，北の６畳の裏書院及び茶室からなる。書院は北に床・棚・書院を構え，床の前方１間筋に無目を入れて小壁をつくり，南を棹縁天井，北を格天井とした独特の構成。「撫字庵」と号する増築部の茶室は，作庭家重森三玲の代表作のひとつ。,https://bunka.nii.ac.jp/heritage/43967/_105671/43967_105671111225015616534_300.jpg
101,00004801,綾部大橋,あやべおおはし,1基,,登録有形文化財(建造物),交通,土木構造物,,昭和前,昭和4,1929,鋼製7連トラス橋、橋長210m、幅員5.2m,,26 － 0198,46,2005.08.02(平成17.08.02),2005.07.12(平成17.07.12),,20050712,,国土の歴史的景観に寄与しているもの,,京都府,京都府綾部市並松町～味方町,,京都府,,,35.29599000000000,135.26470000000000,市街地東方を流れる由良川に架かる道路橋。橋長２１０ｍ，径間長２９ｍ，幅員５．２ｍとした，ライズを抑えたポニー形式の鋼製７連曲弦ワーレントラス橋で，床版はＲＣ造とする。木造でつくられた旧橋の形式が踏襲される。製作は松尾鉄骨橋梁株式会社。,https://bunka.nii.ac.jp/heritage/43967/_105791/43967_105791111225015916753_300.jpg
101,00004990,衣笠会館,きぬがさかいかん,1棟,,登録有形文化財(建造物),住宅,建築物,,明治,明治38頃,1905頃,煉瓦造2階建、瓦葺、建築面積138㎡,,26 － 0199,47,2005.12.05(平成17.12.05),2005.11.10(平成17.11.10),,20051110,,造形の規範となっているもの,,京都府,京都府京都市北区北野下白梅町29,,財団法人衣笠会,,,35.02637000000000,135.73070000000000,北区南部，西大路通から西側に入った敷地に建つ。桁行１３ｍ，梁間９．３ｍの煉瓦造２階建で，イギリス積とする。胴蛇腹とデンティル付軒蛇腹を四周にあしらい，縦長窓上部の欠円アーチ形を建具等にも用いるなど，統一性のあるデザインとする。,https://bunka.nii.ac.jp/heritage/43967/_105980/43967_105980111225020322245_300.jpg
101,00004991,同志社アーモスト館,どうししゃあーもすとかん,1棟,,登録有形文化財(建造物),学校,建築物,,昭和前,昭和7,1932,鉄筋コンクリート造地上3階地下1階建、スレート葺、建築面積343㎡,,26 － 0200,47,2005.12.05(平成17.12.05),2005.11.10(平成17.11.10),,20051110,,造形の規範となっているもの,,京都府,京都府京都市上京区今出川通烏丸東入相国寺門前町632,,学校法人同志社,,,35.03010000000000,135.76250000000000,構内ほぼ中央で西面して建つ。桁行２２ｍ，梁間１２ｍのＲＣ造３階建，平入で，南面にサンルームを張出し，大型の腰折れ屋根には煙突や屋根窓を左右対称に配す。外装煉瓦張で，隅部では竜山石を算木積状に張るなど，材料を丁寧に使い分け華やかさを演出する。,https://bunka.nii.ac.jp/heritage/43967/_105981/43967_105981111225020324578_300.jpg
101,00004992,レストラン・ノアノア（旧橋本関雪邸洋館）,れすとらん・のあのあ（きゅうはしもとかんせつていようかん）,1棟,,登録有形文化財(建造物),住宅,建築物,,昭和前,昭和4頃,1929頃,鉄筋コンクリート造2階建、瓦葺、建築面積63㎡,,26 － 0201,47,2005.12.05(平成17.12.05),2005.11.10(平成17.11.10),,20051110,,造形の規範となっているもの,,京都府,京都府京都市左京区浄土寺石橋町35-1,,,,,35.02718000000000,135.79310000000000,吉田山東方を南北に流れる白川沿いの敷地に北面して建つ。ＲＣ造２階建で，外装モルタル塗とする。スパニッシュ様式を基調としつつも，玄関の庇に垂木形をつくり出すなど和風を加味し，昭和初期の洋風住宅デザインの一つの潮流を今に伝える。,https://bunka.nii.ac.jp/heritage/43967/_105982/43967_105982111225020326105_300.jpg
101,00004993,上西家住宅主屋,,1棟,,登録有形文化財(建造物),住宅,建築物,,昭和前,昭和9,1934,木造2階建、瓦葺、建築面積164㎡、パーゴラ付,,26 － 0202,47,2005.12.05(平成17.12.05),2005.11.10(平成17.11.10),,20051110,,造形の規範となっているもの,,京都府,京都府京都市左京区浄土寺西田町23-1,,,,,35.02681000000000,135.78990000000000,吉田山東方の神楽岡通沿いの角地に建つ。東西棟の北側に切妻を張出し，東端部に和室を付ける。内部は中廊下式。腰には褐色タイルを波状に張り，菱形桟の窓，く字形に張出す出窓等，多様な窓形式を用いるなど，装飾に意を凝らしたスパニッシュ様式の住宅。,https://bunka.nii.ac.jp/heritage/43967/_105983/43967_105983652058442256610_300.jpg
101,00004994,革島医院,かわしまいいん,1棟,,登録有形文化財(建造物),文化福祉,建築物,,昭和前,昭和11,1936,木造3階建、瓦葺、建築面積376㎡,,26 － 0203,47,2005.12.05(平成17.12.05),2005.11.10(平成17.11.10),,20051110,,造形の規範となっているもの,,京都府,京都府京都市中京区麩屋町通六角下る坂井町468-1,,,,,35.00656000000000,135.76580000000000,市役所の南西，麩屋町通に西面して建つ住宅兼病院。ロ字形平面を基本とした木造３階建でフランス瓦を使用。北西端に円錐形屋根を架したタイル張の円筒形塔屋，正面南寄りには格子窓を垂直方向に連ね妻をハーフティンバーとした階段室を張出すなど独特の外観。,https://bunka.nii.ac.jp/heritage/43967/_105984/43967_105984111225020329285_300.jpg
101,00004995,十四春主屋,としはるしゅおく,1棟,,登録有形文化財(建造物),住宅,建築物,,明治,明治42頃,1909頃,木造2階建、瓦葺、建築面積107㎡、塀延長12m付,,26 － 0204,47,2005.12.05(平成17.12.05),2005.11.10(平成17.11.10),,20051110,,造形の規範となっているもの,,京都府,京都府京都市下京区諏訪町通松原下る弁財天町326,,,,,34.99842000000000,135.75860000000000,烏丸五条の交差点の北西，諏訪町通に東面する。通り側に間口１０ｍの高塀を配し，やや奥に主屋を構える。内部は随所に銘木をあしらい，趣の異なる複数の座敷を北半に配す。高塀は，腰竪板張，上部真壁で出格子窓を付す端正なつくり。,https://bunka.nii.ac.jp/heritage/43967/_105985/43967_105985563586638885238_300.jpg
101,00004996,十四春土蔵,としはるどぞう,1棟,,登録有形文化財(建造物),住宅,建築物,,明治,明治42頃,1909頃,土蔵造2階建、瓦葺、建築面積20㎡,,26 － 0205,47,2005.12.05(平成17.12.05),2005.11.10(平成17.11.10),,20051110,,国土の歴史的景観に寄与しているもの,,京都府,京都府京都市下京区諏訪町通松原下る弁財天町326,,,,,34.99846000000000,135.75850000000000,東西に細長い敷地の北西角に建つ。切妻造，平入，本瓦葺の土蔵造２階建で，一階庇で深い軒をつくり，軒裏には鉢巻を廻らす。開口部廻りを掛子塗とし，戸口は上部に黒漆喰を塗り込み，門構風に見せる。裏庭に面し，屋敷構を整える。,https://bunka.nii.ac.jp/heritage/43967/_105986/43967_105986007465029918431_300.jpg
101,00005283,喜多家住宅主屋,きたけじゅうたくしゅおく,1棟,,登録有形文化財(建造物),住宅,建築物,,大正,大正15,1926,木造2階一部平屋建、瓦葺、建築面積75㎡,,26 － 0207,49,2006.03.23(平成18.03.23),2006.03.02(平成18.03.02),,20060302,,造形の規範となっているもの,,京都府,京都府京都市左京区北白川伊織町54,,,,,35.03526000000000,135.78880000000000,京都で最初期に形成された郊外住宅地，北白川疏水通の東側に位置する藤井厚二の設計になる住宅。木造２階建，真壁造で，桟瓦葺の屋根を巧みに架け，和風の端正な外観に変化をもたせる。平面構成は合理性に富み，内部は和洋折衷の手法で纏められている。,https://bunka.nii.ac.jp/heritage/43967/_106271/43967_106271779504989742567_300.jpg
101,00005284,文椿ビルヂング（旧西村貿易店社屋）,ふみつばきびるぢんぐ（きゅうにしむらぼうえきてんしゃおく）,1棟,,登録有形文化財(建造物),産業3次,建築物,,大正,大正9,1920,木造2階建、銅板葺及びスレート葺、建築面積185㎡、地下室付,,26 － 0208,49,2006.03.23(平成18.03.23),2006.03.02(平成18.03.02),,20060302,,国土の歴史的景観に寄与しているもの,,京都府,京都府京都市中京区三条通烏丸西入御倉町79,,アークレイ株式会社,,,35.00870000000000,135.75890000000000,木造２階建の事務所建築で，小屋組をキングポストトラスとし，銅板及びスレート葺のマンサード屋根を架ける。外壁はタイル張で，南面中央の入口部は８角断面を半割した片蓋柱で飾る。三条通と両替町通が交差する角地にあり，地域の近代的景観を形成している。,https://bunka.nii.ac.jp/heritage/43967/_106272/43967_106272111225021029276_300.jpg
101,00005285,竹田火の見やぐら,たけだひのみやぐら,1基,,登録有形文化財(建造物),生活関連,その他工作,,大正,大正12／平成17曳家,1923／2005曳家,鉄骨造、鉄板葺、高さ12m,,26 － 0209,49,2006.03.23(平成18.03.23),2006.03.02(平成18.03.02),,20060302,,再現することが容易でないもの,,京都府,京都府京都市伏見区竹田狩賀町103,,京都市,,,34.94797000000000,135.75610000000000,竹田村消防組第二支部の装備品として建設。山型鋼の鉄骨造，総高１２ｍで，地上を含めて６段の台形平面を徐々に逓減させた構成とし，一辺１．２ｍの正方形平面の望楼部は宝形造の木造鉄板葺屋根を架ける。現存例が少ない鉄骨造の火の見櫓で，貴重な存在。,https://bunka.nii.ac.jp/heritage/43967/_106273/43967_106273111225021030856_300.jpg
101,00005623,小川家住宅主屋,おがわけじゅうたくしゅおく,1棟,,登録有形文化財(建造物),住宅,建築物,,大正,大正11,1922,鉄筋コンクリート造2階建、銅板葺、建築面積156㎡,,26 － 0210,51,2006.08.24(平成18.08.24),2006.08.03(平成18.08.03),,20060803,,国土の歴史的景観に寄与しているもの,,京都府,京都府京都市左京区鹿ヶ谷下宮ノ前町26,,,,,35.01810000000000,135.79440000000000,敷地の北東に位置する建築面積１５６㎡，切妻造，銅板葺のＲＣ造２階建。外壁は薄茶のドイツ壁風仕上げで，腰を擬石張とし，玄関や２階窓周り等をタイルで飾る。我が国のＲＣ造住宅の早期の事例になり，庭園と共に鹿ヶ谷界隈の歴史的景観を形成。,https://bunka.nii.ac.jp/heritage/43967/_106611/43967_106611111225021803237_300.jpg
101,00005624,旧上田恒次家住宅主屋,きゅううえだつねじけじゅうたくしゅおく,1棟,,登録有形文化財(建造物),住宅,建築物,,昭和前,昭和12／昭和17頃増築,1937／1942頃増築,木造平屋一部2階建、瓦葺、建築面積145㎡、地階付,,26 － 0211,51,2006.08.24(平成18.08.24),2006.08.03(平成18.08.03),,20060803,,国土の歴史的景観に寄与しているもの,,京都府,京都府京都市左京区岩倉木野町170,,,,,35.07222400000000,135.77772500000000,敷地北側に南面して建つ。桁行１０間半，梁間３間半で，木造一部２階建，切妻造，桟瓦葺の陶芸家の工房兼住宅。外壁は漆喰仕上で，腰を下見板張とする。木部は弁柄塗で，梁の小口を胡粉で飾り，東側増築部分のみ墨で黒く拭く。伝統的な民家意匠の外観を見せる。,https://bunka.nii.ac.jp/heritage/43967/_106612/43967_106612930857472561088_300.jpg
101,00005625,旧上田恒次家住宅登窯,きゅううえだつねじけじゅうたくのぼりがま,1基,,登録有形文化財(建造物),産業2次,その他工作物,,昭和前,昭和12,1937,煉瓦造、面積14㎡、上屋付,,26 － 0212,51,2006.08.24(平成18.08.24),2006.08.03(平成18.08.03),,20060803,,国土の歴史的景観に寄与しているもの,,京都府,京都府京都市左京区岩倉木野町170,,,,,35.07208056000000,135.77788686000000,主屋南東方に位置する。登窯は面積１４㎡，煉瓦造で，焼成室を南北に４室並べ，南端に半円形の炊口を設ける。上屋は柱６本を２列に並べて南北棟，桟瓦葺の切妻屋根をかけ，南側に下屋をおろす。主屋と共に，昭和初期の陶芸家居宅の屋敷景観を形成する。,https://bunka.nii.ac.jp/heritage/43967/_106613/43967_106613958769843693768_300.jpg
101,00005627,旧上野家住宅主屋,きゅううえのけじゅうたくしゅおく,1棟,,登録有形文化財(建造物),住宅,建築物,,江戸,天保期,1830-1843,木造平屋建、茅葺一部瓦葺、建築面積191㎡,,26 － 0214,51,2006.08.24(平成18.08.24),2006.08.03(平成18.08.03),,20060803,,国土の歴史的景観に寄与しているもの,,京都府,京都府舞鶴市西方寺285,,舞鶴市,,,35.44559000000000,135.21580000000000,敷地中央に南面して建つ。桁行９間半，梁間５間の規模で，入母屋造，茅葺の木造平屋建で，桟瓦葺の下屋を四周に廻し，東方にカミノマが突出する。外壁は漆喰仕上げで，腰を竪板張とする。棟を瓦とし，妻を懸魚で飾り，式台を設ける。江戸末期の庄屋の住宅。,https://bunka.nii.ac.jp/heritage/43967/_106615/43967_106615111225021809322_300.jpg
101,00005628,旧上野家住宅長屋,きゅううえのけじゅうたくながや,1棟,,登録有形文化財(建造物),住宅,建築物,,明治,明治10代,1877-1886,木造平屋建、瓦葺、建築面積145㎡,,26 － 0215,51,2006.08.24(平成18.08.24),2006.08.03(平成18.08.03),,20060803,,国土の歴史的景観に寄与しているもの,,京都府,京都府舞鶴市西方寺285,,舞鶴市,,,35.44553000000000,135.21560000000000,敷地西方に東面して建つ。桁行１１間半，梁間２間規模，南北に棟を置く切妻造，瓦葺の木造平屋建。南面及び西面に半間の下屋を廻し，東面に土庇をかける。外壁は漆喰仕上げで，腰を竪板張とする。北側に座敷を置く長大な平面は，特徴ある敷地景観を形成。,https://bunka.nii.ac.jp/heritage/43967/_106616/43967_106616111225021811951_300.jpg
101,00005629,旧上野家住宅馬屋,きゅううえのけじゅうたくうまや,1棟,,登録有形文化財(建造物),住宅,建築物,,江戸,江戸後期,1751-1829,土蔵造平屋建、瓦葺、建築面積30㎡,,26 － 0216,51,2006.08.24(平成18.08.24),2006.08.03(平成18.08.03),,20060803,,国土の歴史的景観に寄与しているもの,,京都府,京都府舞鶴市西方寺285,,舞鶴市,,,35.44545000000000,135.21580000000000,主屋の南西方，長屋門の南東方に建つ。桁行２間半，梁間２間の規模で，東西棟，切妻造，桟瓦葺の土蔵造平屋建とする。外壁は竪板張とし，上部を中塗り仕上げとし，両妻に小窓を開く。開口部に改造が見られるものの，屋敷正面の景観を形成している。,https://bunka.nii.ac.jp/heritage/43967/_106617/43967_106617111225021813678_300.jpg
101,00005630,旧上野家住宅東蔵,きゅううえのけじゅうたくひがしぐら,1棟,,登録有形文化財(建造物),住宅,建築物,,江戸,江戸後期,1751-1829,土蔵造2階建、瓦葺、建築面積17㎡,,26 － 0217,51,2006.08.24(平成18.08.24),2006.08.03(平成18.08.03),,20060803,,国土の歴史的景観に寄与しているもの,,京都府,京都府舞鶴市西方寺285,,舞鶴市,,,35.44568000000000,135.21580000000000,主屋背後に建つ。桁行２間，梁間２間規模，東西棟，切妻造，桟瓦葺の土蔵造２階建。平入で，南面に扉口を構え，上に窓を設ける。切石積の土台の上に建ち，外壁は中塗仕上げとし，軒廻りに鉢巻を廻す。正面に土庇をかける。中蔵と共に屋敷景観を形成する。,https://bunka.nii.ac.jp/heritage/43967/_106618/43967_106618111225021815475_300.jpg
101,00005631,旧上野家住宅中蔵,きゅううえのけじゅうたくなかぐら,1棟,,登録有形文化財(建造物),住宅,建築物,,江戸,江戸後期,1751-1829,土蔵造2階建、瓦葺、建築面積36㎡,,26 － 0218,51,2006.08.24(平成18.08.24),2006.08.03(平成18.08.03),,20060803,,国土の歴史的景観に寄与しているもの,,京都府,京都府舞鶴市西方寺285,,舞鶴市,,,35.44566000000000,135.21570000000000,東蔵の西方に並んで建つ。桁行４間半，梁間２間規模，東西棟，切妻造，桟瓦葺の土蔵造２階建。内部は２間半と２間に仕切られ，それぞれ南面に扉口を構えて，米蔵，味噌蔵として使われた。切石積の土台の上に建ち，正面に土庇をかけ，東蔵と一体的な景観を成す。,https://bunka.nii.ac.jp/heritage/43967/_106619/43967_106619111225021816362_300.jpg
101,00005632,旧上野家住宅西蔵,きゅううえのけじゅうたくにしぐら,1棟,,登録有形文化財(建造物),住宅,建築物,,昭和中,昭和20代,1945-1954,土蔵造2階建、瓦葺、建築面積18㎡,,26 － 0219,51,2006.08.24(平成18.08.24),2006.08.03(平成18.08.03),,20060803,,国土の歴史的景観に寄与しているもの,,京都府,京都府舞鶴市西方寺285,,舞鶴市,,,35.44560000000000,135.21550000000000,長屋の北西方に建つ。桁行２間半，梁間２間規模，東西棟，切妻造，桟瓦葺の土蔵造２階建。切石積基礎の上に建ち，南面に扉口を構えて石階段を設け，土庇をかける。外壁は漆喰仕上げとする。屋敷の充実に伴って造られ，屋敷の歴史的景観を形成する。,https://bunka.nii.ac.jp/heritage/43967/_106620/43967_106620111225021817259_300.jpg
101,00005633,旧上野家住宅塀,きゅううえのけじゅうたくへい,1棟,,登録有形文化財(建造物),住宅,その他工作,,江戸,江戸後期／大正期増築,1751-1829／1912-1925増築,木造、瓦葺、延長44m、門及び厠付,,26 － 0220,51,2006.08.24(平成18.08.24),2006.08.03(平成18.08.03),,20060803,,国土の歴史的景観に寄与しているもの,,京都府,京都府舞鶴市西方寺285,,舞鶴市,,,35.44556000000000,135.21610000000000,正面入口から屋敷の南側を廻り，庭園を囲むように北に折れて上野神社に至る。南側中程に厠が付き，そこから庭園西側を限る塀が伸び，庭門を設ける。延長４４ｍ，切妻造，桟瓦葺，木造で，道路側壁面は腰を竪羽目板及びひしゃぎ竹張り，その上部を漆喰塗とする。,https://bunka.nii.ac.jp/heritage/43967/_106621/43967_106621111225021818164_300.jpg
101,00005634,旧上野家住宅神社,きゅううえのけじゅうたくじんじゃ,1棟,,登録有形文化財(建造物),住宅,建築物,,江戸,江戸後期,1751-1829,木造平屋建、こけら葺、建築面積1.3㎡、覆屋付,,26 － 0221,51,2006.08.24(平成18.08.24),2006.08.03(平成18.08.03),,20060803,,国土の歴史的景観に寄与しているもの,,京都府,京都府舞鶴市西方寺285,,舞鶴市,,,35.44566000000000,135.21600000000000,主屋北東方に東面して建つ。こけら葺の一間社流造の小振りな社殿で，屋敷神を祀る。覆屋付きで，向拝の虹梁絵様，龍の彫刻，木鼻の唐獅子や貘等，入念な仕上げとする。正面の扉を透かすなど，舞鶴地方の特色を見せる。地域の祭事にも使われた。,https://bunka.nii.ac.jp/heritage/43967/_106622/43967_106622111225021820638_300.jpg
101,00005635,ザイラー家住宅主屋,ざいらーけじゅうたくしゅおく,1棟,,登録有形文化財(建造物),住宅,建築物,,大正,大正5,1916,木造平屋建、茅葺、建築面積106㎡,,26 － 0222,51,2006.08.24(平成18.08.24),2006.08.03(平成18.08.03),,20060803,,国土の歴史的景観に寄与しているもの,,京都府,京都府南丹市日吉町上胡麻南2,,,,,35.18762000000000,135.46970000000000,敷地北方に西面して建つ。建築面積１０６㎡，南北棟，入母屋造，茅葺，木造平屋建で，東面，西面，南面にそれぞれ瓦葺で下屋をかける。棟に鞍木を置く。外壁は漆喰仕上げとし，腰まで竪板張とする。伝統的な農村景観を形成している。,https://bunka.nii.ac.jp/heritage/43967/_106623/43967_106623369960221529012_300.jpg
101,00005636,ザイラー家住宅音楽堂,ざいらーけじゅうたくおんがくどう,1棟,,登録有形文化財(建造物),住宅,建築物,,江戸,天明4／平成元移築,1784／1989移築,木造平屋建、茅葺、建築面積192㎡,,26 － 0223,51,2006.08.24(平成18.08.24),2006.08.03(平成18.08.03),,20060803,,造形の規範となっているもの,,京都府,京都府南丹市日吉町上胡麻南2,,,,,35.18740000000000,135.46970000000000,主屋の南方，一段高い敷地に北面して建つ。建築面積１９２㎡，南北棟，入母屋造，茅葺，木造平屋建で，玄関及び東面に瓦葺の庇をかける。天明年間の寺院本堂兼庫裏の建物を前身とし，移築後もその規模，形状，柱位置等を踏襲し，特徴を良くとどめており，貴重。,https://bunka.nii.ac.jp/heritage/43967/_106624/43967_106624879765898941842_300.jpg
101,00005995,竹澤家住宅主屋,たけざわけじゅうたくしゅおく,1棟,,登録有形文化財(建造物),住宅,建築物,,江戸,江戸末期,1830-1867,木造平屋建、茅葺、建築面積127㎡,,26 － 0224,53,,2006.11.29(平成18.11.29),,20061129,,国土の歴史的景観に寄与しているもの,,京都府,京都府南丹市美山町島英サ26,,,,,35.26612000000000,135.54910000000000,敷地の中央に東面して建つ。桁行６間，梁間５間規模，木造平屋建，平入，入母屋造の茅葺で，正面と両側面に鉄板葺の下屋を設ける。平面は土間に厩を設け，床上部は食違い四間取で，台所，座敷２室及び寝間とする。棟を鞍掛の形状とし，地域の特徴ある景観を形成。,https://bunka.nii.ac.jp/heritage/43967/_106980/43967_106980111225022823971_300.jpg
101,00005997,西尾家住宅主屋,にしおけじゅうたくしゅおく,1棟,,登録有形文化財(建造物),住宅,建築物,,江戸,江戸末期,1830-1867,木造平屋建、茅葺、建築面積161㎡,,26 － 0225,53,,2006.11.29(平成18.11.29),,20061129,,国土の歴史的景観に寄与しているもの,,京都府,京都府南丹市美山町島英サ29,,,,,35.26654000000000,135.54970000000000,敷地の北東方に東面して建つ。桁行７間，梁間６間規模，木造平屋建，平入，入母屋造の茅葺で，四方に瓦葺の下屋を廻す。平面は土間に厩を設け，床上部を台所，座敷３室及び寝間２室とする。棟を鞍掛の形状とし，地域の特徴ある景観を形成している。,https://bunka.nii.ac.jp/heritage/43967/_106982/43967_106982111225022827518_300.jpg
