台帳ID,管理対象ID,名称,ふりがな,員数,棟名,文化財種類,種別1,種別2,国,時代,年代,西暦,構造及び形式等,その他参考となるべき事項,登録番号,登録回,登録告示年月日,登録年月日,追加年月日,重文指定年月日,国宝指定年月日,登録基準1,登録基準2,都道府県,所在地,保管施設の名称,所有者名,所有者種別,管理団体又は責任者,緯度,経度,解説文,画像URL
101,00000230,村岡総本舗羊羹資料館,むらおかそうほんぽようかんしりょうかん,1棟,,登録有形文化財(建造物),産業2次,建築物,,昭和前,昭和16,1941,木造2階建，建築面積72㎡,,41 － 0002,3,1997.06.24(平成9.06.24),1997.06.12(平成9.06.12),,19970612,,国土の歴史的景観に寄与しているもの,,佐賀県,佐賀県小城市小城町861,,,,,33.30135000000000,130.20420000000000,砂糖貯蔵庫として建てられ、昭和59年の改装によって資料館となった。躯体は木造で、寄棟の屋根、和小屋の小屋組とも完全な和風建築であるが、ファサードは煉瓦とタイルによる洋風の意匠となっており、その特徴的な外観で広く親しまれている。,https://bunka.nii.ac.jp/heritage/43967/_101220/43967_101220111225010514249_300.jpg
101,00000368,徴古館,ちょうこかん,1棟,,登録有形文化財(建造物),文化福祉,建築物,,昭和前,昭和2,1927,鉄筋コンクリート造2階建，建築面積206㎡,,41 － 0003,6,1997.12.03(平成9.12.03),1997.11.05(平成9.11.05),,19971105,,造形の規範となっているもの,,佐賀県,佐賀県佐賀市松原2-59,,公益財団法人鍋島報效会,,,33.25154000000000,130.30130000000000,鍋島家所蔵資料を展示するための博物館施設として建てられた。正面ファサードは，ペアコラムを持つ半円形の車寄せと，２階の列柱からなり，背面は簡素な意匠である。県内のＲＣ造としては早い時期のものであり，また本格的な洋風意匠を持つ点にも特徴がある。,https://bunka.nii.ac.jp/heritage/43967/_101358/43967_101358111225010639136_300.jpg
101,00000608,竹屋,たけや,1棟,,登録有形文化財(建造物),産業3次,建築物,,大正,大正12,1923,木造３階建，瓦葺，建築面積100㎡,,41 － 0004,10,1998.08.04(平成10.08.04),1998.07.23(平成10.07.23),,19980723,,再現することが容易でないもの,,佐賀県,佐賀県唐津市中町1884-2,,,,,33.44856000000000,129.97030000000000,唐津市の繁華街にある老舗の料理店竹屋の木造３階建の店舗。１階は調理場と家族の住居部であるが，２階は６畳代の客室が３室，３階は１０畳代の客室が２室が配される。いずれも吟味された材料を用い，階段廻りや客室の欄間，床棚など凝った造作になる。,https://bunka.nii.ac.jp/heritage/43967/_101598/43967_101598111225010914078_300.jpg
101,00000713,杉光陶器店主屋,すぎみつとうきてんしゅおく,1棟,,登録有形文化財(建造物),産業3次,建築物,,江戸,江戸時代末期,1830-1867,木造３階建，瓦葺，建築面積258㎡,,41 － 0005,11,1998.09.25(平成10.09.25),1998.09.02(平成10.09.02),,19980902,,再現することが容易でないもの,,佐賀県,佐賀県嬉野市塩田町大字馬場下甲728,,,,,33.12985000000000,130.05960000000000,塩田川の舟運を用いた物資の集散地として栄えた長崎街道沿の町並みの一画に建つ入母屋造，妻入の土蔵造の大型町家で，正面左手に通り土間，右手に２列の居室を配する構成になる。近年の改装で内部店廻りは一変したが，奥向きの部屋は旧態を良く残している。,https://bunka.nii.ac.jp/heritage/43967/_101703/43967_101703746716451427037_300.jpg
101,00000714,杉光陶器店一の蔵,すぎみつとうきてんいちのくら,1棟,,登録有形文化財(建造物),産業3次,建築物,,江戸,江戸時代末期,1830-1867,木造平屋建，瓦葺，建築面積89㎡,,41 － 0006,11,1998.09.25(平成10.09.25),1998.09.02(平成10.09.02),,19980902,,国土の歴史的景観に寄与しているもの,,佐賀県,佐賀県嬉野市塩田町大字馬場下甲728,,,,,33.12969000000000,130.05990000000000,主屋の後方に位置し，南側の路地に沿って建つ切妻造，２階建の土蔵で，切石積の土台上に建ち外壁に縦板を貼る。かつて敷地の背後は塩田川に直接面し，舟運が盛んであった頃は河川から物資の出入が行われたと伝えるが，往時の様相を知る上でも貴重である。,https://bunka.nii.ac.jp/heritage/43967/_101704/43967_101704410888199091917_300.jpg
101,00000715,杉光陶器店二の蔵,すぎみつとうきてんにのくら,1棟,,登録有形文化財(建造物),産業3次,建築物,,江戸,江戸時代末期,1830-1867,木造平屋建，瓦葺，建築面積56㎡,,41 － 0007,11,1998.09.25(平成10.09.25),1998.09.02(平成10.09.02),,19980902,,国土の歴史的景観に寄与しているもの,,佐賀県,佐賀県嬉野市塩田町大字馬場下甲727,,,,,33.12992000000000,130.05970000000000,敷地の東北部に位置し，銀行店舗として使用された三の蔵の背後に棟をそろえて建つ。切妻造，桟瓦葺，２階建の平入土蔵で，出入口に庇が付く。側面及び背面の外壁を縦板貼りとする簡素な造りになる。塩蔵ともよばれ，商家の構えを知る上で貴重な土蔵である。,https://bunka.nii.ac.jp/heritage/43967/_101705/43967_101705307485205104396_300.jpg
101,00000716,杉光陶器店三の蔵,すぎみつとうきてんさんのくら,1棟,,登録有形文化財(建造物),産業3次,建築物,,江戸,江戸時代末期,1830-1867,木造平屋建，瓦葺，建築面積69㎡,,41 － 0008,11,1998.09.25(平成10.09.25),1998.09.02(平成10.09.02),,19980902,,国土の歴史的景観に寄与しているもの,,佐賀県,佐賀県嬉野市塩田町大字馬場下甲727,,,,,33.12981000000000,130.05990000000000,主屋の北側に引き込んで建つ切妻造，妻入，２階建の土蔵で，明治末年から一時地元有志の出資により設立された塩田銀行の店舗として使われた。出入口の構えや正面の煉瓦壁は，その時の改造と考えられ，白漆喰塗の町家が連なるなかで特異な外観を呈している。,https://bunka.nii.ac.jp/heritage/43967/_101706/43967_101706633372992513953_300.jpg
101,00001020,日本福音ルーテル小城教会,にほんふくいんるーてるおぎきょうかい,1棟,,登録有形文化財(建造物),宗教,建築物,,昭和前,昭和13,1938,木造平屋一部２階建，スレート葺，建築面積247㎡,,41 － 0010,15,1998.12.25(平成10.12.25),1998.12.11(平成10.12.11),,19981211,,国土の歴史的景観に寄与しているもの,,佐賀県,佐賀県小城市小城町170-8,,日本福音ルーテル教会,,,33.29190000000000,130.19870000000000,切妻屋根の小さな木造教会堂で，東面にホール及び牧師館が雁行型状に接続し一体的に構成される。切妻造の教会堂は，背面の妻壁に聖壇部が円形状に張出す独特の外観をしており，親しまれている。設計はヴォーリズ建築事務所で，施工は辻組である。,https://bunka.nii.ac.jp/heritage/43967/_102010/43967_102010111225011412428_300.jpg
101,00001209,多久市西渓公園寒鶯亭,たくしせいけいこうえんかんおうてい,1棟,,登録有形文化財(建造物),文化福祉,建築物,,大正,大正13,1924,木造平屋建，瓦葺，建築面積293㎡,,41 － 0011,18,1999.07.21(平成11.07.21),1999.07.08(平成11.07.08),,19990708,,造形の規範となっているもの,,佐賀県,佐賀県多久市多久町1975,,多久市,,,33.25762000000000,130.08900000000000,地元出身の炭鉱主高取伊好が寄贈した公会堂建築。棟札から、設計は杵島炭鉱技師の大坪彌平、棟梁は舩津虎五郎であることが判明している。１６畳３室の四周に縁を回し、入母屋の大屋根を架け、北面の中央に車寄を設ける。木造和風公会堂建築の好例である。,https://bunka.nii.ac.jp/heritage/43967/_102199/43967_102199111225011603555_300.jpg
101,00001309,如蘭塾塾舎及び寄宿舎,じょらんじゅくじゅくしゃおよびきしゅくしゃ,1棟,,登録有形文化財(建造物),学校,建築物,,昭和前,昭和18頃,1943頃,木造平屋建一部２階建，瓦葺，建築面積489㎡,,41 － 0012,19,1999.09.07(平成11.09.07),1999.08.23(平成11.08.23),,19990823,,造形の規範となっているもの,,佐賀県,佐賀県武雄市武雄町大字武雄4322,,財団法人清香奨学会,,,33.18456000000000,130.02330000000000,中国子女の留学施設として実業家野中忠太が開設した如蘭塾の主要施設で、玄関及び教室等からなる東西棟の塾舎に、南北棟の寄宿舎棟がＬ型に取り付く。設計は当時満州で活躍していた遠藤新といわれ、凝灰岩を用いた玄関の親柱はライト風の独特の構えになる。,https://bunka.nii.ac.jp/heritage/43967/_102299/43967_102299111225011701717_300.jpg
101,00001310,如蘭塾迎賓館,じょらんじゅくげいひんかん,1棟,,登録有形文化財(建造物),文化福祉,建築物,,昭和前,昭和18頃,1943頃,木造平屋建，平屋建，建築面積274㎡,,41 － 0013,19,1999.09.07(平成11.09.07),1999.08.23(平成11.08.23),,19990823,,造形の規範となっているもの,,佐賀県,佐賀県武雄市武雄町大字武雄4322,,財団法人清香奨学会,,,33.18472000000000,130.02270000000000,塾舎及び寄宿舎棟の西側にあって、北面して建つ上質の建物。平面は、洋間及び広縁付きの大広間及び座敷等からなる棟を中心に、北側に玄関ホール・和室・厨房等を配した構成になる。設計は遠藤新と伝え、迎賓館としての品格を備えた建物である。,https://bunka.nii.ac.jp/heritage/43967/_102300/43967_102300111225011702237_300.jpg
101,00001538,野中烏犀圓,のなかうさいえん,1棟,,登録有形文化財(建造物),産業3次,建築物,,江戸,寛政8／昭和3増築,1796／1928増築,木造2階建、瓦葺、建築面積363㎡,,41 － 0014,22,2000.03.02(平成12.03.02),2000.02.15(平成12.02.15),,20000215,,国土の歴史的景観に寄与しているもの,,佐賀県,佐賀県佐賀市材木1-82,,,,,33.25341000000000,130.30970000000000,野中烏犀圓は寛永３年創業と伝わる老舗薬問屋。冷善楼と呼ばれる座敷と店以外は増築部分。広く街路に面する漆喰壁，正面中央の大破風，看板を吊す屋形が江戸期の商家の風情を伝え，長崎街道周辺の歴史的景観形成に寄与している。,https://bunka.nii.ac.jp/heritage/43967/_102528/43967_102528111225011921196_300.jpg
101,00001757,陶山神社鳥居,すえやまじんじゃとりい,1基,,登録有形文化財(建造物),宗教,その他工作,,明治,明治21,1888,磁器製、高さ3.7m,,41 － 0015,24,2000.05.25(平成12.05.25),2000.04.28(平成12.04.28),,20000428,,再現することが容易でないもの,,佐賀県,佐賀県西松浦郡有田町大樽2-1464,,宗教法人陶山神社,,,33.18894000000000,129.89900000000000,有田焼が始まる江戸前期に開かれ、有田の象徴的存在として知られる陶山神社の鳥居。明神鳥居の形式で、高さ３．７ｍ、笠木の長さ３．９ｍの規模を持つ。青色顔料の呉須で唐草文が描かれ、有田焼による大規模磁器製作の技術が遺憾なく発揮されている。,https://bunka.nii.ac.jp/heritage/43967/_102747/43967_102747111225012145632_300.jpg
101,00001778,牛津赤れんが館（旧田中丸商店れんが造り倉庫）,うしづあかれんがかん（きゅうたなかまるしょうてんれんがづくりそうこ）,1棟,,登録有形文化財(建造物),産業3次,建築物,,明治,明治中期,1868-1911,煉瓦造2階建、瓦葺、建築面積170㎡,,41 － 0016,25,2000.10.11(平成12.10.11),2000.09.26(平成12.09.26),,20000926,,国土の歴史的景観に寄与しているもの,,佐賀県,佐賀県小城市牛津町牛津586-1,,小城市,,,33.24764000000000,130.20420000000000,長崎街道の宿場町牛津の代表的商家で玉屋デパートの前身田中丸商店の煉瓦造２階建倉庫。軒下に周されたデンティル，石材と煉瓦を混用した妻面の空気孔，軽く湾曲した屋根形状などに見所をもつ。かつて商業で繁えた牛津の象徴的建築物として親しまれている。,https://bunka.nii.ac.jp/heritage/43967/_102768/43967_102768111225012202348_300.jpg
101,00002186,深川家住宅主屋,ふかがわけじゅうたくしゅおく,1棟,,登録有形文化財(建造物),住宅,建築物,,江戸,江戸末期,1830-1867,木造2階建、瓦葺、建築面積167㎡,,41 － 0017,28,2001.05.15(平成13.05.15),2001.04.24(平成13.04.24),,20010424,,国土の歴史的景観に寄与しているもの,,佐賀県,佐賀県小城市小城町877-2,,,,,33.30042000000000,130.20430000000000,旧小城城下と鎮守である祇園神社を結ぶ街道沿いにほぼ西面して建つ。間口６間規模，正面を入母屋造，背面を切妻造とした妻入の町家で，北側をカミテとして帳場，仏間，座敷を配する。改造はみられるものの，造り酒屋の店舗の様相を今に伝えていることで貴重。,https://bunka.nii.ac.jp/heritage/43967/_103176/43967_103176111225012632848_300.jpg
101,00002187,深川家住宅土蔵,ふかがわけじゅうたくどぞう,1棟,,登録有形文化財(建造物),住宅,建築物,,明治,明治初期,1868-1911,土蔵造2階建、瓦葺、建築面積66㎡,,41 － 0018,28,2001.05.15(平成13.05.15),2001.04.24(平成13.04.24),,20010424,,国土の歴史的景観に寄与しているもの,,佐賀県,佐賀県小城市小城町877-2,,,,,33.30037000000000,130.20440000000000,主屋の東方に位置する東西棟，切妻造，桟瓦葺の２階建土蔵。桁行５間，梁行２間半規模で，住居に供したため改造は受けているが，もと平屋建で，内部を大きく２室に分け，西面と南面に戸前を設ける。造り酒屋施設の欠くことのできない構成要素のひとつ。,https://bunka.nii.ac.jp/heritage/43967/_103177/43967_103177111225012633353_300.jpg
101,00002315,前田家住宅主屋,まえだけじゅうたくしゅおく,1棟,,登録有形文化財(建造物),住宅,建築物,,江戸,江戸後期,1751-1829,木造平屋建、茅葺、建築面積291㎡,,41 － 0019,29,2001.09.14(平成13.09.14),2001.08.28(平成13.08.28),,20010828,,造形の規範となっているもの,,佐賀県,佐賀県伊万里市立花町字ロノ町4028,,,,,33.27355759000000,129.88216883000000,伊万里郷の大庄屋を務めた家の屋敷で，主屋は南北に長い敷地のほぼ中央に建つ。広い土間をもつ主体部の東に座敷部を接続した複雑な平面になり，主体部の茅葺屋根は鉤形に棟を配る。佐賀県の民家を特徴づける「くど造」の最も発達した姿を伝える遺構である。,https://bunka.nii.ac.jp/heritage/43967/_103305/43967_103305705117558570878_300.jpg
101,00002316,前田家住宅東の蔵,まえだけじゅうたくひがしのくら,1棟,,登録有形文化財(建造物),住宅,建築物,,江戸,江戸後期,1751-1829,土蔵造平屋建、瓦葺、建築面積51㎡,,41 － 0020,29,2001.09.14(平成13.09.14),2001.08.28(平成13.08.28),,20010828,,再現することが容易でないもの,,佐賀県,佐賀県伊万里市立花町字ロノ町4028,,,,,33.27357738000000,129.88233596000000,主屋座敷部東端の上段の間の北に続いて建つ土蔵。２階建，切妻造，瓦葺で，南側の上段の間に続く位置とともに，東面にも２ヶ所の戸口を開ける。座敷蔵の性格をもち，主屋を中心とした複雑で変化に富んだ建築構成の主要な要素となっている。,https://bunka.nii.ac.jp/heritage/43967/_103306/43967_103306731898758791577_300.jpg
101,00002317,前田家住宅西の蔵,まえだけじゅうたくにしのくら,1棟,,登録有形文化財(建造物),住宅,建築物,,明治,明治後期,1868-1911,土蔵造平屋建、瓦葺、建築面積139㎡,,41 － 0021,29,2001.09.14(平成13.09.14),2001.08.28(平成13.08.28),,20010828,,国土の歴史的景観に寄与しているもの,,佐賀県,佐賀県伊万里市立花町字ロノ町4028,,,,,33.27370259000000,129.88209817000000,主屋の土間の北に接続して建ち，西面を街路に面する。２階建，切妻造，瓦葺で，屋敷側の東面に下屋を付け広い蔵前をつくる。当家においては最大の土蔵で，茅葺の主屋と一体となって独特の外観を形成し，屋敷の西面を構成する重要な要素となっている。,https://bunka.nii.ac.jp/heritage/43967/_103307/43967_103307407191770338229_300.jpg
101,00002318,前田家住宅北の蔵,まえだけじゅうたくきたのくら,1棟,,登録有形文化財(建造物),住宅,建築物,,明治,明治後期,1868-1911,土蔵造平屋建、瓦葺、建築面積61㎡,,41 － 0022,29,2001.09.14(平成13.09.14),2001.08.28(平成13.08.28),,20010828,,国土の歴史的景観に寄与しているもの,,佐賀県,佐賀県伊万里市立花町字ロノ町4028,,,,,33.27386890000000,129.88227800000000,屋敷の北辺を区切る位置に建つ土蔵。２階建，切妻造，瓦葺で，南面屋敷側に下屋を付け蔵前とする。主屋裏庭の後方に物置として建設されたもので，下屋の東半にも簡易な仕切を設け，この部分も作業用具の収納場所とする。簡素だが，丁寧で堅牢な造りである。,https://bunka.nii.ac.jp/heritage/43967/_103308/43967_103308918444397169305_300.jpg
101,00002319,前田家住宅薪小屋,まえだけじゅうたくたきぎごや,1棟,,登録有形文化財(建造物),住宅,建築物,,明治,明治後期,1868-1911,木造平屋建、瓦葺、建築面積30㎡,,41 － 0023,29,2001.09.14(平成13.09.14),2001.08.28(平成13.08.28),,20010828,,国土の歴史的景観に寄与しているもの,,佐賀県,佐賀県伊万里市立花町字ロノ町4028,,,,,33.27387600000000,129.88217200000000,平屋建，切妻造，桟瓦葺の小規模な建物で，北の蔵の西に接して建つ。住居として内部は改造されているが軸部や外観は旧状を残す。敷地北辺を区切る位置にあり，薪その他を収納する施設として，北の蔵，水車小屋とともに主屋裏庭の作業空間を形成する。,https://bunka.nii.ac.jp/heritage/43967/_103309/43967_103309988005218711499_300.jpg
101,00002320,前田家住宅水車小屋,まえだけじゅうたくすいしゃごや,1棟,,登録有形文化財(建造物),住宅,建築物,,江戸,江戸後期／明治後期改造,1751-1829／1868-1911改造,木造平屋建、瓦葺、建築面積57㎡,,41 － 0024,29,2001.09.14(平成13.09.14),2001.08.28(平成13.08.28),,20010828,,再現することが容易でないもの,,佐賀県,佐賀県伊万里市立花町字ロノ町4028,,,,,33.27387445000000,129.88211100000000,西の蔵の北に接続して西側街路に面して建つ。棟を南北に通す桁行の長い建物で，南端部を２階建とし階下を裏庭に通じる２階建の門口とする。水車施設は失われ，門部分は改造されているが，軸部，外観等はよく残り，大規模民家の生活施設を知る上で貴重である。,https://bunka.nii.ac.jp/heritage/43967/_103310/43967_103310723684241848461_300.jpg
101,00002321,牛津町会館（旧田中丸家住宅）,うしづちょうかいかん（きゅうたなかまるけじゅうたく）,1棟,,登録有形文化財(建造物),住宅,建築物,,大正,大正初期,1912-1925,木造2階建、瓦葺、建築面積410㎡,,41 － 0025,29,2001.09.14(平成13.09.14),2001.08.28(平成13.08.28),,20010828,,国土の歴史的景観に寄与しているもの,,佐賀県,佐賀県小城市牛津町牛津586-1,,小城市,,,33.24738000000000,130.20420000000000,九州の財界人として著名な田中丸善蔵の本宅として建設された。中央の玄関棟を挟んで南に座敷棟，北に居室棟を配し，平面にあわせて複雑な屋根を架ける。豪壮な外観に対し，内部は繊細な木割の数寄屋風の意匠にまとめられる。近代の牛津を代表する建物。,https://bunka.nii.ac.jp/heritage/43967/_103311/43967_103311111225012757438_300.jpg
101,00002466,旧古賀銀行神埼支店,きゅうこがぎんこうかんざきしてん,1棟,,登録有形文化財(建造物),産業3次,建築物,,大正,大正3,1914,木造2階建、瓦葺、建築面積120㎡,,41 － 0026,30,2001.10.29(平成13.10.29),2001.10.12(平成13.10.12),,20011012,,造形の規範となっているもの,,佐賀県,佐賀県神埼市神埼町神埼字3-438,,神埼市,,,33.30895000000000,130.37280000000000,旧長崎街道に面して建つ。佐賀市に設立された古賀銀行の神埼支店として建設。正面中央にトスカナ式花崗石円柱に支持されたペディメントを配して玄関とし，モルタル洗出し仕上げでセセッション風の柱頭飾りなどを造り出す。大正期銀行支店建築の好例。,https://bunka.nii.ac.jp/heritage/43967/_103456/43967_103456978929713808590_300.jpg
101,00002712,小柳酒造主屋,こやなぎしゅぞうしゅおく,1棟,,登録有形文化財(建造物),産業3次,建築物,,江戸,江戸後期,1751-1829,木造2階建、瓦葺、建築面積205㎡,,41 － 0027,32,2002.03.12(平成14.03.12),2002.02.14(平成14.02.14),,20020214,,国土の歴史的景観に寄与しているもの,,佐賀県,佐賀県小城市小城町903-1,,,,,33.29870000000000,130.20280000000000,街道に東面して建つ。当地方に見られる切妻造，妻入の塗屋造町家で，主体部は桁行７間，梁間４間半とし，南面に１間半幅の下屋を設け，北に８畳座敷を角屋状に張り出す。近年の道路拡幅により正面の下屋を失っているが，小柳酒造の顔となる建物。,https://bunka.nii.ac.jp/heritage/43967/_103702/43967_103702111225013156135_300.jpg
101,00002713,小柳酒造離れ,こやなぎしゅぞうはなれ,1棟,,登録有形文化財(建造物),住宅,建築物,,大正,大正10頃,1921頃,木造平屋建、瓦葺、建築面積130㎡,,41 － 0028,32,2002.03.12(平成14.03.12),2002.02.14(平成14.02.14),,20020214,,国土の歴史的景観に寄与しているもの,,佐賀県,佐賀県小城市小城町904-1,,,,,33.29883000000000,130.20290000000000,主屋の北方に位置し，西南端が主屋角屋状部北東端に接続する。東西棟，桟瓦葺，入母屋造の平屋建で，４畳半と床の間をもつ６畳の２室から成り，南北両面に縁廊下を付ける。買足した隣地に在り，小柳酒造発展の様子を物語る建造物になる。,https://bunka.nii.ac.jp/heritage/43967/_103703/43967_103703111225013156402_300.jpg
101,00002714,小柳酒造昭和西蔵,こやなぎしゅぞうしょうわにしぐら,1棟,,登録有形文化財(建造物),産業2次,建築物,,昭和前,昭和3,1928,木造2階建、瓦葺、建築面積431㎡,,41 － 0029,32,2002.03.12(平成14.03.12),2002.02.14(平成14.02.14),,20020214,,国土の歴史的景観に寄与しているもの,,佐賀県,佐賀県小城市小城町903-1,,,,,33.29888000000000,130.20240000000000,主屋の西方，水路を隔てた醸造場敷地のほぼ中央に建つ。桁行３４ｍ，梁間１３ｍ規模の２階建大蔵で，腰を高い煉瓦積，外壁を簓子下見風とし，屋根は南北棟の桟瓦葺，寄棟造で南北の妻面を半切妻状に納める特徴的な外観を呈する。醸造場施設の中核的存在。,https://bunka.nii.ac.jp/heritage/43967/_103704/43967_103704111225013156672_300.jpg
101,00002715,小柳酒造昭和東蔵,こやなぎしゅぞうしょうわひがしぐら,1棟,,登録有形文化財(建造物),産業2次,建築物,,昭和前,昭和3,1928,木造2階建、瓦葺、建築面積112㎡,,41 － 0030,32,2002.03.12(平成14.03.12),2002.02.14(平成14.02.14),,20020214,,国土の歴史的景観に寄与しているもの,,佐賀県,佐賀県小城市小城町903-1,,,,,33.29901000000000,130.20260000000000,昭和西蔵の東に並び建つ。桁行１４ｍ，梁間８ｍ規模，南北棟，桟瓦葺，切妻造の２階建で，内部は西壁を西蔵と共有し，西・南壁に出入口を設ける。外観は，腰を煉瓦積，外壁を押縁間隔の広い下見板張として洋風に見せるなど水路沿いに特色ある景観をつくる。,https://bunka.nii.ac.jp/heritage/43967/_103705/43967_103705111225013157193_300.jpg
101,00002716,小柳酒造釜場,こやなぎしゅぞうかまば,1棟,,登録有形文化財(建造物),産業2次,建築物,,昭和前,昭和3,1928,木造平屋建、瓦葺、建築面積96㎡,,41 － 0031,32,2002.03.12(平成14.03.12),2002.02.14(平成14.02.14),,20020214,,国土の歴史的景観に寄与しているもの,,佐賀県,佐賀県小城市小城町903-1,,,,,33.29881000000000,130.20260000000000,昭和西蔵の東に接して建つ。桁行１１ｍ，梁間９ｍ規模，南北棟，桟瓦葺，切妻造の平屋建で，棟中央に換気用の越屋根を載せる。外壁は縦羽目を主とし，南妻には繊細なキングポストトラスの架構を見せて東蔵北妻面とは対照的な表情を造る。,https://bunka.nii.ac.jp/heritage/43967/_103706/43967_103706111225013158476_300.jpg
101,00002717,小柳酒造煙突,こやなぎしゅぞうえんとつ,1棟,,登録有形文化財(建造物),産業2次,その他工作,,昭和前,昭和16,1941,煉瓦造、高さ17m,,41 － 0032,32,2002.03.12(平成14.03.12),2002.02.14(平成14.02.14),,20020214,,国土の歴史的景観に寄与しているもの,,佐賀県,佐賀県小城市小城町903-1,,,,,33.29874000000000,130.20250000000000,釜場南妻面西端の前に建つ。１．８ｍ角，高さ１６．５ｍ，上にいくほどすぼまる形態のイギリス積煉瓦造煙突で，頂部はバンドを廻しモルタル塗仕上げとする。昭和西蔵の棟高をはるかに越え，周囲に造り酒屋の存在を知らしめる格好のランドマークとなっている。,https://bunka.nii.ac.jp/heritage/43967/_103707/43967_103707111225013158994_300.jpg
101,00002718,小柳酒造西貯水槽,こやなぎしゅぞうにしちょすいそう,1棟,,登録有形文化財(建造物),産業2次,その他工作,,昭和前,昭和16,1941,煉瓦造、建築面積4.8㎡,,41 － 0033,32,2002.03.12(平成14.03.12),2002.02.14(平成14.02.14),,20020214,,国土の歴史的景観に寄与しているもの,,佐賀県,佐賀県小城市小城町903-1,,,,,33.29875000000000,130.20250000000000,煙突の東面及び釜場南面に接して建つ。１．７ｍ×２．８ｍの長方形平面で，高さ４．５ｍ。煉瓦造柱脚の上に水槽を築き，頂部に生子鉄板による南北棟の招き屋根を架ける。水槽部には現在２条の開き止め鉄棒を廻している。醸造施設の近代化を示す遺構のひとつ。,https://bunka.nii.ac.jp/heritage/43967/_103708/43967_103708111225013159256_300.jpg
101,00002719,小柳酒造東貯水槽,こやなぎしゅぞうひがしちょすいそう,1棟,,登録有形文化財(建造物),産業2次,その他工作,,昭和前,昭和16,1941,煉瓦造、建築面積4㎡,,41 － 0034,32,2002.03.12(平成14.03.12),2002.02.14(平成14.02.14),,20020214,,国土の歴史的景観に寄与しているもの,,佐賀県,佐賀県小城市小城町903-1,,,,,33.29876000000000,130.20260000000000,西貯水槽の東方に位置し，釜場南面に接して建つ。２．５ｍ×１．６ｍの長方形平面で，高さ４．４ｍ。６本の煉瓦造柱脚の上部をアーチで繋いで水槽の支持体とし，頂部には釜場南面から生子鉄板の片流れ屋根を架ける。煙突，西貯水槽などと同様に外構の主要素。,https://bunka.nii.ac.jp/heritage/43967/_103709/43967_103709111225013159523_300.jpg
101,00002720,小柳酒造ポンプ小屋,こやなぎしゅぞうぽんぷごや,1棟,,登録有形文化財(建造物),産業2次,建築物,,昭和前,昭和3,1928,煉瓦造、建築面積5.3㎡,,41 － 0035,32,2002.03.12(平成14.03.12),2002.02.14(平成14.02.14),,20020214,,国土の歴史的景観に寄与しているもの,,佐賀県,佐賀県小城市小城町903-1,,,,,33.29867000000000,130.20260000000000,東貯水槽の南方に位置する。平面規模は１．８ｍ×３ｍで，東・南・西の３面に厚１枚の煉瓦造壁を築き，北面は欠円アーチを間口一杯に架けて入口とする。煉瓦は鉱滓煉瓦で，屋根は陸屋根に造る。大正１５年着手の昭和蔵・釜場などの一連の改良施設のひとつ。,https://bunka.nii.ac.jp/heritage/43967/_103710/43967_103710111225013159784_300.jpg
101,00002721,小柳酒造ビン詰場,こやなぎしゅぞうびんづめじょう,1棟,,登録有形文化財(建造物),産業2次,建築物,,昭和前,昭和3,1928,木造平屋建、瓦葺、建築面積77㎡,,41 － 0036,32,2002.03.12(平成14.03.12),2002.02.14(平成14.02.14),,20020214,,国土の歴史的景観に寄与しているもの,,佐賀県,佐賀県小城市小城町903-1,,,,,33.29890000000000,130.20260000000000,昭和西蔵の東，昭和東蔵の南，釜場の北に位置する。桁行１０ｍ，梁間９ｍ規模で，南北棟，切妻造，桟瓦葺とし，小屋は二重梁，外部の西面は縦羽目張りとする。簡素なつくりであるが，造り酒屋における最終工程を物語る施設として貴重。,https://bunka.nii.ac.jp/heritage/43967/_103711/43967_103711111225013200051_300.jpg
101,00002722,小柳酒造麹室,こやなぎしゅぞうこうじしつ,1棟,,登録有形文化財(建造物),産業2次,建築物,,昭和前,昭和3,1928,木造平屋建、瓦葺、建築面積67㎡,,41 － 0037,32,2002.03.12(平成14.03.12),2002.02.14(平成14.02.14),,20020214,,国土の歴史的景観に寄与しているもの,,佐賀県,佐賀県小城市小城町903-1,,,,,33.29890000000000,130.20220000000000,敷地の西北隅部に位置する。桁行１１ｍ，梁間６．５ｍ規模で，東西棟，切妻造，桟瓦葺とする。木造，平屋建で，外観は縦羽目板張とするが，入口のある正面妻側は梁下までイギリス積の煉瓦壁とする特異な造りとなる。造り酒屋にとって欠くことのできない施設。,https://bunka.nii.ac.jp/heritage/43967/_103712/43967_103712111225013200571_300.jpg
101,00002723,小柳酒造ムロマエ,こやなぎしゅぞうむろまえ,1棟,,登録有形文化財(建造物),産業2次,建築物,,昭和前,昭和3,1928,木造平屋建、瓦葺、建築面積47㎡,,41 － 0038,32,2002.03.12(平成14.03.12),2002.02.14(平成14.02.14),,20020214,,国土の歴史的景観に寄与しているもの,,佐賀県,佐賀県小城市小城町903-1,,,,,33.29891000000000,130.20230000000000,麹室東妻面から昭和西蔵西面に向けて屋根を架け室前空間を造る。桁行７ｍ，梁間６ｍ規模の東西棟，桟瓦葺，切妻造で，南面には桟瓦葺の土庇を付けて東寄りに入口を設ける。麹室，酒母室とともに敷地西北隅部を形成して醸造施設特有の佇まいを醸しだしている。,https://bunka.nii.ac.jp/heritage/43967/_103713/43967_103713111225013202803_300.jpg
101,00002725,小柳酒造検査室,こやなぎしゅぞうけんさしつ,1棟,,登録有形文化財(建造物),産業2次,建築物,,昭和前,昭和5,1930,木造平屋建、瓦葺、建築面積20㎡,,41 － 0040,32,2002.03.12(平成14.03.12),2002.02.14(平成14.02.14),,20020214,,国土の歴史的景観に寄与しているもの,,佐賀県,佐賀県小城市小城町903-1、904-1,,,,,33.29867000000000,130.20240000000000,昭和西蔵の南方に建つ。桁行５．４ｍ，梁間３．６規模，東西棟，桟瓦葺，切妻造の木造平屋建で，東妻に入口を設ける。外観は，下見板張りとし，南，東，北の３面に引違いガラス窓を建込む。昭和初期酒税検査の様子の一端を窺い知ることのできる施設。,https://bunka.nii.ac.jp/heritage/43967/_103715/43967_103715111225013203841_300.jpg
101,00003478,天山酒造明治蔵及び大正蔵,てんざんしゅぞうめいじぐらおよびたいしょうぐら,1棟,,登録有形文化財(建造物),産業2次,建築物,,明治,明治初期／大正初期増築,1868-1911／1912-1925増築,土蔵造2階一部平屋建、瓦及びスレート葺、建築面積1716㎡,,41 － 0041,37,2003.07.17(平成15.07.17),2003.07.01(平成15.07.01),,20030701,,国土の歴史的景観に寄与しているもの,,佐賀県,佐賀県小城市小城町大字岩蔵1520,,天山酒造株式会社,,,33.31143000000000,130.19320000000000,桁行８間，梁間３間，三重梁構造の明治蔵の北及び東に大正蔵がＵ字状に増築され，全体として桁行３０間，梁行１２間の大規模酒蔵となる。腰を縦板張，上部白漆喰塗壁に水切り瓦付きの窓を２段に配置し，妻を半寄棟に納めるなど特徴ある北面をつくる。,https://bunka.nii.ac.jp/heritage/43967/_104468/43967_104468111225013951060_300.jpg
101,00003479,天山酒造昭和蔵,てんざんしゅぞうしょうわぐら,1棟,,登録有形文化財(建造物),産業2次,建築物,,昭和前,昭和初期,1926-1988,土蔵造2階建、瓦葺、建築面積1253㎡,,41 － 0042,37,2003.07.17(平成15.07.17),2003.07.01(平成15.07.01),,20030701,,国土の歴史的景観に寄与しているもの,,佐賀県,佐賀県小城市小城町大字岩蔵1520,,天山酒造株式会社,,,33.31158000000000,130.19330000000000,大正蔵の東側に平行して建つ。桁行３０間，梁間７間規模で，南妻面に桁行７間，梁間４間の麹室が取り付く。北寄り桁行１２間分は多久からの移設であるが，外観上は大正蔵と同様に両妻を半寄棟形とし，腰縦板張，２段窓の長大な桁行面を東側道路沿いに見せる。,https://bunka.nii.ac.jp/heritage/43967/_104469/43967_104469111225013952308_300.jpg
101,00003480,天山酒造旧精米所立型水車及び水路,てんざんしゅぞうきゅうせいまいしょたてがたすいしゃおよびすいろ,1所,,登録有形文化財(建造物),産業2次,その他工作,,昭和前,昭和初期,1926-1988,コンクリート造水路延長57m、水車よりなる,,41 － 0043,37,2003.07.17(平成15.07.17),2003.07.01(平成15.07.01),,20030701,,再現することが容易でないもの,,佐賀県,佐賀県小城市小城町大字岩蔵1520,,天山酒造株式会社,,,33.31197000000000,130.19260000000000,敷地北端に位置する旧精米所に祇園川から取水する用水路を引き入れて水車を回す。水車は鉄製の立軸型水車で，精米機の動力源となる。水車精米時代の遺構であり，酒造システムの近代化過程の一面を物語る遺産として貴重である。,https://bunka.nii.ac.jp/heritage/43967/_104470/43967_104470111225013952854_300.jpg
101,00004190,旧杵島炭鉱大鶴鉱業所第二坑口,きゅうきしまたんこうおおづるこうぎょうしょだいにこうぐち,1基,,登録有形文化財(建造物),産業2次,その他工作,,昭和前,昭和11頃,1936頃,コンクリート造及び煉瓦造、間口7.0m,,41 － 0044,42,2004.06.24(平成16.06.24),2004.06.09(平成16.06.09),,20040609,,国土の歴史的景観に寄与しているもの,,佐賀県,佐賀県唐津市肥前町大字入野甲1-3,,,,,33.45078000000000,129.83470000000000,石炭搬出のため建造された。コンクリート造で，坑門と約７ｍの坑道からなる。坑門は両端部を柱型とし，凸状頂部にはコーニスをつけ，中央に直径約４ｍの半円形坑口を開き，表面は洗い出し仕上げとする。田園地帯にあって，炭鉱施設の一端を今に伝える構造物。,https://bunka.nii.ac.jp/heritage/43967/_105180/43967_105180111225014745366_300.jpg
101,00004468,富久千代酒造一号蔵,ふくちよしゅぞういちごうぐら,1棟,,登録有形文化財(建造物),産業2次,建築物,,大正,大正10頃,1921頃,木造2階建、瓦葺、建築面積522㎡,,41 － 0045,44,2004.11.29(平成16.11.29),2004.11.08(平成16.11.08),,20041108,,国土の歴史的景観に寄与しているもの,,佐賀県,佐賀県鹿島市浜町1254-1,,,,,33.09375000000000,130.11430000000000,敷地西側のほぼ中央に東西棟で建つ。桁行１４間梁間８間規模，寄棟造，桟瓦葺の２階建酒蔵で，南面に２間半幅の下屋を付ける。内部は，１階が仕込蔵で，西側を槽場，２階を倉庫，下屋を製品倉庫に充てる。外壁は縦板張とし，敷地西辺の酒蔵景観の中核となる。,https://bunka.nii.ac.jp/heritage/43967/_105458/43967_105458949385314865893_300.jpg
101,00004469,富久千代酒造精米所,ふくちよしゅぞうせいまいしょ,1棟,,登録有形文化財(建造物),産業2次,建築物,,大正,大正10頃,1921頃,木造平屋建、瓦葺、建築面積128㎡,,41 － 0046,44,2004.11.29(平成16.11.29),2004.11.08(平成16.11.08),,20041108,,国土の歴史的景観に寄与しているもの,,佐賀県,佐賀県鹿島市浜町1254-1,,,,,33.09372000000000,130.11470000000000,一号蔵東妻面北寄りに西妻面を接して建つ。東西棟，切妻造，桟瓦葺の木造平屋建で，桁行９間半梁間３間の平面規模とし，小屋組は登り梁と二重梁を交互に架ける。外壁は一号蔵と同様に焼杉縦板張とする。造り酒屋の酒造場に欠くことのできない施設のひとつ。,https://bunka.nii.ac.jp/heritage/43967/_105459/43967_105459759033389363938_300.jpg
101,00004470,富久千代酒造麹室,ふくちよしゅぞうこうじしつ,1棟,,登録有形文化財(建造物),産業2次,建築物,,大正,大正10頃,1921頃,木造平屋建、瓦葺、建築面積154㎡,,41 － 0047,44,2004.11.29(平成16.11.29),2004.11.08(平成16.11.08),,20041108,,国土の歴史的景観に寄与しているもの,,佐賀県,佐賀県鹿島市浜町1254-1,,,,,33.09398000000000,130.11440000000000,敷地西北隅，一号蔵の北方に位置し，敷地西辺に沿って南北棟で建つ。桁行８間梁間３間規模，切妻造，桟瓦葺の木造平屋建で，内部には麹室を２室設け，東面に下屋を差し掛ける。西側街路沿い酒蔵景観の形成要素で，外壁は他の酒蔵同様に焼杉の縦板張とする。,https://bunka.nii.ac.jp/heritage/43967/_105460/43967_105460720191161675370_300.jpg
101,00004471,肥前浜宿継場主屋,ひぜんはましゅくつぎばしゅおく,1棟,,登録有形文化財(建造物),産業3次,建築物,,江戸,江戸後期,1751-1829,木造2階建、瓦葺、建築面積126㎡,,41 － 0048,44,2004.11.29(平成16.11.29),2004.11.08(平成16.11.08),,20041108,,造形の規範となっているもの,,佐賀県,佐賀県鹿島市浜町乙2696,,鹿島市,,,33.09250000000000,130.11460000000000,旧長崎街道多良往還沿いに建つもと継立場。往還に南妻面を見せた間口４間半の妻入商家で，１階の表構えは揚戸の形式とし，２階は小庇付きの窓２箇所を開ける。内部は東側を土間に充て，西側にミセ，チャノマ，ザシキを一列に並べ，土間奥をカマヤとする。,https://bunka.nii.ac.jp/heritage/43967/_105461/43967_105461111225015041073_300.jpg
101,00004472,呉竹酒造主屋,くれたけしゅぞうしゅおく,1棟,,登録有形文化財(建造物),産業3次,建築物,,昭和前,昭和8,1933,木造2階建、瓦葺、建築面積400㎡,,41 － 0049,44,2004.11.29(平成16.11.29),2004.11.08(平成16.11.08),,20041108,,造形の規範となっているもの,,佐賀県,佐賀県鹿島市浜町乙2751,,呉竹酒造株式会社,,,33.09225000000000,130.11710000000000,旧長崎街道多良往還に南面して建つ。入母屋造，桟瓦葺，妻入の２階建で，間口７間半奥行８間半の規模。東面下屋部は事務所とし，玄関通り土間西側には４室を一列に並べる。たちの高い正面の構えに特色がある。棟梁は坂井武八で，欅など「各地名材」を用いる。,https://bunka.nii.ac.jp/heritage/43967/_105462/43967_105462111225015041597_300.jpg
101,00004473,呉竹酒造一番蔵,くれたけしゅぞういちばんぐら,1棟,,登録有形文化財(建造物),産業2次,建築物,,明治,明治中期,1868-1911,土蔵造2階建、瓦葺、建築面積483㎡,,41 － 0050,44,2004.11.29(平成16.11.29),2004.11.08(平成16.11.08),,20041108,,国土の歴史的景観に寄与しているもの,,佐賀県,佐賀県鹿島市浜町乙2751,,呉竹酒造株式会社,,,33.09222000000000,130.11730000000000,主屋の東に棟を並べて建つ。南北棟，入母屋造，桟瓦葺，妻入の２階建酒蔵で，桁行９間梁間８間規模。中央を作業場とし，主屋寄りの西側に米洗所・釜場などを配し，東面に東西棟の精米所と南北棟の麹室を付属する。改造はあるが，酒造場の中核となる施設。,https://bunka.nii.ac.jp/heritage/43967/_105463/43967_105463111225015042123_300.jpg
101,00004474,呉竹酒造東の蔵,くれたけしゅぞうひがしのくら,1棟,,登録有形文化財(建造物),産業2次,建築物,,昭和前,昭和5,1930,土蔵造2階建、瓦葺、建築面積591㎡,,41 － 0051,44,2004.11.29(平成16.11.29),2004.11.08(平成16.11.08),,20041108,,国土の歴史的景観に寄与しているもの,,佐賀県,佐賀県鹿島市浜町乙2751,,呉竹酒造株式会社,,,33.09242000000000,130.11730000000000,主屋及び一番蔵の北方に位置し，敷地北辺道路に沿って東西棟で建つ。桁行１８間梁間７間規模，切妻造，桟瓦葺，平入の２階建仕込蔵で，西側を貯蔵庫と分析試験室，東側を槽場に充てる。北面外部は高い腰部を縦板張，上部を白漆喰塗として小窓を３段に開ける。,https://bunka.nii.ac.jp/heritage/43967/_105464/43967_105464111225015042668_300.jpg
101,00004869,桑原家住宅主屋,くわはらけじゅうたくしゅおく,1棟,,登録有形文化財(建造物),産業3次,建築物,,明治,明治15,1882,木造2階建、瓦葺、建築面積231㎡,,41 － 0052,46,2005.08.02(平成17.08.02),2005.07.12(平成17.07.12),,20050712,,国土の歴史的景観に寄与しているもの,,佐賀県,佐賀県武雄市朝日町大字甘久1956-2,,,,,33.21051000000000,130.04310000000000,長崎街道に東面して建つ妻入町家。桁行９間梁間５間，切妻造，桟瓦葺の木造２階建で，南側に土間を通し，北側に店・納戸・仏間・座敷などを並べる。階上を塗り込めるが，２階北側客座敷の表側は開放的なつくりとする。棟木墨書から「棟梁橋口徳五郎」が判明。,https://bunka.nii.ac.jp/heritage/43967/_105859/43967_105859111225020040354_300.jpg
101,00005669,矢野酒造主屋,やのしゅぞうしゅおく,1棟,,登録有形文化財(建造物),産業3次,建築物,,明治,明治37,1904,木造2階建、瓦葺、建築面積284㎡,,41 － 0053,51,2006.08.24(平成18.08.24),2006.08.03(平成18.08.03),,20060803,,国土の歴史的景観に寄与しているもの,,佐賀県,佐賀県鹿島市大字高津原字一本杉3903-1他,,矢野酒造株式会社,,,33.11300000000000,130.09370000000000,旧長崎街道多良往還に東面して建つ，間口６間の木造２階建で，入母屋造，桟瓦葺の妻入とする。正面１階は瓦葺庇の南寄りに戸口を設け，北側を出窓とし，２階外壁は白漆喰塗である。内部は南側に通り土間，北側の表を土間の事務室とし，２列４室の居室を配す。,https://bunka.nii.ac.jp/heritage/43967/_106657/43967_106657111225021919986_300.jpg
101,00005670,矢野酒造離れ,やのしゅぞうはなれ,1棟,,登録有形文化財(建造物),住宅,建築物,,大正,大正10頃,1921頃,木造2階建、瓦葺、建築面積98㎡,,41 － 0054,51,2006.08.24(平成18.08.24),2006.08.03(平成18.08.03),,20060803,,国土の歴史的景観に寄与しているもの,,佐賀県,佐賀県鹿島市大字高津原字一本杉3903-1他,,矢野酒造株式会社,,,33.11310000000000,130.09350000000000,主屋の西奥に渡り廊下を介して接続する接客用の東西棟。木造２階建で，入母屋造，桟瓦葺，外壁は竪羽目板張である。東面と南面に瓦葺庇がつく。内部は床構えを持つ１５畳座敷と次の間１０畳からなり，東，南，西の３面に縁を巡らす。２階も１階と同平面である。,https://bunka.nii.ac.jp/heritage/43967/_106658/43967_106658111225021921588_300.jpg
101,00005671,矢野酒造旧精米所,やのしゅぞうきゅうせいまいしょ,1棟,,登録有形文化財(建造物),産業2次,建築物,,明治,明治37,1904,木造平屋建、瓦葺、建築面積127㎡,,41 － 0055,51,2006.08.24(平成18.08.24),2006.08.03(平成18.08.03),,20060803,,国土の歴史的景観に寄与しているもの,,佐賀県,佐賀県鹿島市大字高津原字一本杉3903-1他,,矢野酒造株式会社,,,33.11293000000000,130.09370000000000,街路に面して主屋の南に並ぶ木造平屋建の東西棟。桁行９間，梁間３間の切妻造，桟瓦葺で，屋根西寄りに越屋根を載せる。正面に瓦葺庇がつく。外壁は白漆喰塗で，正面の妻壁は下見板張とする。内部は天井を張らずに小屋組を現しとする。,https://bunka.nii.ac.jp/heritage/43967/_106659/43967_106659111225021923293_300.jpg
101,00005672,矢野酒造東蔵,やのしゅぞうひがしぐら,1棟,,登録有形文化財(建造物),産業2次,建築物,,大正,大正5,1916,土蔵造2階建、瓦葺、建築面積281㎡,,41 － 0056,51,2006.08.24(平成18.08.24),2006.08.03(平成18.08.03),,20060803,,国土の歴史的景観に寄与しているもの,,佐賀県,佐賀県鹿島市大字高津原字一本杉3903-1他,,矢野酒造株式会社,,,33.11312000000000,130.09330000000000,敷地のほぼ中央，離れの西に位置する木造２階建。桁行１１間，梁間５間，切妻造，桟瓦葺の南北棟で，仕込蔵として建設され，現在は製品庫である。東面戸口の北側に検査室と分析室が付属。外壁は白漆喰塗で，腰を下見板張とする。小屋組は束立ちの和小屋である。,https://bunka.nii.ac.jp/heritage/43967/_106660/43967_106660111225021925714_300.jpg
101,00005673,矢野酒造中蔵,やのしゅぞうなかぐら,1棟,,登録有形文化財(建造物),産業2次,建築物,,明治,明治39／昭和20代増築,1906／1945-1954増築,土蔵造2階建、瓦葺、建築面積389㎡,,41 － 0057,51,2006.08.24(平成18.08.24),2006.08.03(平成18.08.03),,20060803,,国土の歴史的景観に寄与しているもの,,佐賀県,佐賀県鹿島市大字高津原字一本杉3903-1他,,矢野酒造株式会社,,,33.11315000000000,130.09310000000000,東蔵の西に並んで建つ木造２階建。桁行１４間，梁間６間，切妻造桟瓦葺の南北棟で，東蔵と戸口で接続している。仕込蔵として建設されたが，現在は貯蔵庫として用いられている。昭和２０年代に南端２間を増築した。外壁は白漆喰塗で南側妻壁に鉄板を張る。,https://bunka.nii.ac.jp/heritage/43967/_106661/43967_106661111225021927428_300.jpg
101,00005674,矢野酒造西蔵,やのしゅぞうにしぐら,1棟,,登録有形文化財(建造物),産業2次,建築物,,大正,大正10,1921,土蔵造2階建、瓦葺、建築面積204㎡,,41 － 0058,51,2006.08.24(平成18.08.24),2006.08.03(平成18.08.03),,20060803,,国土の歴史的景観に寄与しているもの,,佐賀県,佐賀県鹿島市大字高津原字一本杉3903-1他,,矢野酒造株式会社,,,33.11319000000000,130.09300000000000,敷地の西端，中蔵の西に並んで建つ木造２階建。桁行９間，梁間３間の切妻造，桟瓦葺の南北棟で，外壁を鉄板張とする。東側外壁は撤去され，中蔵と壁を共有する。南側に接続する桁行５間の貯蔵庫は２階が蔵人部屋であった。敷地西からの景観の主要素である。,https://bunka.nii.ac.jp/heritage/43967/_106662/43967_106662111225021929114_300.jpg
101,00005675,矢野酒造麹室,やのしゅぞうこうじしつ,1棟,,登録有形文化財(建造物),産業2次,建築物,,昭和前,昭和初期,1926-1988,煉瓦造及び木造平屋建、瓦葺、建築面積81㎡,,41 － 0059,51,2006.08.24(平成18.08.24),2006.08.03(平成18.08.03),,20060803,,国土の歴史的景観に寄与しているもの,,佐賀県,佐賀県鹿島市大字高津原字一本杉3903-1他,,矢野酒造株式会社,,,33.11283000000000,130.09290000000000,敷地の西端，西蔵の南に接続する煉瓦造及び木造平屋建。桁行６間，梁間３間の南北棟で，煉瓦壁の上部に竪羽目板張の壁を立ち上げ，切妻造桟瓦葺の屋根を架けている。内部は北から２間位置に間仕切を設けて前室とし，内壁は煉瓦壁にモルタルを塗る。,https://bunka.nii.ac.jp/heritage/43967/_106663/43967_106663111225021931044_300.jpg
101,00005676,飯盛酒造主屋,いいもりしゅぞうしゅおく,1棟,,登録有形文化財(建造物),産業3次,建築物,,大正,大正末期,1912-1925,木造2階建、瓦葺、建築面積347㎡,,41 － 0060,51,2006.08.24(平成18.08.24),2006.08.03(平成18.08.03),,20060803,,国土の歴史的景観に寄与しているもの,,佐賀県,佐賀県鹿島市古枝甲122,,飯盛酒造株式会社,,,33.09236000000000,130.11390000000000,旧長崎街道多良往還に北面して建つ，間口１０間半の木造２階建。入母屋造，桟瓦葺で，東側土間部の外壁は塗屋造，西側の居室部は真壁造とする。居室部は１階が２列６室，２階は１０畳３室で，それぞれ表裏に縁を設ける。土間の背面南側には釜場が接続する。,https://bunka.nii.ac.jp/heritage/43967/_106664/43967_106664111225021931944_300.jpg
101,00005677,飯盛酒造一号蔵及び二号蔵,いいもりしゅぞういちごうぐらおよびにごうぐら,1棟,,登録有形文化財(建造物),産業2次,建築物,,大正,大正末期,1912-1925,土蔵造2階建及び木造平屋建、瓦葺、建築面積365㎡,,41 － 0061,51,2006.08.24(平成18.08.24),2006.08.03(平成18.08.03),,20060803,,国土の歴史的景観に寄与しているもの,,佐賀県,佐賀県鹿島市古枝甲122,,飯盛酒造株式会社,,,33.09204000000000,130.11390000000000,敷地の南辺に沿って土蔵造２階建の一号蔵が建ち，東の麹室との間を木造平屋建，片流れ屋根の二号蔵が繋ぐ。一号蔵は桁行１０間，梁間６間の切妻造桟瓦葺で，外壁を竪羽目板張で覆う。小屋組は束立の和小屋である。二号蔵は台形平面でトラス小屋組とする。,https://bunka.nii.ac.jp/heritage/43967/_106665/43967_106665111225021933599_300.jpg
101,00005678,飯盛酒造三号蔵,いいもりしゅぞうさんごうぐら,1棟,,登録有形文化財(建造物),産業2次,建築物,,大正,大正末期／昭和初期増築,1912-1925／1926-1988増築,土蔵造2階建、瓦葺、建築面積151㎡,,41 － 0062,51,2006.08.24(平成18.08.24),2006.08.03(平成18.08.03),,20060803,,国土の歴史的景観に寄与しているもの,,佐賀県,佐賀県鹿島市古枝甲122,,飯盛酒造株式会社,,,33.09222000000000,130.11400000000000,敷地の東辺，主屋土間の裏手に建つ土蔵造２階建である。南に麹室が接続する。桁行５間，梁間は４間で西側に２間幅を葺下ろした切妻造，桟瓦葺とする。小屋組は束立の和小屋である。槽場及び瓶詰め場として使われた。西側に下屋で検査室と休憩所を増築した。,https://bunka.nii.ac.jp/heritage/43967/_106666/43967_106666111225021936229_300.jpg
101,00005679,飯盛酒造麹室,いいもりしゅぞうこうじしつ,1棟,,登録有形文化財(建造物),産業2次,建築物,,大正,大正末期,1912-1925,煉瓦造平屋建、瓦葺、建築面積49㎡,,41 － 0063,51,2006.08.24(平成18.08.24),2006.08.03(平成18.08.03),,20060803,,国土の歴史的景観に寄与しているもの,,佐賀県,佐賀県鹿島市古枝甲122,,飯盛酒造株式会社,,,33.09212000000000,130.11400000000000,敷地の南東角に位置する煉瓦造平屋建である。三号蔵の南面に接続し，敷地形状に合わせて西面がやや開いた台形平面を持つ。桁行４間，梁間３間規模の南北棟で，切妻造，桟瓦葺の洋風トラス小屋組の木造屋根を架ける。敷地東側の景観のアクセントとなっている。,https://bunka.nii.ac.jp/heritage/43967/_106667/43967_106667111225021937929_300.jpg
101,00005680,飯盛酒造煙突,いいもりしゅぞうえんとつ,1基,,登録有形文化財(建造物),産業2次,その他工作,,大正,大正10頃,1921頃,煉瓦造、高さ9m,,41 － 0064,51,2006.08.24(平成18.08.24),2006.08.03(平成18.08.03),,20060803,,国土の歴史的景観に寄与しているもの,,佐賀県,佐賀県鹿島市古枝甲122,,飯盛酒造株式会社,,,33.09231000000000,130.11400000000000,主屋の東側，釜場の北側に位置する。主屋土間の外壁に沿うように建つ煉瓦造煙突である。一辺約１．５ｍの正方形で，高さ約９ｍ。鉄製の補強枠が取り付けられている。飯盛家が取得する以前の醸造銘柄「玉の香」の文字が北面に残る。酒蔵通りを象徴する遺構。,https://bunka.nii.ac.jp/heritage/43967/_106668/43967_106668111225021939543_300.jpg
101,00005681,中島酒造場主屋,なかしましゅぞうじょうしゅおく,1棟,,登録有形文化財(建造物),産業3次,建築物,,明治,明治18,1885,木造2階建、瓦葺、建築面積513㎡,,41 － 0065,51,2006.08.24(平成18.08.24),2006.08.03(平成18.08.03),,20060803,,国土の歴史的景観に寄与しているもの,,佐賀県,佐賀県鹿島市浜町乙2714他,,,,,33.09229000000000,130.11500000000000,旧長崎街道多良往還に北面して建つ。木造２階建の塗家造で，入母屋造，桟瓦葺，妻入の店舗を中心に，西側に玄関・２階建の離座敷・土蔵が，東側に東西棟の倉庫が，主棟土間の背後には釜場が接続する。店舗の２階正面は木格子窓とし，両脇に漆喰塗の戸袋がつく。,https://bunka.nii.ac.jp/heritage/43967/_106669/43967_106669111225021941786_300.jpg
101,00005682,中島酒造場仕込蔵,なかしましゅぞうじょうしこみぐら,1棟,,登録有形文化財(建造物),産業2次,建築物,,明治,明治中期,1868-1911,土蔵造2階建、瓦葺、建築面積409㎡、煙突付,,41 － 0066,51,2006.08.24(平成18.08.24),2006.08.03(平成18.08.03),,20060803,,国土の歴史的景観に寄与しているもの,,佐賀県,佐賀県鹿島市浜町乙2714他,,,,,33.09210000000000,130.11510000000000,主屋の南背後，釜場に接続して建つ土蔵造２階建，切妻造，桟瓦葺の南北棟２棟で，西棟が桁行１１間半，梁間４間半，東棟が桁行１１間，梁間４間で，２棟の間の壁を撤去して使用している。南面には東の麹室と一連で瓦葺庇がつく。西棟の南北に煉瓦造煙突が残る。,https://bunka.nii.ac.jp/heritage/43967/_106670/43967_106670111225021943579_300.jpg
101,00005683,中島酒造場西蔵,なかしましゅぞうじょうにしぐら,1棟,,登録有形文化財(建造物),産業2次,建築物,,明治,明治後期,1868-1911,土蔵造2階建、瓦葺、建築面積169㎡,,41 － 0067,51,2006.08.24(平成18.08.24),2006.08.03(平成18.08.03),,20060803,,国土の歴史的景観に寄与しているもの,,佐賀県,佐賀県鹿島市浜町乙2714他,,,,,33.09212000000000,130.11490000000000,主屋の南，仕込蔵の西に並んで建つ土蔵造２階建の貯蔵庫。桁行６間，梁間６間の南北棟で，屋根は切妻造，桟瓦葺とする。外壁は白漆喰塗で，西壁の腰部を煉瓦貼とし，一部鉄板で覆っている。小屋組は束立の和小屋である。浜川側からの景観の一要素である。,https://bunka.nii.ac.jp/heritage/43967/_106671/43967_106671111225021946050_300.jpg
101,00005684,中島酒造場麹室,なかしましゅぞうじょうこうじしつ,1棟,,登録有形文化財(建造物),産業2次,建築物,,明治,明治中期,1868-1911,土蔵造平屋建、瓦葺、建築面積37㎡,,41 － 0068,51,2006.08.24(平成18.08.24),2006.08.03(平成18.08.03),,20060803,,国土の歴史的景観に寄与しているもの,,佐賀県,佐賀県鹿島市浜町乙2714他,,,,,33.09202000000000,130.11530000000000,仕込蔵の東に南妻を揃えて建つ。桁行３間半，梁間３間規模の土蔵造平屋建で，切妻造，桟瓦葺とする。外壁の腰部には煉瓦を張り，仕込蔵側の西面はモルタル仕上げとして南端に出入口を設けている。南面に仕込蔵と一連の瓦葺庇をつける。,https://bunka.nii.ac.jp/heritage/43967/_106672/43967_106672111225021947942_300.jpg
101,00005685,中島酒造場土蔵,なかしましゅぞうじょうどぞう,1棟,,登録有形文化財(建造物),産業2次,建築物,,明治,明治中期,1868-1911,土蔵造平屋建、瓦葺、建築面積203㎡,,41 － 0069,51,2006.08.24(平成18.08.24),2006.08.03(平成18.08.03),,20060803,,国土の歴史的景観に寄与しているもの,,佐賀県,佐賀県鹿島市浜町乙2714他,,,,,33.09270000000000,130.11510000000000,多良往還を挟んで主屋の向いに建つ土蔵造平屋建で，切妻造，桟瓦葺とする。街路からやや後退して建つ。南妻に戸口を設け瓦葺庇を架ける。桁行１０間半，梁間３間の南北棟，桁行４間半，梁間３間半の南北棟，桁行３間半，梁間３間半の東西棟の３棟が連続する。,https://bunka.nii.ac.jp/heritage/43967/_106673/43967_106673111225021949569_300.jpg
101,00005686,旧中島政次家住宅主屋,きゅうなかしままさつぐけじゅうたくしゅおく,1棟,,登録有形文化財(建造物),産業3次,建築物,,明治,明治27,1894,木造2階建、瓦葺、建築面積175㎡,,41 － 0070,51,2006.08.24(平成18.08.24),2006.08.03(平成18.08.03),,20060803,,国土の歴史的景観に寄与しているもの,,佐賀県,佐賀県鹿島市浜町乙2714他,,,,,33.09251000000000,130.11500000000000,多良往還を挟んで中島酒造場主屋の向いに建つ。間口５間半，奥行７間の木造２階建，入母屋造，桟瓦葺とする。外壁は白漆喰塗の大壁造で，２階窓に銅板張の防火扉がつく。内部は東側を土間，西側を居室とする。２階は表を物置，裏を１０畳座敷と次の間とする。,https://bunka.nii.ac.jp/heritage/43967/_106674/43967_106674111225021951299_300.jpg
101,00007599,吉田家住宅主屋,よしだけじゅうたくしゅおく,1棟,,登録有形文化財(建造物),産業3次,建築物,,明治,明治中期,1868-1911,木造2階建、瓦葺、建築面積228㎡,,41 － 0071,62,2009.01.22(平成21.01.22),2009.01.08(平成21.01.08),,20090108,,造形の規範となっているもの,,佐賀県,佐賀県鹿島市大字中村字本町103,,,,,33.11614000000000,130.09520000000000,多良海道に西面する木造２階建の町家。入母屋造桟瓦葺で、背面直角に入母屋造を出す。外壁を白漆喰仕上げの大壁とし、側面は腰に煉瓦を積む。内部は南側の通り土間、北側の居室からなり、座敷には黒檀ほかの銘木を使う。居蔵造の形態をよく伝える近代町家。,https://bunka.nii.ac.jp/heritage/43967/_108581/43967_108581111225031457029_300.jpg
101,00007600,吉田家住宅土蔵,よしだけじゅうたくどぞう,1棟,,登録有形文化財(建造物),産業3次,建築物,,明治,明治中期,1868-1911,土蔵造2階建、瓦葺、建築面積49㎡,,41 － 0072,62,2009.01.22(平成21.01.22),2009.01.08(平成21.01.08),,20090108,,造形の規範となっているもの,,佐賀県,佐賀県鹿島市大字中村字本町103,,,,,33.11608000000000,130.09520000000000,敷地の後方に東西棟で建つ。土蔵造２階建で、切妻造妻入桟瓦葺とする。外壁は漆喰仕上げ。内部は１階を広い１室とし、２階を３室に間仕切り、西に納戸を配し、中央の四畳から東端の十畳にかけて舟底天井を張り、室境に欄間を設ける。町家に残る座蔵の一例。,https://bunka.nii.ac.jp/heritage/43967/_108582/43967_108582111225031458731_300.jpg
101,00007698,池田家住宅主屋,いけだけじゅうたくしゅおく,1棟,,登録有形文化財(建造物),住宅,建築物,,江戸,江戸末期／大正後期改修,1830-1867／1912-1925改修,木造平屋建、瓦葺、建築面積267㎡,,41 － 0073,63,2009.05.14(平成21.05.14),2009.04.28(平成21.04.28),,20090428,,造形の規範となっているもの,,佐賀県,佐賀県嬉野市塩田町大字五町田字辺田乙4345,,,,,33.12601000000000,130.02960000000000,敷地中央に南面して建つ。寄棟造桟瓦葺で、庇をまわし、上屋壁面を漆喰で塗り込める。正面中央に入母屋造の式台玄関を付け、西に仏間、背面に釜屋を付設。内部は東端に土間、西に六間取の床上部を配し、前列西端を主座敷とする。在郷における住宅の変遷を示す。,https://bunka.nii.ac.jp/heritage/43967/_108680/43967_108680111225031805083_300.jpg
101,00007699,池田家住宅座蔵,いけだけじゅうたくざぐら,1棟,,登録有形文化財(建造物),住宅,建築物,,大正,大正8,1919,土蔵造2階建、瓦葺、建築面積49㎡,,41 － 0074,63,2009.05.14(平成21.05.14),2009.04.28(平成21.04.28),,20090428,,造形の規範となっているもの,,佐賀県,佐賀県嬉野市塩田町大字五町田字辺田乙4345,,,,,33.12607000000000,130.02970000000000,主屋の東に南北棟で建つ。南入母屋北切妻造の桟瓦葺で、南面に庇を付ける。桁行１０ｍ梁間４．９ｍの土蔵造２階建。１階は南北に３室の倉庫を並べ、２階は南端に座敷を配する。座敷はトコなどを構え、真壁造とし二方に縁をまわす。良質な意匠をもつ座蔵の好例。,https://bunka.nii.ac.jp/heritage/43967/_108681/43967_108681111225031806710_300.jpg
101,00007700,池田家住宅石垣,いけだけじゅうたくいしがき,1基,,登録有形文化財(建造物),住宅,その他工作,,大正,大正期,1912-1925,石造、総延長65m,,41 － 0075,63,2009.05.14(平成21.05.14),2009.04.28(平成21.04.28),,20090428,,国土の歴史的景観に寄与しているもの,,佐賀県,佐賀県嬉野市塩田町大字五町田字辺田乙4345,,,,,33.12617000000000,130.02970000000000,屋敷地の南面から東面にかけて築かれ、山裾に占める土地の段差を調整するとともに、主屋座敷前庭を画する。総延長６５ｍで、緑色を帯びた地元産の塩田石が用いられ、前庭側は整形の塩田石を切込み矧ぎ積とする。篠岳裾野の広がる集落の景観を特徴づける。,https://bunka.nii.ac.jp/heritage/43967/_108682/43967_108682111225031807637_300.jpg
101,00007934,杉森家住宅主屋,すぎもりけじゅうたくしゅおく,1棟,,登録有形文化財(建造物),文化福祉,建築物,,明治,明治24／昭和45改修,1891／1970改修,木造2階建、瓦葺、建築面積202㎡,,41-0076,65,2009.11.19(平成21.11.19),2009.11.02(平成21.11.02),,20091102,,国土の歴史的景観に寄与しているもの,,佐賀県,佐賀県武雄市山内町大字宮野字水尾345,,,,,33.20190000000000,129.92310000000000,敷地のほぼ中央に東面して建ち、南北２２ｍ東西１２ｍ、入母屋造及び切妻造、桟瓦葺である。正面左手に張り出す、もと待合室は、外壁を下見板張とし、アーチ状の破風板を付けたポーチを構える。明治期の診療所及び製薬所としての平面構成を伝える。,https://bunka.nii.ac.jp/heritage/43967/_108914/43967_108914111225032413287_300.jpg
101,00007935,杉森家住宅二階門,すぎもりけじゅうたくにかいもん,1棟,,登録有形文化財(建造物),文化福祉,建築物,,明治,明治24／平成18改修,1891／2006改修,木造2階一部平屋建、瓦葺、建築面積38㎡,,41-0077,65,2009.11.19(平成21.11.19),2009.11.02(平成21.11.02),,20091102,,国土の歴史的景観に寄与しているもの,,佐賀県,佐賀県武雄市山内町大字宮野字水尾345,,,,,33.20173000000000,129.92330000000000,主屋の前方、通りに面して建つ。桁行１５ｍ梁間３．２ｍ、切妻造桟瓦葺である。左右は長屋形式で、漆喰壁と腰竪板張とし、門の部分は櫓状に突き上げ、正・背面を下見板張とする。乗馬戴帽して潜ることを意図した設計と伝え、特徴的な表構えを形成している。,https://bunka.nii.ac.jp/heritage/43967/_108915/43967_108915111225032414541_300.jpg
101,00008381,医王寺本堂,いおうじほんどう,1棟,,登録有形文化財(建造物),宗教,建築物,,江戸,安永7年(1778)／明治43年・昭和38年・昭和56年改修,1778／1910・1963・1981改修,木造平屋建、瓦葺、建築面積223㎡,,41 － 0078,68,2010.09.10(平成22.09.10),2010.09.10(平成22.09.10),,20100910,,造形の規範となっているもの,,佐賀県,佐賀県唐津市相知町黒岩183,,宗教法人医王寺,,,33.37352000000000,130.00700000000000,境内の後方中央に西面して建つ。桁行１５ｍ梁間１４ｍ、入母屋造一重桟瓦葺。六間取方丈形式で、その前方二間通りを広縁と前土間とした。内陣の背面に接して須弥壇を構え、来迎柱に平三斗を組む。内陣とその前の大間境は円柱で虹梁をかける。標準的な曹洞宗本堂。,https://bunka.nii.ac.jp/heritage/43967/_134023/43967_134023111225033822393_300.jpg
101,00008382,医王寺山門,いおうじさんもん,1棟,,登録有形文化財(建造物),宗教,その他工作,,江戸,文政4年（1821),1821,木造、瓦葺、間口3.2m,,41 － 0079,68,2010.09.10(平成22.09.10),2010.09.10(平成22.09.10),,20100910,,国土の歴史的景観に寄与しているもの,,佐賀県,佐賀県唐津市相知町黒岩183,,宗教法人医王寺,,,33.37352000000000,130.00670000000000,本堂の正面に位置する。一間薬医門、切妻造桟瓦葺。本柱上、冠木を載せ、前後に女梁・男梁を架け、妻及び中備に板蟇股を置く。一軒疎垂木で、切妻造桟瓦葺とする。控柱は面取方柱で、控柱間の中備に雲紋の蟇股を飾る。全体に木太い印象である。,https://bunka.nii.ac.jp/heritage/43967/_134024/43967_134024111225033825138_300.jpg
101,00009081,木下家住宅主屋,きのしたけじゅうたくしゅおく,1棟,,登録有形文化財(建造物),住宅,建築物,,明治,明治22年／昭和3年増築,1889/1928改修,木造2階建、瓦葺、建築面積284㎡,,41 － 0080,71,2011.10.28(平成23.10.28),2011.10.28(平成23.10.28),,20111028,,国土の歴史的景観に寄与しているもの,,佐賀県,佐賀県多久市東多久町大字別府4650-1他,,,,,33.28311000000000,130.14130000000000,通りの南に占める敷地の西北隅に位置する。東西棟の寄棟造桟瓦葺、木造二階建、間口２５ｍ奥行１３ｍ。東半部を広い土間、西半部を床上部とする。十二畳の主座敷にはトコや棚、付書院を構える。近代における大型の商家建築の一例。,https://bunka.nii.ac.jp/heritage/43967/_162441/43967_162441658158025592932_300.jpg
101,00009082,木下家住宅離れ,きのしたけじゅうたくはなれ,1棟,,登録有形文化財(建造物),住宅,建築物,,大正,大正13年,1924,木造平屋建、瓦葺、建築面積41㎡,,41 － 0081,71,2011.10.28(平成23.10.28),2011.10.28(平成23.10.28),,20111028,,国土の歴史的景観に寄与しているもの,,佐賀県,佐賀県多久市東多久町大字別府4650-1他,,,,,33.28281000000000,130.14130000000000,つなぎ屋の南に東西棟で建つ。桁行８．３ｍ梁間４．９ｍの木造平屋建、入母屋造桟瓦葺で、下屋を廻らす。八畳の主座敷と六畳の次の間を東西に並べ、北・東に榑縁をまわす。北の庭園側にガラス戸をたてて開放的に扱い、軽快な外観をつくる。,https://bunka.nii.ac.jp/heritage/43967/_162442/43967_162442258063966425719_300.jpg
101,00009083,木下家住宅つなぎ屋,きのしたけじゅうたくつなぎや,1棟,,登録有形文化財(建造物),住宅,建築物,,大正,大正13年,1924,木造平屋建、瓦葺、建築面積32㎡,,41 － 0082,71,2011.10.28(平成23.10.28),2011.10.28(平成23.10.28),,20111028,,国土の歴史的景観に寄与しているもの,,佐賀県,佐賀県多久市東多久町大字別府4650-1他,,,,,33.28292000000000,130.14120000000000,主屋の南面西寄りに接して建つ。桁行９．０ｍ梁間３．３ｍの木造平屋建、南北棟の切妻造桟瓦葺。東寄りに廊下を通し、西側には北から数室に間仕切り、中央に浴室、南寄りに便所が配される。浴室の天井や廊下の円窓など大正期の雰囲気を留める。,https://bunka.nii.ac.jp/heritage/43967/_162443/43967_162443093676638167537_300.jpg
101,00009679,与賀神社本殿・幣殿・拝殿,よかじんじゃほんでん・へいでん・はいでん,1棟,,登録有形文化財(建造物),宗教,建築物,,江戸,本殿　宝暦8、幣殿・拝殿　宝暦9／大正2改修,本殿　1758、幣殿・拝殿　1759／1913改修,木造平屋建、銅板葺、建築面積118㎡,,41 － 0083,75,2013.06.21(平成25.06.21),2013.06.21(平成25.06.21),,20130621,,国土の歴史的景観に寄与しているもの,,佐賀県,佐賀県佐賀市与賀町92,,宗教法人与賀神社,宗教法人,,33.24880000000000,130.29480000000000,佐賀城西側の境内中央に西面する権現造社殿。本殿は前室付の五間社流造で、内陣を一室として後方に間口三間の内殿を囲い、内宮三基を祀る。妻飾は瑞獣や雲龍などを主題とした巧緻な彫刻で満たす。拝殿は正面軒唐破風付で、内外の随所を華やかな彫刻で飾る。,https://bunka.nii.ac.jp/heritage/43967/_194675/43967_194675140916101506502_300.jpg
101,00009855,天吹酒造主屋,あまぶきしゅぞうしゅおく,1棟,,登録有形文化財(建造物),産業2次,建築物,,明治,明治中期／明治34改修、大正期増築、昭和後期改修,1883～1897／1901改修、1912～1926増築、1966～1989改修,木造2階一部3階建、瓦葺、建築面積315㎡,,41 － 0084,76,2013.12.24(平成25.12.24),2013.12.24(平成25.12.24),,20131224,,国土の歴史的景観に寄与しているもの,,佐賀県,佐賀県三養基郡みやき町大字東尾字東尾2894,,天吹酒造合資会社,営利法人,,33.32663000000000,130.45740000000000,北側敷地の南端に南面し、木造二階一部三階建、入母屋造桟瓦葺で、外壁は漆喰塗とする。内部は中央に土間を通し、東半に既存の土蔵を取込み、事務所や応接間を配する。西半の床上部は東西二列に仏間や座敷などの居室を並べる。伝統的な住宅形式を伝る主屋。,https://bunka.nii.ac.jp/heritage/43967/_195684/43967_195684140905092529127_300.jpg
101,00009856,天吹酒造離れ座敷,あまぶきしゅぞうはなれざしき,1棟,,登録有形文化財(建造物),産業2次,建築物,,大正,大正期／昭和中期増築,1912～1926／1946～1965増築,木造平屋建、瓦葺、建築面積49㎡,,41 － 0085,76,2013.12.24(平成25.12.24),2013.12.24(平成25.12.24),,20131224,,国土の歴史的景観に寄与しているもの,,佐賀県,佐賀県三養基郡みやき町大字東尾字東尾2894,,天吹酒造合資会社,営利法人,,33.32677000000000,130.45730000000000,主屋北西部に接続する。木造平屋建、入母屋造桟瓦葺で、周囲に下屋を廻らす。八畳主室の北側にトコ、床脇、付書院を備え、南東に縁を配す。南側に張出す二畳の小間にも小振りの座敷飾を設け、円窓を穿つ。開放的な室内構成で、造作も瀟洒な離れ座敷である。,https://bunka.nii.ac.jp/heritage/43967/_195685/43967_195685140905092531008_300.jpg
101,00009857,天吹酒造貯蔵庫（旧麹室）,あまぶきしゅぞうちょぞうこ（きゅうこうじむろ）,1棟,,登録有形文化財(建造物),産業2次,建築物,,大正,大正期,1912～1926,煉瓦造及び木造平屋建、瓦葺、建築面積78㎡,,41 － 0086,76,2013.12.24(平成25.12.24),2013.12.24(平成25.12.24),,20131224,,国土の歴史的景観に寄与しているもの,,佐賀県,佐賀県三養基郡みやき町大字東尾字東尾2894,,天吹酒造合資会社,営利法人,,33.32674000000000,130.45750000000000,主屋北東側に東西棟で建つ。桁行一六メートル梁間五メートル、南面煉瓦造、北面木造、平屋建、切妻造桟瓦葺で、西妻面を戸口として瓦庇を付す。南面は煉瓦壁を現し、北面竪板張とする。内部は一室で小屋は和小屋を組む。特異な軸部構成の貯蔵庫である。,https://bunka.nii.ac.jp/heritage/43967/_195686/43967_195686140905092532979_300.jpg
101,00009858,天吹酒造仕込蔵,あまぶきしゅぞうしこみぐら,1棟,,登録有形文化財(建造物),産業2次,建築物,,明治,明治後期,1898～1912,土蔵造2階建、瓦葺、建築面積665㎡,,41 － 0087,76,2013.12.24(平成25.12.24),2013.12.24(平成25.12.24),,20131224,,国土の歴史的景観に寄与しているもの,,佐賀県,佐賀県三養基郡みやき町大字東尾字東尾2894,,天吹酒造合資会社,営利法人,,33.32714000000000,130.45740000000000,主屋後方に南北棟で建つ。桁行三九メートル梁間一七メートル、土蔵造二階建、妻入、桟瓦葺で、南北面に下屋を設ける。外壁は軒先まで漆喰塗込めとし、腰を竪板張とする。内部柱に太い丸太を使い、小屋は登り梁と和小屋を併用する。雄大な規模の仕込蔵である。,https://bunka.nii.ac.jp/heritage/43967/_195687/43967_195687140905092534979_300.jpg
101,00009859,天吹酒造地下貯蔵庫,あまぶきしゅぞうちかちょぞうこ,1棟,,登録有形文化財(建造物),産業2次,建築物,,大正,大正期,1912～1926,鉄筋コンクリート造平屋建、建築面積477㎡,,41 － 0088,76,2013.12.24(平成25.12.24),2013.12.24(平成25.12.24),,20131224,,国土の歴史的景観に寄与しているもの,,佐賀県,佐賀県三養基郡みやき町大字東尾字東尾2894,,天吹酒造合資会社,営利法人,,33.32715000000000,130.45720000000000,北側敷地北西の斜面地に東西棟で建ち、東妻の入口は地上に開くが、西側は地中となる。桁行三〇メートル梁間一六メートル、鉄筋コンクリート造平屋建で、内部は南北二室に区分され、各々東妻に出入口を設ける。現在も冷蔵庫として使用されている貯蔵施設。,https://bunka.nii.ac.jp/heritage/43967/_195688/43967_195688140905092536921_300.jpg
101,00009860,天吹酒造貯蔵庫（旧白米倉庫）,あまぶきしゅぞうちょぞうこ（きゅうはくまいそうこ）,1棟,,登録有形文化財(建造物),産業2次,建築物,,大正,大正6,1917,土蔵造平屋建、瓦葺、建築面積113㎡,,41 － 0089,76,2013.12.24(平成25.12.24),2013.12.24(平成25.12.24),,20131224,,国土の歴史的景観に寄与しているもの,,佐賀県,佐賀県三養基郡みやき町大字東尾字東尾2894,,天吹酒造合資会社,営利法人,,33.32623000000000,130.45760000000000,南側敷地の北寄りに南北棟で建つ。桁行一四メートル梁間六・一メートル、土蔵造平屋建、切妻造桟瓦葺で、西面に吹放しの下屋を設ける。外壁漆喰塗で、腰は東面を海鼠壁、西面は竪板張とする。内部は一室で小屋は和小屋を組む。田園風景に白壁が映える。,https://bunka.nii.ac.jp/heritage/43967/_195689/43967_195689140905092539336_300.jpg
101,00009861,天吹酒造瓶詰工場（旧仕込蔵）,あまぶきしゅぞうびんづめこうじょう（きゅうしこみぐら）,1棟,,登録有形文化財(建造物),産業2次,建築物,,大正,大正12,1923,木造2階建、瓦葺、建築面積561㎡,,41 － 0090,76,2013.12.24(平成25.12.24),2013.12.24(平成25.12.24),,20131224,,国土の歴史的景観に寄与しているもの,,佐賀県,佐賀県三養基郡みやき町大字東尾字東尾2894,,天吹酒造合資会社,営利法人,,33.32598000000000,130.45760000000000,南側敷地の南端に南北棟で建つ。桁行四〇メートル梁間一四メートル、木造二階建、切妻造桟瓦葺で、北面を下屋とする。外壁漆喰塗で腰高に竪板を張り、軒下に高窓を並べる。小屋は登り梁と和小屋を併用する。酒造場の表構えを引き立てる大規模建築。,https://bunka.nii.ac.jp/heritage/43967/_195690/43967_195690140905092541302_300.jpg
101,00009862,天吹酒造旧蔵人用炊事場煙突,あまぶきしゅぞうきゅうくらびとようすいじばえんとつ,1基,,登録有形文化財(建造物),産業2次,その他工作,,明治,明治後期／昭和後期改修,1898～1912／1966～1989改修,煉瓦造、高さ7.3m,,41 － 0091,76,2013.12.24(平成25.12.24),2013.12.24(平成25.12.24),,20131224,,国土の歴史的景観に寄与しているもの,,佐賀県,佐賀県三養基郡みやき町大字東尾字東尾2894,,天吹酒造合資会社,営利法人,,33.32670000000000,130.45740000000000,主屋北面東寄りに建つ煉瓦煙突で、イギリス積とする。基部の平面は一・二メートル角で、高さは七・三メートルである。腰部に帯状の迫出しを設け、東面基部に欠円アーチの焚き口を作る。もと従業員賄い用の釜屋に附属していた煙突で、蔵元の生活様態を伝える。,https://bunka.nii.ac.jp/heritage/43967/_195691/43967_195691140905092543162_300.jpg
101,00009863,天吹酒造旧酒造蔵煙突,あまぶきしゅぞうきゅうしゅぞうぐらえんとつ,1基,,登録有形文化財(建造物),産業2次,その他工作,,大正,大正期,1912～1926,煉瓦造、高さ11m,,41 － 0092,76,2013.12.24(平成25.12.24),2013.12.24(平成25.12.24),,20131224,,国土の歴史的景観に寄与しているもの,,佐賀県,佐賀県三養基郡みやき町大字東尾字村副2290-1,,天吹酒造合資会社,営利法人,,33.32633000000000,130.45760000000000,貯蔵庫（旧白米倉庫）の北側に建つ煉瓦煙突。煉瓦造、イギリス積で、基部の平面は直径一・四メートルの六角形とし、高さは一一メートルを測る。腰部と頂部に装飾的な帯状部を設け、東面基部に欠円アーチの焚き口を作る。酒造場を象徴する煉瓦煙突である。,https://bunka.nii.ac.jp/heritage/43967/_195692/43967_195692140905092545081_300.jpg
101,00010072,旧村上歯科医院（中町カーサ）,きゅうむらかみしかいいん（なかまちかーさ）,1棟,,登録有形文化財(建造物),文化福祉,建築物,,昭和前,昭和8／平成25改修,1933／2013改修,木造2階建、瓦葺、建築面積159㎡,,41 － 0093,77,2014.04.25(平成26.04.25),2014.04.25(平成26.04.25),,20140425,,国土の歴史的景観に寄与しているもの,,佐賀県,佐賀県唐津市中町1868,,唐津市,市区町村,,33.44884000000000,129.97030000000000,唐津城下の東寄りに位置する。もとは一階を和風の住宅、二階を洋風意匠の歯科診療所として使用した。外観は下見板張で二階に欄間付の縦長窓を並べ洋風とする一方で、一階の庭側に和風の縁を設けるなど、内部に呼応した外観とする。唐津中町通りの象徴的な存在。,https://bunka.nii.ac.jp/heritage/43967/_196219/43967_196219140718092509475_300.jpg
101,00010073,町家カフェぜん,まちやかふぇぜん,1棟,,登録有形文化財(建造物),産業3次,建築物,,大正,大正14／昭和10・平成24改修,1925／1935・2012改修,木造2階建、瓦葺、建築面積163㎡,,41 － 0094,77,2014.04.25(平成26.04.25),2014.04.25(平成26.04.25),,20140425,,国土の歴史的景観に寄与しているもの,,佐賀県,佐賀県唐津市坊主町552-5,,,,,33.45171000000000,129.96450000000000,唐津城下の西方に位置し、通りに東面して建つ。もとは南半を質屋の店舗、北半を住宅として使用した。二階南半は質倉で、防火防犯に考慮して開口部を小さくし、外観もモルタル塗込めとして、銅板で建具や桁木口等を覆う。当時の質店の建築的特徴をよく伝える。,https://bunka.nii.ac.jp/heritage/43967/_196220/43967_196220140718092512057_300.jpg
101,00010074,旅館綿屋本館,りょかんわたやほんかん,1棟,,登録有形文化財(建造物),住宅,建築物,,明治,明治後期／昭和前期・昭和55改修,1898～1912／1926～1945・1980改修,木造2階一部3階建、瓦葺、建築面積401㎡,,41 － 0095,77,2014.04.25(平成26.04.25),2014.04.25(平成26.04.25),,20140425,,国土の歴史的景観に寄与しているもの,,佐賀県,佐賀県唐津市大名小路150他,,株式会社綿屋,営利法人,,33.45022000000000,129.97100000000000,松浦川と唐津大名小路に挟まれた敷地に建つ。入母屋造で庇を廻らす車寄は、亀甲状の天井を張り、二軒の垂木を千鳥に配る。客室の銘木による座敷飾や透彫欄間、各種建具などの意匠も洗練されている。もと炭鉱主の別荘という由緒をもつ、大規模で上質な木造旅館。,https://bunka.nii.ac.jp/heritage/43967/_196221/43967_196221140718092513667_300.jpg
101,00010075,旅館綿屋洋館,りょかんわたやようかん,1棟,,登録有形文化財(建造物),住宅,建築物,,明治,明治後期,1898～1912,木造平屋建、瓦葺、建築面積20㎡,,41 － 0096,77,2014.04.25(平成26.04.25),2014.04.25(平成26.04.25),,20140425,,国土の歴史的景観に寄与しているもの,,佐賀県,佐賀県唐津市大名小路153,,株式会社綿屋,営利法人,,33.45022000000000,129.97100000000000,本館の南西隅に接続する。御影石の布基礎の上に建ち、本館の玄関に向く北面に二重扉の出入口を開く。天井をモールディングで折上げ、木製の中心飾を付ける。当初は本館から独立して建てられた洋風意匠の応接間で、明治期の、洋館を並立した別邸建築の好例である。,https://bunka.nii.ac.jp/heritage/43967/_196222/43967_196222140718092516295_300.jpg
101,00011011,ＪＲ唐津線小城駅本屋,じぇいあーるからつせんおぎえきほんや,1棟,,登録有形文化財(建造物),交通,建築物,,明治,明治後期／平成27改修,1898～1912／2015改修,木造平屋建、瓦葺、建築面積192㎡,,41-0097,83,2016.02.25(平成28.02.25),2016.02.25(平成28.02.25),,20160225,,国土の歴史的景観に寄与しているもの,,佐賀県,佐賀県小城市三日月町久米字甘木二本八2076-1,,小城市,市区町村,,33.28576000000000,130.19870000000000,石炭輸送を主目的に敷設された唐津線の中間駅。桁行一九メートル、梁行一〇メートル、寄棟造の木造平屋建で、四周に下屋を廻らす。外壁は漆喰塗に腰部縦羽目板張で、内部には出札口の造作をよく残す。開業当初の様相を良く留め、市街の顔となっている。,https://bunka.nii.ac.jp/heritage/43967/_208981/43967_208981173950111835034_300.jpg
101,00011595,旧百﨑家住宅主屋,きゅうももさきけじゅうたくしゅおく,1棟,,登録有形文化財(建造物),住宅,建築物,,明治,明治前期／昭和6年増築,1868～1882/1931増築,木造平屋一部2階建、茅葺及び瓦葺、建築面積245㎡,,41-0098,86,2017.05.02(平成29.05.02),2017.05.02(平成29.05.02),,20170502,,国土の歴史的景観に寄与しているもの,,佐賀県,佐賀県佐賀市水ケ江三丁目231,,,,,33.24387000000000,130.30800000000000,佐賀城下旧武家地に位置する。主屋は茅葺寄棟造で、棟を三方に鉤の手状に折り曲げた複雑な外観を持ち、四方に桟瓦葺の下屋を廻らし、立ちの低い造りとする。座敷は庭園に向けて開放的な造りで、内部造作も質が高い。佐賀城下の往時の景観を今に伝える大規模住宅。,https://bunka.nii.ac.jp/heritage/43967/_210516/43967_210516060396783039129_300.jpg
101,00011596,中野家住宅主屋,なかのけじゅうたくしゅおく,1棟,,登録有形文化財(建造物),住宅,建築物,,明治,明治42年／大正期増築,1909/1912～1926増築,木造2階一部平屋建、瓦葺、建築面積462㎡,,41-0099,86,2017.05.02(平成29.05.02),2017.05.02(平成29.05.02),,20170502,,造形の規範となっているもの,,佐賀県,佐賀県藤津郡太良町大字伊福字椎木坂甲1978,,,,,33.04108000000000,130.16240000000000,主屋棟、座敷棟、納戸棟を一間幅の廊下で結ぶ。主屋棟は虹梁や蟇股など意匠を凝らした式台玄関を持ち、座敷棟に椅子座に合わせてトコを腰高に設けた座敷と伝統的な座敷の両者を配す。接客や教育活動の使用のため工夫された平面構成に、近代的展開を示す。,https://bunka.nii.ac.jp/heritage/43967/_210517/43967_210517683244224979587_300.jpg
101,00011597,中野家住宅水槽,なかのけじゅうたくすいそう,1基,,登録有形文化財(建造物),住宅,その他工作物,,大正,大正期,1912～1926,煉瓦造、面積3.3㎡,,41-0100,86,2017.05.02(平成29.05.02),2017.05.02(平成29.05.02),,20170502,,国土の歴史的景観に寄与しているもの,,佐賀県,佐賀県藤津郡太良町大字伊福字椎木坂甲1978,,,,,33.04121000000000,130.16220000000000,敷地の北西にある水槽。煉瓦造で幅一・五メートル、奥行二・二メートル、高さ二・〇メートル。上層は深さ一・〇メートルの水槽で、下層は東正面にアーチを開く。上の取水口から汲み上げた水を水圧を利用して各建物へ給水する近代的な自家用給水施設の一例。,https://bunka.nii.ac.jp/heritage/43967/_210518/43967_210518294224993396219_300.jpg
101,00011598,中野家住宅上の取水口,なかのけじゅうたくかみのしゅすいこう,1基,,登録有形文化財(建造物),住宅,その他工作物,,明治,明治後期,1898～1912,煉瓦造、幅2.4m、高さ1.7m,,41-0101,86,2017.05.02(平成29.05.02),2017.05.02(平成29.05.02),,20170502,,国土の歴史的景観に寄与しているもの,,佐賀県,佐賀県藤津郡太良町大字伊福字椎木坂甲1978,,,,,33.04123000000000,130.16220000000000,敷地北面の崖に山から浸透する水を溜める煉瓦造の貯水槽。水槽の北側にあり、槽径約三メートル、深さ約六メートルで、取水口は幅二・四メートル、高さ一・七メートルのアーチ門を開く。貯水槽として最も規模が大きく、豊富な水量で敷地内の給水を担った。,https://bunka.nii.ac.jp/heritage/43967/_210519/43967_210519892224041319906_300.jpg
101,00011599,中野家住宅下の取水口,なかのけじゅうたくしものしゅすいこう,1基,,登録有形文化財(建造物),住宅,その他工作物,,明治,明治後期,1898～1912,煉瓦造、幅2.5m、高さ2.3m,,41-0102,86,2017.05.02(平成29.05.02),2017.05.02(平成29.05.02),,20170502,,国土の歴史的景観に寄与しているもの,,佐賀県,佐賀県藤津郡太良町大字伊福字椎木坂甲1978,,,,,33.04134000000000,130.16260000000000,敷地北面の崖の東側にある煉瓦造の貯水槽。槽径は約一・五メートルで、取水口は幅一・五メートル、高さ二・二メートルのアーチ門を開く。上の取水口より規模が小さいものの、技法や意匠は共通しており、保存状態も良い。敷地内の給水設備の様相を今に伝える。,https://bunka.nii.ac.jp/heritage/43967/_210520/43967_210520921254658899790_300.jpg
101,00011600,中野家住宅門柱,なかのけじゅうたくもんちゅう,1基,,登録有形文化財(建造物),住宅,その他工作物,,明治,明治42年頃,1909頃,石造、間口3.8m,,41-0103,86,2017.05.02(平成29.05.02),2017.05.02(平成29.05.02),,20170502,,国土の歴史的景観に寄与しているもの,,佐賀県,佐賀県藤津郡太良町大字伊福字椎木坂甲1978,,,,,33.04103000000000,130.16250000000000,主屋の式台玄関の南方に開く門。間口三・八メートルで、石柱二本を立てる。石柱は凝灰岩で一辺四四センチメートルの方形で、高さ三・一メートル。隅を几帳面取し、頂部には切石を一段と、蛇腹の装飾を持つ笠石を載せ、重厚な表構えをかたちづくる。,https://bunka.nii.ac.jp/heritage/43967/_210521/43967_210521104339705684564_300.jpg
101,00011601,中野家住宅石垣,なかのけじゅうたくいしがき,1基,,登録有形文化財(建造物),住宅,その他工作物,,明治,明治42年頃,1909頃,石造、総延長97m,,41-0104,86,2017.05.02(平成29.05.02),2017.05.02(平成29.05.02),,20170502,,国土の歴史的景観に寄与しているもの,,佐賀県,佐賀県藤津郡太良町大字伊福字椎木坂甲1978,,,,,33.04089000000000,130.16240000000000,門柱の東側に北へ矩折れに延びる三〇メートルと門柱の西側から庭園を囲うように延びる六七メートルの石垣。切石を二段積み、塀を載せるため上端は平坦とする。丁寧な造りで保存状態も良く、往時の屋敷構えを知る上で欠かすことができない。,https://bunka.nii.ac.jp/heritage/43967/_210522/43967_210522562996876434890_300.jpg
101,00011836,大隈重信記念館,おおくましげのぶきねんかん,1棟,,登録有形文化財(建造物),文化福祉,建築物,,昭和後,昭和41年／昭和59年・平成27年改修,1966／1984・2015改修,鉄筋コンクリート造2階建、建築面積223㎡,,41-0105,87,2017.06.28(平成29.06.28),2017.06.28(平成29.06.28),,20170628,,再現することが容易でないもの,,佐賀県,佐賀県佐賀市水ヶ江二丁目360-2,,佐賀市,市区町村,,33.24797000000000,130.30870000000000,旧武家地にある大隈重信旧宅の東方に北面する。大隈重信生誕一二五周年を記念し、今井兼次が設計した。鉄筋コンクリート造で県木の楠の根幹と大隈のからだを曲面を多用して表現し、ステンドグラスにより室内を彩る。優れた施工技術に支えられた記念碑的建築。,https://bunka.nii.ac.jp/heritage/43967/_210852/43967_210852901324256803716_300.jpg
101,00011837,大谷川隧道,おおたにかわずいどう,1基,,登録有形文化財(建造物),治山治水,土木構造物,,明治,明治44年,1911,煉瓦造、延長92m,,41-0106,87,2017.06.28(平成29.06.28),2017.06.28(平成29.06.28),,20170628,,造形の規範となっているもの,,佐賀県,佐賀県唐津市千々賀93333～千々賀1338-4,,佐賀県,都道府県,,33.40478000000000,129.96290000000000,耕地整理事業に伴い、水害に備えて穿たれた全長九二メートルの煉瓦造隧道。上下流側とも、坑口を内法高さ二メートル強のアーチに積み、ポータルはイギリス積としてピラスターや笠石などにより鳥居形を表す。地元住民の企画と労務により開削された歴史を刻む。,https://bunka.nii.ac.jp/heritage/43967/_210853/43967_210853598086530546786_300.jpg
101,00012071,水野旅館観風亭,みずのりょかんかんぷうてい,1棟,,登録有形文化財(建造物),住宅,建築物,,昭和前,昭和13年／昭和46年頃・同50年代改修,1938,木造平屋建、瓦葺、建築面積156㎡,,41-107,88,2017.10.27(平成29.10.27),2017.10.27(平成29.10.27),,20171027,,造形の規範となっているもの,,佐賀県,佐賀県唐津市東城内96-1,,有限会社水野旅館,営利法人,,33.45428000000000,129.97550000000000,唐津湾を臨む海岸沿いに建つ。玄関棟と座敷棟からなり、入母屋造の屋根を直交させ、複雑な外観をつくる。玄関棟は式台の奥に板敷の間を設け、座敷棟は中二階として、広縁の開放的な窓から海を望む趣向が凝らされている。端正な座敷飾りを備えた良質なもと別荘。,https://bunka.nii.ac.jp/heritage/43967/_211012/43967_211012673981162741730_300.jpg
101,00012072,水野旅館門,みずのりょかんもん,1棟,,登録有形文化財(建造物),住宅,その他工作物,,江戸,江戸末期／昭和48年移築,1830～1868,木造、瓦葺、間口2.0m、西方袖塀・東方脇戸付,,41-108,88,2017.10.27(平成29.10.27),2017.10.27(平成29.10.27),,20171027,,造形の規範となっているもの,,佐賀県,佐賀県唐津市東城内96-1,,,,,33.45416000000000,129.97540000000000,敷地南面を画す表門。切妻造本瓦葺の一間薬医門で、両脇に袖塀を付け、東側に潜戸を開く。本柱は五平で、控柱間を繋ぐ梁は曲材を用い、三筋架けて桁を受け、棟木は冠木に束を立て、舟肘木で受ける。本柱、控柱、冠木など木柄が大きく堂々たる風格を備えた門。,https://bunka.nii.ac.jp/heritage/43967/_211013/43967_211013914213420605878_300.jpg
101,00012256,齊藤商店店舗兼主屋,さいとうしょうてんてんぽけんしゅおく,1棟,,登録有形文化財(建造物),産業3次,建築物,,昭和前,昭和2年頃／昭和40年代改修,1927,木造2階建、瓦葺、建築面積157㎡,,41-109,89,2018.03.27(平成30.03.27),2018.03.27(平成30.03.27),,20180327,,造形の規範となっているもの,,佐賀県,佐賀県小城市小城町字蛭子町427,,,,,33.29318000000000,130.20070000000000,城下町に建つ近代町家。木造二階建、切妻造平入の出桁造だが、建ちが高くトラス組の大屋根が特徴。一、二階とも四室を配し、欄間彫刻の松竹梅など意匠を凝らす。ガラスを多用し開放的な造りで、ミセの吹抜けやショウウインドウなど洋風意匠も巧みである。,https://bunka.nii.ac.jp/heritage/43967/_353057/43967_353057373641760228000_300.jpg
101,00012662,香月家住宅主屋,かつきけじゅうたくしゅおく,1棟,,登録有形文化財(建造物),住宅,建築物,,明治,明治前期／昭和20年頃・同40年頃・平成8年改修,1868～1882,木造平屋一部2階建、瓦葺、建築面積202㎡,,41 － 0110,91,2018.11.02(平成30.11.02),2018.11.02(平成30.11.02),,20181102,,造形の規範となっているもの,,佐賀県,佐賀県嬉野市塩田町大字久間字西山乙3595-1他,,,,,,,志田焼産地の西山にある窯元宅。主屋は敷地正面の路地に南面して建つ。軒の出の短い入母屋造妻入の二階建で両側に大きな袖下屋を付し、正面に下屋を通す。内部は東に土間、西に2列4室を配し、西列奥に座敷を設ける。九州北部に分布する町家と同形式の民家。,https://bunka.nii.ac.jp/heritage/43967/_367956/43967_367956165271603083741_300.jpg
101,00013010,草伝社（旧井手家住宅）店舗兼主屋,そうでんしゃ（きゅういでけじゅうたく）　てんぽけんしゅおく,1棟,,登録有形文化財(建造物),産業3次,建築物,,明治,明治後期／大正後期・昭和中期・平成24年改修,1898～1912,木造2階建、瓦葺、建築面積241㎡,,41 － 111,93,2019.09.10(令和1.09.10),2019.09.10(令和1.09.10),,20190910,,国土の歴史的景観に寄与しているもの,,佐賀県,佐賀県唐津市北波多徳須恵字前田1030-3他,,,,,33.37566667000000,129.95129167000000,市東部旧徳須恵宿のもと商家。店舗兼主屋は路地に西面して建つ切妻造桟瓦葺の二階建で、北に土間、南に二列四室を配して南列奥を客座敷とし、北の落棟に台所等、南の別棟に続き間の座敷を設ける。二階は一空間の倉庫とする。宿場町の景観を伝える大型町家。,https://bunka.nii.ac.jp/heritage/43967/_368083/43967_368083052639426797394_300.jpg
101,00013011,草伝社（旧井手家住宅）倉庫,そうでんしゃ（きゅういでけじゅうたく）　そうこ,1棟,,登録有形文化財(建造物),産業3次,建築物,,明治,明治後期／昭和前期・平成21年改修,1898～1912,木造2階建、瓦葺、建築面積47㎡,,41 － 112,93,2019.09.10(令和1.09.10),2019.09.10(令和1.09.10),,20190910,,国土の歴史的景観に寄与しているもの,,佐賀県,佐賀県唐津市北波多徳須恵字前田1030-3他,,,,,33.37580278000000,129.95135833000000,店舗兼主屋北側に並んで建つ。木造二階建、切妻造桟瓦葺、外壁縦板張で、南面中央に戸口を設け、西妻を路地に面する。当初は二階を渡廊下で店舗兼主屋に接続し、一体の収納空間として利用した。唐津周辺の商家の伝統的な店構えを伝える附属建物である。,https://bunka.nii.ac.jp/heritage/43967/_368084/43967_368084969997532106310_300.jpg
101,00013669,永井家住宅店舗兼主屋,ながいけじゅうたくてんぽけんおもや,1棟,,登録有形文化財(建造物),産業3次,建築物,,江戸,江戸後期／昭和前期増築、同中期・平成8年・同19年改修,1751～1830,木造2階建、瓦葺、建築面積194㎡,,41 － 0113,97,2021.02.04(令和3.02.04),2021.02.04(令和3.02.04),,20210204,,国土の歴史的景観に寄与しているもの,,佐賀県,佐賀県唐津市呼子町呼子字坊山3085,,,,,33.54025278000000,129.89503333000000,呼子湾沿いの道に東面して建つ二階建、切妻造平入、桟瓦葺の町家。間口六間半で、正面に持送付の腕木庇を付し、二階外壁を漆喰塗とする。北を床上部、南を通り土間とし、通り土間西半の吹抜に貫を多用した小屋組を現す。港町呼子で江戸後期に遡る貴重な町家。,https://bunka.nii.ac.jp/heritage/43967/_504613/43967_504613092102736628245_300.jpg
101,00013767,光栄菊酒造通り蔵及び本蔵,こうえいぎくしゅぞうとおりぐらおよびほんぐら,1棟,,登録有形文化財(建造物),産業2次,建築物,,大正,通り蔵　大正9年／昭和11年改修、本蔵　昭和2年／昭和11年改修,1920,木造2階建、瓦葺、建築面積955㎡,,41 － 114,98,2021.02.26(令和3.02.26),2021.02.26(令和3.02.26),,20210226,,国土の歴史的景観に寄与しているもの,,佐賀県,佐賀県小城市三日月町織島字下七本六割2602-3,,光栄菊酒造株式会社,営利法人,,33.29919444000000,130.22626389000000,小城市の旧街道に面する酒造施設。木造二階建半切妻造桟瓦葺で南北棟の通り蔵と本蔵を東西に並べ、南端で接続してコの字形平面をなす。本蔵北に下屋付属。各蔵とも二列の独立柱を立て、吹抜の接続部は豪壮な小屋組をみせる。南面の大屋根が景観を特徴付ける。,https://bunka.nii.ac.jp/heritage/43967/_505331/43967_505331918392227499857_300.jpg
101,00013768,光栄菊酒造洗い場及び釜場,こうえいぎくしゅぞうあらいばおよびかまば,1棟,,登録有形文化財(建造物),産業2次,建築物,,昭和前,昭和前期,1926～1945,木造平屋建、瓦葺、建築面積171㎡,,41 － 115,98,2021.02.26(令和3.02.26),2021.02.26(令和3.02.26),,20210226,,国土の歴史的景観に寄与しているもの,,佐賀県,佐賀県小城市三日月町織島字下七本六割2602-3,,光栄菊酒造株式会社,営利法人,,33.29938889000000,130.22613333000000,通り蔵の北に軸を振って接続する。木造平家建切妻造桟瓦葺で南北棟の洗い場と釜場を東西に並べ、南北に谷樋を通す。西面に開口を多くとり、洗い場の屋根に採光窓を設ける。釜場の大釜は土間を掘込んで据え、外部の煙突に接続する。酒造施設の一角を構成する。,https://bunka.nii.ac.jp/heritage/43967/_505333/43967_505333659548740372536_300.jpg
101,00013769,光栄菊酒造モトクラ,こうえいぎくしゅぞうもとくら,1棟,,登録有形文化財(建造物),産業2次,建築物,,昭和前,昭和5年,1930,木造平屋建、瓦葺、建築面積113㎡,,41 － 116,98,2021.02.26(令和3.02.26),2021.02.26(令和3.02.26),,20210226,,国土の歴史的景観に寄与しているもの,,佐賀県,佐賀県小城市三日月町織島字下七本六割2602-3,,光栄菊酒造株式会社,営利法人,,33.29935000000000,130.22645556000000,本蔵東面北端に接続。木造平屋建北面半切妻造南面切妻造で桟瓦葺。御影石の布基礎、土台上に柱を立て、外壁は竪板張。北・東面は一間毎に掃出窓を設け北面上部に水切庇付きの開口を開く。内部は二階の床組を残し小屋組は二重梁和小屋。敷地北東の景観を形成。,https://bunka.nii.ac.jp/heritage/43967/_505335/43967_505335578059039721443_300.jpg
101,00013770,光栄菊酒造ムロマエ,こうえいぎくしゅぞうむろまえ,1棟,,登録有形文化財(建造物),産業2次,建築物,,明治,明治中期,1883～1897,木造平屋建、瓦葺、建築面積94㎡,,41 － 117,98,2021.02.26(令和3.02.26),2021.02.26(令和3.02.26),,20210226,,国土の歴史的景観に寄与しているもの,,佐賀県,佐賀県小城市三日月町織島字下七本六割2602-3,,光栄菊酒造株式会社,営利法人,,33.29920833000000,130.22647778000000,本蔵の東、モトクラの南面に接続。木造平屋建両下造桟瓦葺。外部は腰を竪板張とし、上部は現在下見板張とするが旧は漆喰仕上。布基礎の上に煉瓦を数段積み柱を立てる。内部は二階の床組を一部残し小屋組は二重梁和小屋。施設内最古で酒造施設の歴史上重要。,https://bunka.nii.ac.jp/heritage/43967/_505337/43967_505337211806580303473_300.jpg
101,00013771,光栄菊酒造旧麹室,こうえいぎくしゅぞうきゅうこうじむろおよびつうろ,1棟,,登録有形文化財(建造物),産業2次,建築物,,昭和前,昭和前期,1926～1945,木造平屋建、瓦葺、建築面積98㎡,,41 － 118,98,2021.02.26(令和3.02.26),2021.02.26(令和3.02.26),,20210226,,国土の歴史的景観に寄与しているもの,,佐賀県,佐賀県小城市三日月町織島字下七本六割2602-3,,光栄菊酒造株式会社,営利法人,,33.29910000000000,130.22648333000000,本蔵の東、ムロマエの南面に接続。木造平屋建切妻造桟瓦葺で、水路石積上に御影石の布基礎を廻し、高さ三メートルまで煉瓦積の壁を木造軸組の外面に化粧で現す。上部は竪板張で南面上部に開口を開ける。小屋組はキングポストトラス。敷地南東の景観を形成。,https://bunka.nii.ac.jp/heritage/43967/_505339/43967_505339544941692244749_300.jpg
101,00013772,光栄菊酒造煙突,こうえいぎくしゅぞうえんとつ,1基,,登録有形文化財(建造物),産業2次,その他工作物,,昭和前,昭和前期,1926～1945,煉瓦造、高さ11m,,41 － 119,98,2021.02.26(令和3.02.26),2021.02.26(令和3.02.26),,20210226,,国土の歴史的景観に寄与しているもの,,佐賀県,佐賀県小城市三日月町織島字下七本六割2602-3,,光栄菊酒造株式会社,営利法人,,33.29938333000000,130.22624167000000,釜場の東に位置。一・七メートル四方、高さ一・六メートルの煉瓦造基壇上に総高約一一メートルを煉瓦造イギリス積で積む。上方に向けて先細りし、最上部の煙口に四段の繰形を付ける。四方の隅部は鉄枠で補強する。地域のランドマークとして親しまれている。,https://bunka.nii.ac.jp/heritage/43967/_505341/43967_505341134974824512608_300.jpg
101,00014118,願正寺本堂,がんしょうじほんどう,1棟,,登録有形文化財(建造物),宗教,建築物,,江戸,元禄15年(1702)／明和2年（1765）改修,1702,木造平屋建、瓦葺、建築面積805㎡,,41 - 0120,100,2021.10.14(令和3.10.14),2021.10.14(令和3.10.14),,20211014,,造形の規範となっているもの,,佐賀県,佐賀県佐賀市呉服元町182他,,願正寺,宗教法人,,33.25562222000000,130.30392500000000,佐賀城跡北に建つ真宗寺院本堂。正面九間、奥行八間半、入母屋造本瓦葺。外周は大斗と実肘木、中備蟇股等簡素。平面は標準的だが、内外陣境を欄間彫刻で飾り、矢来前面に長大な虹梁を架けて彫刻で飾る。当地の中心的真宗寺院で九州有数の規模と古さを持つ。,https://bunka.nii.ac.jp/heritage/43967/_508378/43967_508378565442064890216_300.jpg
101,00014119,願正寺貴賓室,がんしょうじきひんしつ,1棟,,登録有形文化財(建造物),宗教,建築物,,江戸,18世紀前期,1701～1750,木造平屋建、瓦葺、建築面積109㎡,,41 - 0121,100,2021.10.14(令和3.10.14),2021.10.14(令和3.10.14),,20211014,,造形の規範となっているもの,,佐賀県,佐賀県佐賀市呉服元町182他,,願正寺,宗教法人,,33.25583333000000,130.30412222000000,本堂北東に建つ客殿。切妻造桟瓦葺、西の貴賓室一〇畳書院座敷と東の奧の間二〇畳からなり、北に半間幅の廊下、南に一間幅畳敷の鞘の間を付し竹節欄間と絵付杉戸で区画する。繊細な筬欄間、面皮付床柱、漆塗の床框等簡素ながら上質な藩主御成間と伝わる書院。,https://bunka.nii.ac.jp/heritage/43967/_508379/43967_508379196635215740792_300.jpg
101,00014120,願正寺大広間,がんしょうじおおひろま,1棟,,登録有形文化財(建造物),宗教,建築物,,昭和前,昭和9年,1934,木造平屋建、瓦葺、建築面積288㎡,,41 - 0122,100,2021.10.14(令和3.10.14),2021.10.14(令和3.10.14),,20211014,,国土の歴史的景観に寄与しているもの,,佐賀県,佐賀県佐賀市呉服元町182他,,願正寺,宗教法人,,33.25575000000000,130.30426667000000,本堂東、貴賓室と大玄関の間に建つ広間棟。南北に長大な平面を持つ切妻造桟瓦葺の建物で、内部は八〇畳の大広間とし北に御内仏と両脇に床を構える。講師室を北に配し両脇は廊下を下屋で通す。小屋組にキングポストトラスを用い大空間を実現した近代の大広間。,https://bunka.nii.ac.jp/heritage/43967/_508380/43967_508380067663806229395_300.jpg
101,00014121,願正寺大玄関,がんしょうじおおげんかん,1棟,,登録有形文化財(建造物),宗教,建築物,,昭和前,昭和9年,1934,木造2階建、瓦葺、建築面積180㎡,,41 - 0123,100,2021.10.14(令和3.10.14),2021.10.14(令和3.10.14),,20211014,,国土の歴史的景観に寄与しているもの,,佐賀県,佐賀県佐賀市呉服元町182他,,願正寺,宗教法人,,33.25559444000000,130.30417222000000,本堂南東に建つ玄関棟。切妻造桟瓦葺、桁行二四・七メートル、梁間七メートルで、南面西寄に大ぶりの入母屋造玄関を付し、両脇に花頭窓を配し、その東を庇付内玄関とする。内部は広間と南西の寺務室、その二階に八畳二室を配す。無柱の大空間が特徴の大玄関。,https://bunka.nii.ac.jp/heritage/43967/_508381/43967_508381009493420095343_300.jpg
101,00014122,願正寺鐘楼,がんしょうじしょうろう,1棟,,登録有形文化財(建造物),宗教,建築物,,江戸,明和5年(1768),1768,木造平屋建、瓦葺、建築面積14㎡,,41 - 0124,100,2021.10.14(令和3.10.14),2021.10.14(令和3.10.14),,20211014,,国土の歴史的景観に寄与しているもの,,佐賀県,佐賀県佐賀市呉服元町182他,,願正寺,宗教法人,,33.25536944000000,130.30423611000000,本堂の南東に建つ入母屋造本瓦葺の鐘楼。赤石を用いた裾広の切石乱積基壇上に建ち、下層は袴腰、上層は丸柱を長押で固め三斗を受け中備を蟇股とする。高欄付の縁は木鼻状板持送りで受ける。佐賀城下の時鐘として用いられたと伝わる木柄の太い重厚な鐘楼。,https://bunka.nii.ac.jp/heritage/43967/_508382/43967_508382784781339007038_300.jpg
101,00014123,願正寺山門,がんしょうじさんもん,1棟,,登録有形文化財(建造物),宗教,その他工作物,,明治,大正前期,1912～1918,木造、瓦葺、間口4.6m,,41 - 0125,100,2021.10.14(令和3.10.14),2021.10.14(令和3.10.14),,20211014,,造形の規範となっているもの,,佐賀県,佐賀県佐賀市呉服元町182他,,願正寺,宗教法人,,33.25530278000000,130.30409722000000,本堂南に建つ切妻造本瓦葺平入の四脚門。本柱を丸柱、控柱を角柱として礎盤上に立て、控柱間に強い渦紋の虹梁を架け挿し肘木で受ける。方立脇の幕板の渦紋彫刻、側面の花狭間、桟唐戸の透彫や鈁金具など随所に浄土真宗寺院らしい華やかな装飾を見せる。,https://bunka.nii.ac.jp/heritage/43967/_508383/43967_508383495163082545745_300.jpg
101,00014124,旧枝梅酒造店舗兼主屋,きゅうえだうめしゅぞうてんぽけんおもや,1棟,,登録有形文化財(建造物),産業2次,建築物,,江戸,江戸末期／平成30年改修,1830～1868,木造2階建、瓦葺、建築面積200㎡,,41 - 0126,100,2021.10.14(令和3.10.14),2021.10.14(令和3.10.14),,20211014,,国土の歴史的景観に寄与しているもの,,佐賀県,佐賀県佐賀市八戸一丁目124-2,,佐賀市,市区町村,,33.24737222000000,130.27799167000000,旧長崎街道に南面する造り酒屋の町家。二階建寄棟造桟瓦葺平入で背後に棟を延ばし、全体にコの字の屋根とする。正面は下屋を付し、ニ階は軒まで塗込める。内部は東を土間、西を二列五室とする。佐賀特有のくど造の様相を伝え、建ちが低く全体に古式を残す。,https://bunka.nii.ac.jp/heritage/43967/_508384/43967_508384769175222601959_300.jpg
101,00014302,岡田三郎助アトリエ,おかださぶろうすけあとりえ,1棟,,登録有形文化財(建造物),文化福祉,建築物,,明治,明治41年頃／大正後期増築・平成30年移築,1908,木造平屋一部2階建、鉄板葺、建築面積115㎡,,41 - 0127,102,2022.06.29(令和4.06.29),2022.06.29(令和4.06.29),,20220629,,造形の規範となっているもの,,佐賀県,佐賀県佐賀市城内一丁目15-23,,佐賀県,都道府県,,33.24514722000000,130.30101111000000,佐賀城内に移築した岡田三郎助のアトリエ。木造平屋一部二階建、金属板葺で、アトリエと女子洋画研究所からなる。内部は安定した採光を確保するため、随所に窓を穿つ。画壇の中心的サロンとなった明治期のアトリエで、初期女性洋画家教育施設としても貴重。,https://bunka.nii.ac.jp/heritage/43967/_509692/43967_509692015636219815231_300.jpg
