台帳ID,管理対象ID,名称,ふりがな,員数,棟名,文化財種類,種別1,種別2,国,時代,年代,西暦,構造及び形式等,その他参考となるべき事項,登録番号,登録回,登録告示年月日,登録年月日,追加年月日,重文指定年月日,国宝指定年月日,登録基準1,登録基準2,都道府県,所在地,保管施設の名称,所有者名,所有者種別,管理団体又は責任者,緯度,経度,解説文,画像URL
101,00000080,井上家住宅,いのうえけじゅうたく,1棟,,登録有形文化財(建造物),住宅,建築物,,江戸,江戸時代末期／昭和16移築,1830-1867／1941移築,木造平屋建、瓦葺、建築面積231㎡,,30 － 0001,1,1996.12.26(平成8.12.26),1996.12.20(平成8.12.20),,19961220,,再現することが容易でないもの,,和歌山県,和歌山県和歌山市北野620-1,,,,,34.27351732000000,135.24756919000000,元は和歌山市永穂にあった農家を移築したもの。１階は四間取形式で西側に土間を設けている。屋根は入母屋造本瓦葺で，正面に２間の玄関を設ける豪壮な建物である。和歌山市北部の庄屋宅を代表する住宅であり，外観の城郭風の壁等に技能の高さがうかがえる。,https://bunka.nii.ac.jp/heritage/43967/_101070/43967_101070521380571806267_300.jpg
101,00000223,御前家住宅主屋,みさきけじゅうたくしゅおく,1棟,,登録有形文化財(建造物),住宅,建築物,,昭和前,昭和10～13,1935-1938,木造平屋建，瓦葺，建築面積185㎡,,30 － 0002,3,1997.06.24(平成9.06.24),1997.06.12(平成9.06.12),,19970612,,造形の規範となっているもの,,和歌山県,和歌山県和歌山市茶屋ノ丁1,,,,,34.22297000000000,135.16860000000000,和歌山城に程近い市街地に建つ木造の住宅。平屋建だが庇屋根を廻して屋根を２重にする外観や丸太を用いる内装に数寄屋造りの影響がみられることや洋風の応接間を持つこと等に、昭和初期に大規模邸宅にみられる特徴がよくあらわれている。,https://bunka.nii.ac.jp/heritage/43967/_101213/43967_101213111225010510779_300.jpg
101,00000224,御前家住宅台所棟,みさきけじゅうたくだいどころとう,1棟,,登録有形文化財(建造物),住宅,建築物,,昭和前,昭和10～13,1935-1938,木造平屋建，瓦葺，建築面積89㎡,,30 － 0003,3,1997.06.24(平成9.06.24),1997.06.12(平成9.06.12),,19970612,,造形の規範となっているもの,,和歌山県,和歌山県和歌山市茶屋ノ丁1,,,,,34.22306000000000,135.16850000000000,主屋と同時期にあわせて建設された建物で、食堂・炊事場等からなる。平屋建、寄棟造の簡素なつくりで、数寄屋造風の豪壮な主屋と好対照をなしている。接客部と台所棟を別棟で建てる江戸時代の武家住宅の系譜を引く昭和初期の邸宅の様子を示す好例である。,https://bunka.nii.ac.jp/heritage/43967/_101214/43967_101214111225010511284_300.jpg
101,00000225,御前家住宅土蔵,みさきけじゅうたくどぞう,1棟,,登録有形文化財(建造物),住宅,建築物,,昭和前,昭和10～13,1935-1938,土蔵造2階建，瓦葺，建築面積33㎡,,30 － 0004,3,1997.06.24(平成9.06.24),1997.06.12(平成9.06.12),,19970612,,国土の歴史的景観に寄与しているもの,,和歌山県,和歌山県和歌山市茶屋ノ丁1,,,,,34.22305000000000,135.16840000000000,主屋・台所棟と同時期にあわせて建設された２階建の土蔵で、裏通りに面して妻を見せる。和歌山城下の、城に近い位置にある上級武家住宅の系譜を引く民家の屋敷構えを構成する主要な建物で、この地の往事の様子を知る手がかりとなる建物である。,https://bunka.nii.ac.jp/heritage/43967/_101215/43967_101215111225010511538_300.jpg
101,00000302,郭家住宅（旧郭百甫医院）洋館,かくけじゅうたく（きゅうかくひゃくすけいいん）ようかん,1棟,,登録有形文化財(建造物),文化福祉,建築物,,明治,明治6,1873,木造2階建，瓦葺，建築面積50㎡,,30 － 0005,5,1997.09.16(平成9.09.16),1997.09.03(平成9.09.03),,19970903,,国土の歴史的景観に寄与しているもの,,和歌山県,和歌山県和歌山市今福1-6-6,,,,,34.21515542000000,135.16635106000000,代々紀州藩の御典医であった郭家が，明治になって自宅に建てたコロニアルスタイルの洋風建築。１階は，薬局や待合室等を兼ね右側に応接室が付属する。外観はバルコニーを設けた正面のみモルタル塗り，他は下見板張りとする独特の意匠で，広く親しまれている。,https://bunka.nii.ac.jp/heritage/43967/_101292/43967_101292329813802704516_300.jpg
101,00000303,郭家住宅（旧郭百甫医院）診察棟,かくけじゅうたく（きゅうかくひゃくすけいいん）しんさつとう,1棟,,登録有形文化財(建造物),文化福祉,建築物,,明治,明治6頃,1873頃,木造平屋建，瓦葺，建築面積53㎡,,30 － 0006,5,1997.09.16(平成9.09.16),1997.09.03(平成9.09.03),,19970903,,国土の歴史的景観に寄与しているもの,,和歌山県,和歌山県和歌山市今福1-6-6,,,,,34.21513017000000,135.16631125000000,洋館の背後に接続する平屋建ての和風建物。東西に連なる６畳大の診察室と４畳半の内診室は畳敷で，周囲に廊下が付属する。内診室脇には，内向きの玄関が取り付く。待合室の洋館と診察室の和風の対比が特徴的で，多くの人に親しまれている。,https://bunka.nii.ac.jp/heritage/43967/_101293/43967_101293717609990260622_300.jpg
101,00000304,郭家住宅（旧郭百甫医院）主屋,かくけじゅうたく（きゅうかくひゃくすけいいん）しゅおく,1棟,,登録有形文化財(建造物),住宅,建築物,,江戸,江戸時代末期,1830-1867,木造平屋建，瓦葺，建築面積68㎡,,30 － 0007,5,1997.09.16(平成9.09.16),1997.09.03(平成9.09.03),,19970903,,再現することが容易でないもの,,和歌山県,和歌山県和歌山市今福1-6-6,,,,,34.21518261000000,135.16620845000000,旧城下の一郭，落ち着いた住宅地に建つ主屋は，他家から譲渡移築されたものと伝える。８畳大の座敷と九畳の間，ナカンジョなどからなり，背後に一畳台目の茶室が付く。瀟洒な数寄屋造の技法に見るべきものがあり，御典医の居宅としての品格が保たれている。,https://bunka.nii.ac.jp/heritage/43967/_101294/43967_101294278039028045007_300.jpg
101,00000305,郭家住宅（旧郭百甫医院）離れ,かくけじゅうたく（きゅうかくひゃくすけいいん）はなれ,1棟,,登録有形文化財(建造物),住宅,建築物,,江戸,江戸時代末期,1830-1867,木造2階建，瓦葺，建築面積20㎡,,30 － 0008,5,1997.09.16(平成9.09.16),1997.09.03(平成9.09.03),,19970903,,国土の歴史的景観に寄与しているもの,,和歌山県,和歌山県和歌山市今福1-6-6,,,,,34.21522287000000,135.16630033000000,主屋の前面に建ち，主屋とは渡り廊下で接続する。木造２階建，寄棟造の小規模な建屋。主屋，診察棟とも前庭を囲う構成になる。内部は簡素な造りになり，２階へは小さな箱階段で上がる。外観は一部改修されているが，屋敷構えを知る一点景となっている。,https://bunka.nii.ac.jp/heritage/43967/_101295/43967_101295247060461018888_300.jpg
101,00000306,郭家住宅（旧郭百甫医院）土蔵,かくけじゅうたく（きゅうかくひゃくすけいいん）どぞう,1棟,,登録有形文化財(建造物),住宅,建築物,,江戸,江戸時代末期,1830-1867,土蔵造2階建，瓦葺，建築面積42㎡,,30 － 0009,5,1997.09.16(平成9.09.16),1997.09.03(平成9.09.03),,19970903,,国土の歴史的景観に寄与しているもの,,和歌山県,和歌山県和歌山市今福1-6-6,,,,,34.21522700000000,135.16639634000000,屋敷地の前方，洋館に隣接して建つ大壁造の土蔵。建ちはさほど高くないが，２階建とする。切石の土台に建ち，外壁は漆喰仕上げで屋根は置屋根とする。東妻側のみ腰に縦板を貼る。簡素な造りながら，洋館の佇まいと好対照をなした土蔵として知られる。,https://bunka.nii.ac.jp/heritage/43967/_101296/43967_101296361168205306294_300.jpg
101,00000307,郭家住宅（旧郭百甫医院）外便所,かくけじゅうたく（きゅうかくひゃくすけいいん）そとべんじょ,1棟,,登録有形文化財(建造物),住宅,建築物,,大正,大正14頃,1925頃,木造平屋建，瓦葺，建築面積2㎡,,30 － 0010,5,1997.09.16(平成9.09.16),1997.09.03(平成9.09.03),,19970903,,国土の歴史的景観に寄与しているもの,,和歌山県,和歌山県和歌山市今福1-6-6,,,,,34.21509589000000,135.16648512000000,敷地の東南角にあって，門の左手に続く石塀の内側に目隠し塀があり，その奥に建つきわめて小規模な建物。煉瓦を延べ石とし大小二つの便室に区分される。簡素な造りながら丁寧な仕上げとなる。屋敷地を構成する要素であるが，町中の生活習慣を知る上でも貴重。,https://bunka.nii.ac.jp/heritage/43967/_101297/43967_101297007135799802195_300.jpg
101,00000308,郭家住宅（旧郭百甫医院）石塀,かくけじゅうたく（きゅうかくひゃくすけいいん）いしべい,1棟,,登録有形文化財(建造物),住宅,その他工作物,,大正,大正14頃,1925頃,石塀，瓦葺，延長17.3m,,30 － 0011,5,1997.09.16(平成9.09.16),1997.09.03(平成9.09.03),,19970903,,国土の歴史的景観に寄与しているもの,,和歌山県,和歌山県和歌山市今福1-6-6,,,,,34.21513482000000,135.16648725000000,和歌山特産の緑泥片岩を素材に建築された石塀で，前面の道路に沿って設けられる。延長１７ｍ余りあり，門の親柱とも一体的な造作になる。門の両脇にはアーチの潜り門を付設する。素材の緑色の岩石が醸し出す独特の色合いは，地域の風情によく調和している。,https://bunka.nii.ac.jp/heritage/43967/_132550/43967_132550300405963000803_300.jpg
101,00000802,高野山霊宝館紫雲殿,こうやさんれいほうかんしうんでん,1棟,,登録有形文化財(建造物),宗教,建築物,,大正,大正9,1920,木造平屋建，銅板葺，建築面積226㎡,,30 － 0012,13,1998.09.25(平成10.09.25),1998.09.02(平成10.09.02),,19980902,,造形の規範となっているもの,,和歌山県,和歌山県伊都郡高野町高野山306,,公益財団法人高野山文化財保存会,,,34.21119000000000,135.58110000000000,高野山開創１１００年記念として計画された宝物館で，当初は右翼を含む日の字形の配置計画であった｡設計は大江新太郎と奥本吾市｡当地の厳しい気候条件を考慮して，宝蔵を除き木造漆喰塗とする。紫雲殿は正面奥に位置する単層切妻造の建物で正殿にあたる。,https://bunka.nii.ac.jp/heritage/43967/_101792/43967_101792111225011156174_300.jpg
101,00000803,高野山霊宝館玄関・北廊・中廊,こうやさんれいほうかんげんかん・きたろう・なかろう,1棟,,登録有形文化財(建造物),宗教,建築物,,大正,大正9,1920,木造平屋建，瓦葺，建築面積147㎡,,30 － 0013,13,1998.09.25(平成10.09.25),1998.09.02(平成10.09.02),,19980902,,造形の規範となっているもの,,和歌山県,和歌山県伊都郡高野町高野山306,,公益財団法人高野山文化財保存会,,,34.21138000000000,135.58110000000000,霊宝館の受付部で，中廊により紫雲殿と，北廊により放光閣と結ばれる。玄関は，正面３間の単層入母屋造，北廊・中廊は単層の吹放廊で，丸柱間に蔀戸風の腰羽目を付ける。基壇上に建つ紫雲殿と放光閣の寄り付き部の棟を上げ，流動感を生みだしているのが特徴。,https://bunka.nii.ac.jp/heritage/43967/_101793/43967_101793111225011156680_300.jpg
101,00000804,高野山霊宝館放光閣,こうやさんれいほうかんほうこうかく,1棟,,登録有形文化財(建造物),宗教,建築物,,大正,大正9,1920,木造平屋建，銅板葺，建築面積126㎡,,30 － 0014,13,1998.09.25(平成10.09.25),1998.09.02(平成10.09.02),,19980902,,造形の規範となっているもの,,和歌山県,和歌山県伊都郡高野町高野山306,,公益財団法人高野山文化財保存会,,,34.21138000000000,135.58080000000000,下層５間×５間，上層３間×３間の重層宝形造りで，下層は大斗・舟肘木，上層は出組の詰組とし，隅に尾垂木を付ける。西面後部を裳階付とし，内部に阿弥陀如来を納める。紫雲殿と同様，内部床はコルク張り，高窓の外側に鉄製の縦型ブラインドを設置する。,https://bunka.nii.ac.jp/heritage/43967/_101794/43967_101794111225011157193_300.jpg
101,00000805,高野山霊宝館南廊及西廊,こうやさんれいほうかんみなみろうおよびにしろう,1棟,,登録有形文化財(建造物),宗教,建築物,,大正,大正9,1920,木造平屋建，鉄板葺，建築面積203㎡,,30 － 0015,13,1998.09.25(平成10.09.25),1998.09.02(平成10.09.02),,19980902,,造形の規範となっているもの,,和歌山県,和歌山県伊都郡高野町高野山306,,公益財団法人高野山文化財保存会,,,34.21119000000000,135.58090000000000,紫雲殿の西面に発し，南西隅で矩折れ放光閣の南面に接続する梁間２１尺の廊で，南西隅に宝形の隅櫓を載せてヴォリュームのバランスをとっている点に特徴がある。南廊は古文書及び美術工芸品の，隅櫓部は大師関係品の，西廊は仏像彫刻の展示室に充てる。,https://bunka.nii.ac.jp/heritage/43967/_101795/43967_101795111225011158623_300.jpg
101,00000806,高野山霊宝館宝蔵,こうやさんれいほうかんほうぞう,1棟,,登録有形文化財(建造物),宗教,建築物,,大正,大正9,1920,鉄筋コンクリート造平屋建，銅板葺，建築面積96㎡,,30 － 0016,13,1998.09.25(平成10.09.25),1998.09.02(平成10.09.02),,19980902,,再現することが容易でないもの,,和歌山県,和歌山県伊都郡高野町高野山306,,公益財団法人高野山文化財保存会,,,34.21100000000000,135.58080000000000,この棟のみ鉄筋コンクリート造とする。桁行３６尺，梁間２４尺，建坪２４坪，寄棟屋根の収蔵庫で，校倉造の形式を有する。校倉形式の鉄筋コンクリート造建築としては最初のもので，大江新太郎設計になる明治神宮宝物殿（大正１０年）の習作と考えられる。,https://bunka.nii.ac.jp/heritage/43967/_101796/43967_101796111225011159136_300.jpg
101,00000885,旧橋本本陣池永家住宅主屋,きゅうはしもとほんじんいけながけじゅうたくしゅおく,1棟,,登録有形文化財(建造物),住宅,建築物,,江戸,享保16以前,1731以前,木造２階建，瓦葺，建築面積150㎡,,30 － 0017,14,1998.10.26(平成10.10.26),1998.10.09(平成10.10.09),,19981009,,国土の歴史的景観に寄与しているもの,,和歌山県,和歌山県橋本市橋本2-80-1,,,,,34.31631000000000,135.61480000000000,街道に面し，紀ノ川を背にした敷地に建つ。つし２階をもつ入母屋造，平入の町家で，屋根は本瓦葺であるが，当初茅葺であったものを宝暦２年に葺き替えたことが鬼瓦銘から知られる。建立年代の判明している町屋としては和歌山県下最古のもの。,https://bunka.nii.ac.jp/heritage/43967/_101875/43967_101875916383333471563_300.jpg
101,00000886,旧橋本本陣池永家住宅離座敷,きゅうはしもとほんじんいけながけじゅうたくはなれざしき,1棟,,登録有形文化財(建造物),住宅,建築物,,江戸,江戸後期,1751-1829,木造平屋建，瓦葺，建築面積96㎡,,30 － 0018,14,1998.10.26(平成10.10.26),1998.10.09(平成10.10.09),,19981009,,再現することが容易でないもの,,和歌山県,和歌山県橋本市橋本2-80-1,,,,,34.31611000000000,135.61470000000000,敷地の奥側，紀ノ川に面した位置に建つ。北の間，上之間など主要４室と，渡り廊下で結ばれた湯殿・雪隠などからなり，主屋とは別の渡り廊下で連絡されている。資料等から本陣として用いられていたことが明らかで，内装の質も高い。,https://bunka.nii.ac.jp/heritage/43967/_101876/43967_101876526350020859516_300.jpg
101,00000887,旧橋本本陣池永家住宅表門,きゅうはしもとほんじんいけながけじゅうたくおもてもん,1棟,,登録有形文化財(建造物),住宅,その他工作物,,江戸,江戸後期,1751-1829,木造四脚門，瓦葺，建築面積5.1㎡,,30 － 0019,14,1998.10.26(平成10.10.26),1998.10.09(平成10.10.09),,19981009,,国土の歴史的景観に寄与しているもの,,和歌山県,和歌山県橋本市橋本2-80-1,,,,,34.31631000000000,135.61470000000000,街道に面して主屋と土蔵に挟まれて建ち，本陣である離座敷への通路を構成している。形式は四脚門で，潜戸と脇壁に与力窓がつく。主屋，土蔵とともに橋本の古い町並みを今日に伝えるものとして広く親しまれている。,https://bunka.nii.ac.jp/heritage/43967/_101877/43967_101877035670772858709_300.jpg
101,00000888,旧橋本本陣池永家住宅土蔵,きゅうはしもとほんじんいけながけじゅうたくどぞう,1棟,,登録有形文化財(建造物),住宅,建築物,,江戸,江戸後期,1751-1829,木造２階建，瓦葺，建築面積51㎡,,30 － 0020,14,1998.10.26(平成10.10.26),1998.10.09(平成10.10.09),,19981009,,国土の歴史的景観に寄与しているもの,,和歌山県,和歌山県橋本市橋本2-80-1,,,,,34.31626000000000,135.61470000000000,紀ノ川に面した交通の要衝であり，江戸時代を通じて宿駅，商業地として栄えた橋本宿の，伊勢（大和）街道に面して平を見せて建つ土蔵である。一部に改造が見られるものの，街路に面した白壁が目を引く建物である。,https://bunka.nii.ac.jp/heritage/43967/_101878/43967_101878330025643505173_300.jpg
101,00001000,中筋家住宅主屋,なかすじけじゅうたくしゅおく,1棟,,登録有形文化財(建造物),住宅,建築物,,明治,明治20,1887,木造平屋建，瓦葺，建築面積205㎡,,30 － 0021,15,1998.12.25(平成10.12.25),1998.12.11(平成10.12.11),,19981211,,再現することが容易でないもの,,和歌山県,和歌山県和歌山市禰宜316,,,,,34.23045000000000,135.24970000000000,市内東部，紀ノ川南岸に広がる和佐地区にある。地区の大庄屋中筋家(住宅は重要文化財)から安政年間に分家した家で，主屋は大規模な平屋建，桟瓦葺の建物。せいの高い差鴨居，桜材の座敷縁などふんだんに良材を用いて高度な技能でつくられた建物である。,https://bunka.nii.ac.jp/heritage/43967/_101990/43967_101990111225011405992_300.jpg
101,00001001,中筋家住宅離れ座敷及び東蔵,なかすじけじゅうたくはなれざしきおよびひがしぐら,1棟,,登録有形文化財(建造物),住宅,建築物,,大正,大正期,1912-1925,木造平屋建，瓦葺，建築面積62㎡,,30 － 0022,15,1998.12.25(平成10.12.25),1998.12.11(平成10.12.11),,19981211,,国土の歴史的景観に寄与しているもの,,和歌山県,和歌山県和歌山市禰宜316,,,,,34.23055000000000,135.24970000000000,中筋家の屋敷地は，和佐地区から海南市へ向かう県道と県道から西に入った道に面した南東の角地にある。離れ座敷及び東蔵は，県道から入る道に北面して建つ。西側に６畳間２室をとり，東を什器蔵とする。広大な屋敷構えの主要な構成要素として貴重。,https://bunka.nii.ac.jp/heritage/43967/_101991/43967_101991111225011406252_300.jpg
101,00001002,中筋家住宅西蔵,なかすじけじゅうたくにしぐら,1棟,,登録有形文化財(建造物),住宅,建築物,,大正,大正期,1912-1925,木造平屋建，瓦葺，建築面積30㎡,,30 － 0023,15,1998.12.25(平成10.12.25),1998.12.11(平成10.12.11),,19981211,,国土の歴史的景観に寄与しているもの,,和歌山県,和歌山県和歌山市禰宜316,,,,,34.23056000000000,135.24970000000000,離れ座敷及び東蔵の西に隣接して，県道から入った道に北面して建つ。切妻造，平屋建，平入で，置屋根形式の土蔵で，道具蔵として使用されている。簡略な土蔵だが，腰板を張る外観は，離れ座敷及び東蔵と一連の意匠で，景観に配慮したつくりとなっている。,https://bunka.nii.ac.jp/heritage/43967/_101992/43967_101992111225011406757_300.jpg
101,00001003,中筋家住宅長屋門,なかすじけじゅうたくながやもん,1棟,,登録有形文化財(建造物),住宅,建築物,,明治,明治20頃,1887頃,木造平屋建，瓦葺，建築面積50㎡,,30 － 0024,15,1998.12.25(平成10.12.25),1998.12.11(平成10.12.11),,19981211,,国土の歴史的景観に寄与しているもの,,和歌山県,和歌山県和歌山市禰宜316,,,,,34.23032000000000,135.24980000000000,屋敷地の東側，県道に面して建つ平屋建，桟瓦葺の長屋門で北に屋根を低くした貯蔵庫が附属する。道路側からみると長屋門と貯蔵庫が大壁造・腰下見板張りの一連の意匠になり，和佐地区で有数の規模を誇る屋敷構えにふさわしい姿をみせている。,https://bunka.nii.ac.jp/heritage/43967/_101993/43967_101993111225011407264_300.jpg
101,00001004,中筋家住宅便益棟,なかすじけじゅうたくべんえきとう,1棟,,登録有形文化財(建造物),住宅,建築物,,明治,明治20,1887,木造平屋建，瓦葺，建築面積11㎡,,30 － 0025,15,1998.12.25(平成10.12.25),1998.12.11(平成10.12.11),,19981211,,国土の歴史的景観に寄与しているもの,,和歌山県,和歌山県和歌山市禰宜316,,,,,34.23046000000000,135.24990000000000,長屋門の北に建つ切妻造，平屋建，桟瓦葺の建物で，長屋門に附属する貯蔵庫との間に勝手口を設ける。内部は便所・風呂場・物置等からなる。外観の意匠を長屋門・同貯蔵庫とあわせ，屋根を貯蔵庫よりわずかに低くして景観上効果的な役割を果たしている。,https://bunka.nii.ac.jp/heritage/43967/_101994/43967_101994111225011407521_300.jpg
101,00001014,高野山大学図書館,こうやさんだいがくとしょかん,1棟,,登録有形文化財(建造物),学校,建築物,,昭和前,昭和4,1929,鉄筋コンクリート造地上３階地下１階建，建築面積569㎡,,30 － 0035,15,1998.12.25(平成10.12.25),1998.12.11(平成10.12.11),,19981211,,造形の規範となっているもの,,和歌山県,和歌山県伊都郡高野町高野山385,,学校法人高野山学園,,,34.21152000000000,135.58590000000000,３０万冊の仏教書を収蔵・公開する施設として武田五一の設計，清水組の施工により建設された。鉄筋コンクリート造地下室付３階建の質実な図書館建築で，正面中央玄関の左手を研究室，右手を閲覧室に充て，閲覧室の背後に内部５層の書庫を配する。,https://bunka.nii.ac.jp/heritage/43967/_102004/43967_102004111225011408658_300.jpg
101,00001337,上御殿本館,かみごてんほんかん,1棟,,登録有形文化財(建造物),産業3次,建築物,,明治,明治18,1885,木造2階建、瓦葺、建築面積197㎡,,30 － 0036,20,1999.10.28(平成11.10.28),1999.10.14(平成11.10.14),,19991014,,国土の歴史的景観に寄与しているもの,,和歌山県,和歌山県田辺市龍神村龍神42-1,,,,,33.95708504000000,135.56189866000000,紀州徳川家初代頼宣公の保護を受けた温泉別荘としての由緒をもつことで知られる。明治１７年類焼後の再建になるもので，日高川を背にし，旧国道に面して建つ。紀州藩御殿の系譜をひく総２階，入母屋屋根の旅館建築で，２階に床を一段あげた「御成間」をもつ。,https://bunka.nii.ac.jp/heritage/43967/_102327/43967_102327272090968475082_300.jpg
101,00002087,旧西本組本社ビル,きゅうにしもとぐみほんしゃびる,1棟,,登録有形文化財(建造物),産業3次,建築物,,昭和前,昭和2,1927,鉄筋コンクリート造3階建、建築面積82㎡,,30 － 0042,27,2000.12.20(平成12.12.20),2000.12.04(平成12.12.04),,20001204,,造形の規範となっているもの,,和歌山県,和歌山県和歌山市小野町3-43,,,,,34.23189000000000,135.16330000000000,ＲＣ造３階建。腰を花崗岩張，２，３階をタイル張とし，玄関部にはペディメントをイオニア式柱で支えたポーティコがとりつく。立面のデザインと細部の装飾はよく均整がとれ，建設会社旧本社ビルとしての風格をもつ。設計は早大出身で西本組に勤めた岩井信一。,https://bunka.nii.ac.jp/heritage/43967/_103077/43967_103077111225012528732_300.jpg
101,00002434,尾崎林太郎家住宅主屋,おざきりんたろうけじゅうたくしゅおく,1棟,,登録有形文化財(建造物),住宅,建築物,,大正,大正中期,1912-1925,木造2階建、瓦葺、建築面積131㎡,,30 － 0043,30,2001.10.29(平成13.10.29),2001.10.12(平成13.10.12),,20011012,,造形の規範となっているもの,,和歌山県,和歌山県海南市黒江字南ノ町598-1,,,,,34.16087048000000,135.20456348000000,尾崎家は江戸時代に大庄屋を務めた旧家で，明治時代より漆器問屋を営んだ。敷地中央に東面して建つ主屋は２階建，入母屋造，桟瓦葺である。内部構成は店舗と居室部からなり，良材を用いた丁寧なつくりで，玄関の漆塗格天井など格式の高い意匠を備える。,https://bunka.nii.ac.jp/heritage/43967/_103424/43967_103424463227804736761_300.jpg
101,00002435,尾崎林太郎家住宅座敷,おざきりんたろうけじゅうたくざしき,1棟,,登録有形文化財(建造物),住宅,建築物,,江戸,江戸中期／大正中期改造,1661-1750／1912-1925改造,木造2階建、瓦葺、建築面積128㎡,,30 － 0044,30,2001.10.29(平成13.10.29),2001.10.12(平成13.10.12),,20011012,,造形の規範となっているもの,,和歌山県,和歌山県海南市黒江598,,,,,34.16079000000000,135.20450000000000,主屋背面の西側にあり，平屋建，入母屋造，桟瓦葺で，北面と西面に土庇を廻す。大正中期の屋敷整備に伴い，巧みに平面が主屋と接続する。ザシキ廻りは江戸中期頃と思われ，床・棚・付書院など整った数寄屋風意匠でまとめられ，板欄間など繊細な造形である。,https://bunka.nii.ac.jp/heritage/43967/_103425/43967_103425111225012911466_300.jpg
101,00002436,尾崎林太郎家住宅三階蔵,おざきりんたろうけじゅうたくさんかいぐら,1棟,,登録有形文化財(建造物),産業3次,建築物,,大正,大正13,1924,土蔵造3階建、瓦葺、建築面積64㎡,,30 － 0045,30,2001.10.29(平成13.10.29),2001.10.12(平成13.10.12),,20011012,,造形の規範となっているもの,,和歌山県,和歌山県海南市黒江598,,,,,34.16096000000000,135.20460000000000,尾崎家は海上輸送の要所であった黒江川沿いの荷揚場南に位置している。三階蔵は漆器商品を収蔵し，東側道路に面した長屋門と主屋との間に建つ。東西棟の切妻造，桟瓦葺，内部は三層で，建ちも高く，商家に相応しいつくりである。上棟式の御幣より年代が判る。,https://bunka.nii.ac.jp/heritage/43967/_103426/43967_103426111225012911979_300.jpg
101,00002437,尾崎林太郎家住宅前蔵,おざきりんたろうけじゅうたくまえぐら,1棟,,登録有形文化財(建造物),住宅,建築物,,大正,大正13頃,1924頃,土蔵造2階建、瓦葺、建築面積92㎡,,30 － 0046,30,2001.10.29(平成13.10.29),2001.10.12(平成13.10.12),,20011012,,造形の規範となっているもの,,和歌山県,和歌山県海南市黒江字南ノ町598-1,,,,,34.16071680000000,135.20463936000000,約５００坪の広大な屋敷地の南辺にあり，三階蔵と同時期に建てられたと思われる。三階蔵より大きく，東西棟の切妻造，桟瓦葺で，内部は二層とする。両妻側の梁で棟木を受け，太い垂木を架けた小屋構造や，妻壁の通風の丸窓など，当地域に共通する手法を持つ。,https://bunka.nii.ac.jp/heritage/43967/_103427/43967_103427623055836210886_300.jpg
101,00002438,池庄漆器店主屋,いけしょうしっきてんしゅおく,1棟,,登録有形文化財(建造物),産業3次,建築物,,江戸,江戸後期,1751-1829,木造2階建、瓦葺、建築面積123㎡,,30 － 0047,30,2001.10.29(平成13.10.29),2001.10.12(平成13.10.12),,20011012,,国土の歴史的景観に寄与しているもの,,和歌山県,和歌山県海南市黒江692,,,,,34.16143000000000,135.20460000000000,江戸後期より続く漆器問屋の一つで，敷地は正面が小路に，背面が黒江の中心街区の川端通りに接する。小路に面する主屋は切妻造，２階建で，背面に平屋建の角屋を延ばす。建物高が全体的に低い構成で，重厚な本瓦葺屋根をあげ，近世の町並み景観を伝えている。,https://bunka.nii.ac.jp/heritage/43967/_103428/43967_103428111225012913595_300.jpg
101,00002566,旧葛城館,きゅうかつらぎかん,1棟,,登録有形文化財(建造物),産業3次,建築物,,明治,明治後期,1868-1911,木造3階建、瓦葺、建築面積113㎡,,30 － 0048,31,2001.12.04(平成13.12.04),2001.11.20(平成13.11.20),,20011120,,国土の歴史的景観に寄与しているもの,,和歌山県,和歌山県橋本市高野口町名倉1053,,,,,34.30740000000000,135.55690000000000,ＪＲ和歌山線高野口駅前に北面して建つ。桁行５間半，梁間５間規模の総３階建で，東西棟，入母屋造，桟瓦葺とし，正面及び東側面には銅板葺の庇を各階に廻し，屋根正面には瓦葺の千鳥破風と銅板葺の唐破風を重ねる。木造３階建和風旅館建築の一事例。,https://bunka.nii.ac.jp/heritage/43967/_103556/43967_103556111225013025189_300.jpg
101,00003297,湯浅小学校講堂,ゆあさしょうがっこうこうどう,1棟,,登録有形文化財(建造物),学校,建築物,,昭和前,昭和11,1936,鉄骨造平屋建、瓦葺、建築面積978㎡,,30 － 0049,36,2003.04.08(平成15.04.08),2003.03.18(平成15.03.18),,20030318,,造形の規範となっているもの,,和歌山県,和歌山県有田郡湯浅町湯浅1570,,湯浅町,,,34.03548000000000,135.18130000000000,鉄骨造の講堂。内部は後方に舞台と左右二室を設ける他は一室とする。正面ポーチには三連アーチを設け，左右の側面は柱型を見せた横板張に出目地を走らせ，上部は平坦なモルタル塗りとする。凹凸のリズミカルな側面と荘重な正面の対比で特徴的な外観を見せる。,https://bunka.nii.ac.jp/heritage/43967/_104287/43967_104287111225013800371_300.jpg
101,00003584,樫野埼灯台旧官舎,かしのざきとうだいきゅうかんしゃ,1棟,,登録有形文化財(建造物),交通,建築物,,明治,明治3,1870,石造平屋建、鉄板葺、建築面積162㎡,,30 － 0050,38,2003.10.17(平成15.10.17),2003.09.19(平成15.09.19),,20030919,,造形の規範となっているもの,,和歌山県,和歌山県東牟婁郡串本町樫野字尾崎1006-1,,串本町,,,33.47142502000000,135.86161014000000,紀伊半島南端部の紀伊大島に築かれる。桁行約１３ｍ，梁間約９．４ｍ規模の石造，寄棟造で，平側中央部に入口，縦長窓を左右対称に配した主体部の東西両側面に，一部外壁に接続する張出部を設ける。神子元灯台官舎と共にわが国最初期のブラントン灯台の官舎。,https://bunka.nii.ac.jp/heritage/43967/_104574/43967_104574706824276738299_300.jpg
101,00003904,みそや別館主屋,みそやべっかんしゅおく,1棟,,登録有形文化財(建造物),住宅,建築物,,明治,明治17,1884,木造2階建、瓦葺、建築面積126㎡,,30 － 0051,40,2004.03.04(平成16.03.04),2004.02.17(平成16.02.17),,20040217,,造形の規範となっているもの,,和歌山県,和歌山県橋本市橋本一丁目1006,,,,,34.31656301000000,135.61194149000000,伊勢街道に南面する呉服店の主屋。２階建，切妻造，桟瓦葺で，屋根をコの字型にかけ西半は中庭をとって表屋造風となる。２階には瀟洒な床棚を構え，長押を省略した数寄屋風の座敷を配し，緩い起り屋根，虫籠窓風の表２階の窓等，京風町家の外観を巧みに造る。,https://bunka.nii.ac.jp/heritage/43967/_104894/43967_104894487525826288965_300.jpg
101,00003905,みそや別館上蔵及び離れ座敷,みそやべっかんかみぐらおよびはなれざしき,1棟,,登録有形文化財(建造物),住宅,建築物,,明治,明治中期,1868-1911,土蔵造2階建、瓦葺、建築面積66㎡,,30 － 0052,40,2004.03.04(平成16.03.04),2004.02.17(平成16.02.17),,20040217,,国土の歴史的景観に寄与しているもの,,和歌山県,和歌山県橋本市橋本一丁目1006,,,,,34.31668005000000,135.61201370000000,主屋の背後に建つ。上蔵は２階建，土蔵造，切妻造，妻入の道具蔵で，南に蔵前を設け，軒に大型の鉢巻を廻し戸口に屋号を塗り込んだ観音開土戸を釣り込む。西の離れ座敷は床付の数寄屋風座敷と仏間からなり，両建物を巧みに一体化して屋敷背後の構えを整える。,https://bunka.nii.ac.jp/heritage/43967/_104895/43967_104895700414963300595_300.jpg
101,00003906,みそや別館下蔵,みそやべっかんしもぐら,1棟,,登録有形文化財(建造物),住宅,建築物,,江戸,文化5,1808,土蔵造2階建、瓦葺、建築面積30㎡,,30 － 0053,40,2004.03.04(平成16.03.04),2004.02.17(平成16.02.17),,20040217,,造形の規範となっているもの,,和歌山県,和歌山県橋本市橋本一丁目1006,,,,,34.31669426000000,135.61190974000000,離れ座敷西方に独立して建つ。土蔵造，２階建，切妻造，平入で，南面戸前に庇を付ける。内部は１階全面土間で，味噌蔵または道具蔵として使用された。小規模で簡素な土蔵だが，開口部の入念な塗り廻しや垂木を波形に塗り込めた軒廻りなど丁寧なつくりになる。,https://bunka.nii.ac.jp/heritage/43967/_104896/43967_104896248555758629397_300.jpg
101,00003907,小林家住宅主屋,こばやしけじゅうたくしゅおく,1棟,,登録有形文化財(建造物),住宅,建築物,,江戸,江戸末期,1830-1867,木造2階建、瓦葺、建築面積172㎡,,30 － 0054,40,2004.03.04(平成16.03.04),2004.02.17(平成16.02.17),,20040217,,国土の歴史的景観に寄与しているもの,,和歌山県,和歌山県橋本市古佐田1-237、247,,,,,34.31707000000000,135.61270000000000,集落中央を東西に貫く通りの西端突当りに位置する。入母屋造，平入の町家で，下手に通り土間，床上部は田の字形に４室を配し，背後に角屋を延ばし炊事場とする。１階正面に繊細な格子を入れ，塗込のつし２階正面に虫籠窓を開け，町並の核として外観を整える。,https://bunka.nii.ac.jp/heritage/43967/_104897/43967_104897111225014445124_300.jpg
101,00003908,小林家住宅土蔵,こばやしけじゅうたくどぞう,1棟,,登録有形文化財(建造物),住宅,建築物,,明治,明治中期,1868-1911,土蔵造2階建、瓦葺、建築面積72㎡,,30 － 0055,40,2004.03.04(平成16.03.04),2004.02.17(平成16.02.17),,20040217,,国土の歴史的景観に寄与しているもの,,和歌山県,和歌山県橋本市古佐田1-237、247,,,,,34.31714000000000,135.61260000000000,主屋背後に建つ。棟高，軒高の異なる平入３棟が南北に連なる形式で，最も高い北端につし２階を設ける。内部は南端を土間，その北に床を張り家財や穀類の貯蔵に使われた。特異な屋根の納まり，腰部海鼠壁による変化に富む外観は，屋敷背面の景観を特徴付ける。,https://bunka.nii.ac.jp/heritage/43967/_104898/43967_104898111225014446388_300.jpg
101,00004285,火伏医院主屋,ひぶせいいんしゅおく,1棟,,登録有形文化財(建造物),産業3次,建築物,,江戸,享保6／江戸末期改造,1721／1830-1867改造,木造平屋一部2階建、瓦葺、建築面積101㎡,,30 － 0056,43,2004.08.17(平成16.08.17),2004.07.23(平成16.07.23),,20040723,,造形の規範となっているもの,,和歌山県,和歌山県橋本市橋本1-16、1-17,,,,,34.31635000000000,135.61200000000000,旧伊勢街道に北面して建つ。間口８間規模，切妻造，桟瓦葺，平入のつし２階建町家で，西側を中土間とし，東側の２室続きの座敷部は落棟で，江戸末期の改築とみられる。棟札から年代の判明する町家で，当地方町家の指標的建築として貴重,https://bunka.nii.ac.jp/heritage/43967/_105275/43967_105275111225014845772_300.jpg
101,00004286,火伏医院病院棟,ひぶせいいんびょういんとう,1棟,,登録有形文化財(建造物),文化福祉,建築物,,大正,大正末期,1912-1925,木造2階建、瓦葺、建築面積49㎡,,30 － 0057,43,2004.08.17(平成16.08.17),2004.07.23(平成16.07.23),,20040723,,国土の歴史的景観に寄与しているもの,,和歌山県,和歌山県橋本市橋本1-16、1-17,,,,,34.31638000000000,135.61190000000000,主屋の西に位置し，街道から退いて建つ。６．７ｍ角の平面規模，木造２階建，下見板張で，屋根は桟瓦葺とし正面側を寄棟，背面側を切妻につくる。紀ノ川の洪水に配慮して１．３ｍ程の高床としている点に特徴があり，橋本の町並みのランドマークとなっている。,https://bunka.nii.ac.jp/heritage/43967/_105276/43967_105276111225014846297_300.jpg
101,00004287,前田家住宅主屋,まえだけじゅうたくしゅおく,1棟,,登録有形文化財(建造物),産業3次,建築物,,江戸,江戸後期,1751-1829,木造平屋建、瓦葺、建築面積152㎡,,30 － 0058,43,2004.08.17(平成16.08.17),2004.07.23(平成16.07.23),,20040723,,造形の規範となっているもの,,和歌山県,和歌山県橋本市高野口町名倉392-1,,,,,34.30517000000000,135.55570000000000,通りに北面して建つ。桁行６間梁間４間，切妻造，桟瓦葺のつし２階建町家で，軒下まで塗込めて重厚な外観をつくり，正側面３面に半間，背面に１間の下屋庇を廻す。内部は西側を中土間，東側床上部は四間取りとし，土間上部背面側に煙出しを揚げる。,https://bunka.nii.ac.jp/heritage/43967/_105277/43967_105277111225014846809_300.jpg
101,00004288,前田家住宅中書院,まえだけじゅうたくなかしょいん,1棟,,登録有形文化財(建造物),住宅,建築物,,明治,明治中期,1868-1911,木造平屋建、瓦葺、建築面積53㎡,,30 － 0059,43,2004.08.17(平成16.08.17),2004.07.23(平成16.07.23),,20040723,,造形の規範となっているもの,,和歌山県,和歌山県橋本市高野口町名倉392-1,,,,,34.30505000000000,135.55570000000000,主屋の東南方に位置し，東西棟で建つ。桁行３間半梁間２間，入母屋造，桟瓦葺の平屋建で，四面に半間の下屋庇を廻す。内部は８畳と床付き６畳の２室構成になり，南面下屋は押入と床，他３面は板縁とし，主屋と渡廊下で繋がる。良材を用いた上質な離れ座敷。,https://bunka.nii.ac.jp/heritage/43967/_105278/43967_105278111225014848130_300.jpg
101,00004289,前田家住宅新書院,まえだけじゅうたくしんしょいん,1棟,,登録有形文化財(建造物),住宅,建築物,,大正,大正5／昭和30曳家,1916／1955曳家,木造平屋建、瓦葺、建築面積83㎡,,30 － 0060,43,2004.08.17(平成16.08.17),2004.07.23(平成16.07.23),,20040723,,造形の規範となっているもの,,和歌山県,和歌山県橋本市高野口町名倉392-1,,,,,34.30499000000000,135.55570000000000,中書院の南に位置する。東を入母屋造，西を切妻造とした東西棟，桟瓦葺，平屋建の客用座敷で，内部は西から６畳の式台玄関，１０畳，床・棚・付書院を備えた１２畳半座敷を並べ，東南２面の下屋に半間の板縁を廻す。式台・床等，格の高さを示すつくりに特徴。,https://bunka.nii.ac.jp/heritage/43967/_105279/43967_105279111225014848645_300.jpg
101,00004290,前田家住宅土蔵,まえだけじゅうたくどぞう,1棟,,登録有形文化財(建造物),住宅,建築物,,江戸,江戸末期,1830-1867,土蔵造2階建、瓦葺、建築面積79㎡,,30 － 0061,43,2004.08.17(平成16.08.17),2004.07.23(平成16.07.23),,20040723,,国土の歴史的景観に寄与しているもの,,和歌山県,和歌山県橋本市高野口町名倉392-1,,,,,34.30486000000000,135.55570000000000,敷地南端に北面し，東西棟で建つ。桁行７間梁間３間，切妻造，本瓦葺の２階建土蔵で，北面に半間の土庇を差し掛け，２戸口を設ける。内部は２室とし，東３間分が什器蔵，西４間分の１階が米蔵，２階が衣裳蔵で，現在は一部をギャラリーとして活用している。,https://bunka.nii.ac.jp/heritage/43967/_105280/43967_105280111225014849158_300.jpg
101,00004383,双青閣,そうせいかく,1棟,,登録有形文化財(建造物),住宅,建築物,,大正,大正9／昭和43移築,1920／1968移築,木造2階建、瓦葺一部鉄板葺、建築面積144㎡,,30 － 0062,44,2004.11.29(平成16.11.29),2004.11.08(平成16.11.08),,20041108,,造形の規範となっているもの,,和歌山県,和歌山県海南市阪井字西青田806,,海南市,,,34.15526000000000,135.26100000000000,紀伊徳川家１５代頼倫が邸宅の一部として創建し，亀池中島に移築された。木造２階建，入母屋造，桟瓦葺で１階に庇がつく。方４間半の四周に縁が巡り，北西に玄関，東に階段を突出させる。１階に４室，２階に６室を配し，２階南西の１０畳を主座敷とする。,https://bunka.nii.ac.jp/heritage/43967/_105373/43967_105373111225014948253_300.jpg
101,00004384,河野家住宅主屋,かわのけじゅうたくしゅおく,1棟,,登録有形文化財(建造物),住宅,建築物,,明治,明治前期,1868-1911,木造平屋建、瓦葺、建築面積189㎡,,30 － 0063,44,2004.11.29(平成16.11.29),2004.11.08(平成16.11.08),,20041108,,国土の歴史的景観に寄与しているもの,,和歌山県,和歌山県紀の川市赤尾179,,,,,34.27258000000000,135.37970000000000,東西に長い敷地の中央に建つ。桁行７間梁間４間規模の木造平屋建で，東に土間，西に２列６室の居室を配す。屋根は入母屋造，桟瓦葺で，四周に下屋庇を巡らす。南面に突出した式台玄関は出桁を用い軒が深い。西端は８畳２室の座敷で，北面に床と書院を飾る。,https://bunka.nii.ac.jp/heritage/43967/_105374/43967_105374191744192691559_300.jpg
101,00004385,河野家住宅離れ座敷,かわのけじゅうたくはなれざしき,1棟,,登録有形文化財(建造物),住宅,建築物,,大正,大正期,1912-1925,木造平屋建、瓦葺、建築面積74㎡,,30 － 0064,44,2004.11.29(平成16.11.29),2004.11.08(平成16.11.08),,20041108,,国土の歴史的景観に寄与しているもの,,和歌山県,和歌山県紀の川市赤尾179,,木村道明,,,34.27261000000000,135.37960000000000,主屋の西に渡廊下で接続する木造平屋建，桁行５間半梁間２間半の南北棟である。屋根は入母屋造，桟瓦葺で四周に瓦葺庇を巡らす。座敷１２畳半は北面に床と棚，東に附書院を飾り，次の間１０畳は西に床を設ける。東から南に巡らせた縁にガラス障子を建て込む。,https://bunka.nii.ac.jp/heritage/43967/_105375/43967_105375747822341500766_300.jpg
101,00004386,河野家住宅表門,かわのけじゅうたくおもてもん,1棟,,登録有形文化財(建造物),住宅,その他工作物,,大正,大正期,1912-1925,木造、瓦葺、間口4.5m,,30 － 0065,44,2004.11.29(平成16.11.29),2004.11.08(平成16.11.08),,20041108,,国土の歴史的景観に寄与しているもの,,和歌山県,和歌山県紀の川市赤尾179,,,,,34.27248000000000,135.37980000000000,敷地の南面中央からやや東寄りに開く門。間口１５尺の薬医門で，屋根は切妻造，本瓦葺とする。中央間に両開きの門扉を釣り込み，両脇間に潜り戸を設ける。木柄が太く扉板も幅広で，木製の蹴放ちが遺るのも貴重。石造の袖塀と門前の石敷が重厚な構えをなす。,https://bunka.nii.ac.jp/heritage/43967/_105376/43967_105376499172306567544_300.jpg
101,00004387,栖原角兵衛屋敷主屋,すはらかくべえやしきしゅおく,1棟,,登録有形文化財(建造物),住宅,建築物,,江戸,寛政9,1797,木造平屋建、瓦葺、建築面積311㎡,,30 － 0066,44,2004.11.29(平成16.11.29),2004.11.08(平成16.11.08),,20041108,,国土の歴史的景観に寄与しているもの,,和歌山県,和歌山県有田郡湯浅町栖原913-1,,,,,34.04211000000000,135.16430000000000,敷地の南西に南面して建つ木造平屋建で，桁行５間梁行５間半。屋根は切妻造，本瓦葺で，表に本瓦葺の下屋庇を付ける。東が土間，床上は板間と８畳２室で，西に８畳座敷を突出させる。土間の東に落棟，北に炊事場の土間が付属する。建設年は棟札による。,https://bunka.nii.ac.jp/heritage/43967/_105377/43967_105377111225014950043_300.jpg
101,00004388,栖原角兵衛屋敷土蔵,すはらかくべえやしきどぞう,1棟,,登録有形文化財(建造物),住宅,建築物,,江戸,江戸末期,1830-1867,土蔵造2階建、瓦葺、建築面積40㎡,,30 － 0067,44,2004.11.29(平成16.11.29),2004.11.08(平成16.11.08),,20041108,,国土の歴史的景観に寄与しているもの,,和歌山県,和歌山県有田郡湯浅町栖原913-3,,,,,34.04205000000000,135.16460000000000,主屋の東方，敷地の南東角に位置する土蔵造２階建の東西棟で，屋根は切妻造，本瓦葺である。外壁は白漆喰塗で，腰を縦羽目板張とするが，南面の腰部を除き波形鉄板で覆っている。北面に戸口を設けて片引の土戸を建て込み，南面の１，２階に窓を開いている。,https://bunka.nii.ac.jp/heritage/43967/_105378/43967_105378111225014952300_300.jpg
101,00004389,栖原角兵衛屋敷土塀,すはらかくべえやしきどべい,1棟,,登録有形文化財(建造物),住宅,その他工作,,江戸,江戸末期,1830-1867,土塀、瓦葺、延長42m,,30 － 0068,44,2004.11.29(平成16.11.29),2004.11.08(平成16.11.08),,20041108,,国土の歴史的景観に寄与しているもの,,和歌山県,和歌山県有田郡湯浅町栖原913-1、3,,,,,34.04205000000000,135.16410000000000,敷地の南辺を限る土塀。主屋玄関前のもと表門から東方１８ｍと，西方折れ曲がり２４ｍが残る。石を詰めて土を塗り，白漆喰仕上とする。屋根は本瓦葺である。土蔵との取付部分は一段高くして虫籠窓風の窓を開き，腰部を土蔵と一連の縦羽目板張とする。,https://bunka.nii.ac.jp/heritage/43967/_105379/43967_105379111225014952831_300.jpg
101,00004603,日本聖公会橋本基督教会旧礼拝堂,にほんせいこうかいはしもときりすときょうかいきゅうれいはいどう,1棟,,登録有形文化財(建造物),宗教,建築物,,明治,明治初期／明治33移築改造,1868-1911／1900移築改造,木造平屋建、瓦葺、建築面積162㎡,,30 － 0069,45,2005.02.28(平成17.02.28),2005.02.09(平成17.02.09),,20050209,,造形の規範となっているもの,,和歌山県,和歌山県橋本市古佐田1-244,,宗教法人日本聖公会京都教区,,,34.31691000000000,135.61250000000000,もと奈良県吉野にあった明治初期建築の民家。平屋建，切妻造，桟瓦葺で，平面は４間取になる。床上４室が牧師の執務と居住の用に供せられ，移築時に床を張った土間が礼拝堂になる。伝統的な民家の形式を保持しつつ，教会堂に転換された数少ない事例のひとつ。,https://bunka.nii.ac.jp/heritage/43967/_105593/43967_105593111225015405943_300.jpg
101,00004605,泉家住宅座敷,いずみけじゅうたくざしき,1棟,,登録有形文化財(建造物),住宅,建築物,,明治,明治37,1904,木造平屋建、瓦葺、建築面積75㎡,,30 － 0071,45,2005.02.28(平成17.02.28),2005.02.09(平成17.02.09),,20050209,,造形の規範となっているもの,,和歌山県,和歌山県有田郡広川町大字広字中ノ町1227,,,,,34.02566983000000,135.17184011000000,当家８代目の平兵衛が客用座敷として建設した。平屋建，切妻造，下屋庇付，桟瓦葺で，内部は１０畳の主室，９畳の次の間，玄関等からなり，各室とも天井が高い。全体に上質の材を用い，床・棚等の構えから欄間等の造作まで，繊細で丁寧なつくりになっている。,https://bunka.nii.ac.jp/heritage/43967/_105595/43967_105595258554302012101_300.jpg
101,00004811,旧加太警察署庁舎（中村家住宅主屋）,きゅうかだけいさつしょちょうしゃ（なかむらけじゅうたくしゅおく）,1棟,,登録有形文化財(建造物),官公庁舎,建築物,,大正,大正10頃,1921頃,木造2階建、瓦葺、建築面積86㎡,,30 － 0072,46,2005.08.02(平成17.08.02),2005.07.12(平成17.07.12),,20050712,,造形の規範となっているもの,,和歌山県,和歌山県和歌山市加太1204,,,,,34.27543000000000,135.07640000000000,木造２階建，下見板張の洋風警察署庁舎。寄棟造，桟瓦葺で，正面は両翼を突出させ，中央上部にペディメントを付け，翼部との間に配した屋根窓もペディメント風とするなど正面性を強めた造形意匠に特色。窓枠等の簡略化された造作は大正期建築の特徴を伝える。,https://bunka.nii.ac.jp/heritage/43967/_105801/43967_105801111225015934033_300.jpg
101,00004812,楠本家住宅主屋,くすもとけじゅうたくしゅおく,1棟,,登録有形文化財(建造物),住宅,建築物,,明治,明治中期,1868-1911,木造2階建、瓦葺、建築面積117㎡,,30 － 0073,46,2005.08.02(平成17.08.02),2005.07.12(平成17.07.12),,20050712,,造形の規範となっているもの,,和歌山県,和歌山県橋本市清水123,,,,,34.30844000000000,135.60400000000000,旧高野街道に北面して建つ。周囲に下屋を廻した入母屋造，桟瓦葺のつし２階建で，内部は東方を土間とした四間取形式とする。外壁は黒漆喰仕上げの大壁とし，垂木までを塗込めた防火的なつくりが特徴的で，つし２階正面両隅の円弧状付柱の意匠にも見所がある。,https://bunka.nii.ac.jp/heritage/43967/_105802/43967_105802111225015935084_300.jpg
101,00004813,楠本家住宅離座敷,くすもとけじゅうたくはなれざしき,1棟,,登録有形文化財(建造物),住宅,建築物,,明治,明治前期,1868-1911,木造平屋建、瓦葺、建築面積68㎡,,30 － 0074,46,2005.08.02(平成17.08.02),2005.07.12(平成17.07.12),,20050712,,造形の規範となっているもの,,和歌山県,和歌山県橋本市清水123,,,,,34.30831000000000,135.60390000000000,主屋の南方に位置する。６畳・床付８畳・６畳をＬ字形に配した平面をもち，屋根は主屋側の北妻を入母屋造，南妻を寄棟造，東妻を切妻造に納め，東・北・西の３面に縁を廻らす。外部は軒裏を塗込た丁寧なつくりで，内部も吟味された良材を用いた上質なつくり。,https://bunka.nii.ac.jp/heritage/43967/_105803/43967_105803111225015936844_300.jpg
101,00004814,楠本家住宅土蔵,くすもとけじゅうたくどぞう,1棟,,登録有形文化財(建造物),住宅,建築物,,明治,明治初期,1868-1911,土蔵造2階建、瓦葺、建築面積27㎡,,30 － 0075,46,2005.08.02(平成17.08.02),2005.07.12(平成17.07.12),,20050712,,国土の歴史的景観に寄与しているもの,,和歌山県,和歌山県橋本市清水123,,,,,34.30826000000000,135.60400000000000,離座敷の東南方に位置し，南北棟で建つ。桁行３間半梁間２間，切妻造，桟瓦葺，妻入の２階建土蔵で，北妻面の西寄りに縁取り付きの開口をとり，片引の大戸形式の戸口を設ける。２階の西面と南面に小さな窓を開ける。屋敷構えに欠くことのできない建造物。,https://bunka.nii.ac.jp/heritage/43967/_105804/43967_105804111225015937704_300.jpg
101,00004815,楠本家住宅納屋,くすもとけじゅうたくなや,1棟,,登録有形文化財(建造物),住宅,建築物,,江戸,江戸末期,1830-1867,木造平屋建、瓦葺、建築面積89㎡,,30 － 0076,46,2005.08.02(平成17.08.02),2005.07.12(平成17.07.12),,20050712,,国土の歴史的景観に寄与しているもの,,和歌山県,和歌山県橋本市清水123,,,,,34.30822000000000,135.60390000000000,敷地南辺一杯に東西棟で建つ。桁行１２間半梁行２間，入母屋造，桟瓦葺の平屋建で，小路に面する南面東寄りに門口をとり，その東側を薪小屋，西側を３室に分ける。外壁は北面の真壁造に対し，南面は大壁造で，腰縦板張，軒裏を塗込めて小路沿い景観を整える。,https://bunka.nii.ac.jp/heritage/43967/_105805/43967_105805111225015938499_300.jpg
101,00005026,島村家住宅主屋,しまむらけじゅうたくしゅおく,1棟,,登録有形文化財(建造物),住宅,建築物,,大正,大正15,1926,木造2階建、瓦葺、建築面積203㎡,,30 － 0077,47,2005.12.05(平成17.12.05),2005.11.10(平成17.11.10),,20051110,,造形の規範となっているもの,,和歌山県,和歌山県和歌山市堀止東1-1-6,,,,,34.21527000000000,135.17060000000000,木造２階建，寄棟造，桟瓦葺，外部モルタル塗の「あめりか屋」設計住宅。北面に玄関ポーチ，南面にパーゴラ付きテラスを設ける。外観は，ベイウィンドーや半円アーチの窓など洋風意匠を基本とするが，南面から東面にかけての１階を和風意匠とするのが特徴的。,https://bunka.nii.ac.jp/heritage/43967/_106016/43967_106016111225020425611_300.jpg
101,00005027,島村家住宅門及び塀,しまむらけじゅうたくもんおよびへい,1所,,登録有形文化財(建造物),住宅,その他工作,,大正,大正15,1926,門　コンクリート造、間口2.7m、塀　コンクリート造、延長55m,,30 － 0078,47,2005.12.05(平成17.12.05),2005.11.10(平成17.11.10),,20051110,,国土の歴史的景観に寄与しているもの,,和歌山県,和歌山県和歌山市堀止東1-1-6,,,,,34.21541000000000,135.17050000000000,敷地北辺の中央西寄りに，道路から退いた凹部に門を設ける。門の門口は１．８ｍで，木製の門扉を吊り，西側に潜口を開ける。塀は鉄筋コンクリート造，高さ２．０ｍで，下部鉄平石張，上部擬石タイル張，頂部笠石をモルタル塗に仕上げる。,https://bunka.nii.ac.jp/heritage/43967/_106017/43967_106017111225020428119_300.jpg
101,00005028,橋本警察署高野幹部交番,はしもとけいさつしょこうやかんぶこうばん,1棟,,登録有形文化財(建造物),官公庁舎,建築物,,大正,大正10,1921,木造2階建、銅板葺、建築面積110㎡,,30 － 0079,47,2005.12.05(平成17.12.05),2005.11.10(平成17.11.10),,20051110,,造形の規範となっているもの,,和歌山県,和歌山県伊都郡高野町大字高野山638,,和歌山県,,,34.21552000000000,135.58600000000000,木造２階建で，屋根は切妻造，銅板葺とし，正面中央に千鳥破風を配す。外部は真壁造に見せ，１階を板張，２階を漆喰塗とする。設計担当は県建築技師の松田茂樹。舟肘木・間斗束・蟇股や妻の豕扠首など社寺建築の意匠を採り入れた近代和風建築の好例。,https://bunka.nii.ac.jp/heritage/43967/_106018/43967_106018111225020429783_300.jpg
101,00005029,珠数屋四郎兵衛店舗,じゅずやしろべえてんぽ,1棟,,登録有形文化財(建造物),産業3次,建築物,,昭和前,昭和8,1933,木造2階建、銅板葺、建築面積290㎡,,30 － 0080,47,2005.12.05(平成17.12.05),2005.11.10(平成17.11.10),,20051110,,国土の歴史的景観に寄与しているもの,,和歌山県,和歌山県伊都郡高野町大字高野山771,,株式会社珠数屋四郎兵衛,,,34.21305000000000,135.58630000000000,弘法大師１１００年御遠忌に際し建設。棟梁は地元大工の阪田平造と伝える。入母屋造，銅板瓦葺の木造２階建，正面２階中央に唐破風を構える。２階道路側は参詣客の休憩室としての大広間とする。商店名とともによく知られ，地元の人々から広く親しまれている。,https://bunka.nii.ac.jp/heritage/43967/_106019/43967_106019111225020431379_300.jpg
101,00005030,南海電気鉄道鋼索線高野山駅駅舎,なんかいでんきてつどうこうさくせんこうやさんえきえきしゃ,1棟,,登録有形文化財(建造物),交通,建築物,,昭和前,昭和3,1928,木造2階建、鋼板葺、建築面積267㎡,,30 － 0081,47,2005.12.05(平成17.12.05),2005.11.10(平成17.11.10),,20051110,,国土の歴史的景観に寄与しているもの,,和歌山県,和歌山県伊都郡高野町大字高野山国有林第九林班ノは,,南海電気鉄道株式会社,,,34.22764000000000,135.57730000000000,木造２階建モルタル塗の駅本屋で，丸窓や２階外壁に廻した水平帯など昭和初期洋風建築の意匠を基調とするが，屋根は宝形屋根の頂部に宝珠を載せるなど高野の地を意識した造形とする。高野参詣の玄関口として多くの観光客や地域の人々から親しまれている。,https://bunka.nii.ac.jp/heritage/43967/_106020/43967_106020151023193436690_300.jpg
101,00005348,三尾家住宅主屋,みおけじゅうたくしゅおく,1棟,,登録有形文化財(建造物),住宅,建築物,,江戸,天保12,1841,木造2階建、瓦葺、建築面積95㎡,,30 － 0082,49,2006.03.23(平成18.03.23),2006.03.02(平成18.03.02),,20060302,,国土の歴史的景観に寄与しているもの,,和歌山県,和歌山県和歌山市堀止西1-17,,,,,34.21413000000000,135.16950000000000,市街地を南北に貫く国道４２号の近傍に建つ。間口約１０ｍの切妻造，本瓦葺，平入とし，１階に格子窓を配し，漆喰を塗込めた２階正面には虫籠窓を左右対称に穿つ端正なつくり。市内に残る数少ない町家建築の一つで，歴史的街路景観を形成する貴重な要素。,https://bunka.nii.ac.jp/heritage/43967/_106336/43967_106336111225021213638_300.jpg
101,00005349,三尾家住宅土蔵,みおけじゅうたくどぞう,1棟,,登録有形文化財(建造物),住宅,建築物,,江戸,天保13,1842,土蔵造2階建、瓦葺、建築面積21㎡,,30 － 0083,49,2006.03.23(平成18.03.23),2006.03.02(平成18.03.02),,20060302,,国土の歴史的景観に寄与しているもの,,和歌山県,和歌山県和歌山市堀止西1-17,,,,,34.21402000000000,135.16950000000000,主屋の背後に南面して建ち，５．１ｍ四方の規模を有する。切妻造，本瓦葺，妻入の土蔵で，切石を基礎とし，四周に水切付の胴蛇腹と鉢巻を廻らす。正面の腰はモルタル塗洗出しとし，その他の面は杉板張とする。敷地の南西に位置し，屋敷構を整える。,https://bunka.nii.ac.jp/heritage/43967/_106337/43967_106337111225021215233_300.jpg
101,00005350,坂部家住宅主屋,さかべけじゅうたくしゅおく,1棟,,登録有形文化財(建造物),住宅,建築物,,江戸,江戸後期／文久2移築,1751-1829／1862移築,木造平屋建、瓦葺、建築面積220㎡,,30 － 0084,49,2006.03.23(平成18.03.23),2006.03.02(平成18.03.02),,20060302,,国土の歴史的景観に寄与しているもの,,和歌山県,和歌山県和歌山市府中875,,,,,34.26287000000000,135.22970000000000,市東部，紀ノ川右岸に位置する。桁行９間，梁間７間の規模，入母屋造，本瓦葺，平入の平屋建とし，下屋を四周に廻らし，黒漆喰で塗り込めた上部の壁には平側に木瓜形の虫籠窓を穿つ。大規模な農家建築で，集落の中で際立った存在となる。,https://bunka.nii.ac.jp/heritage/43967/_106338/43967_106338111225021216133_300.jpg
101,00005351,小田井灌漑用水路木積川渡井,おだいかんがいようすいろこずみがわとい,1基,,登録有形文化財(建造物),産業1次,土木構造物,,大正,大正3,1914,煉瓦造単アーチ橋、橋長6.0m、幅員3.8m,,30 － 0085,49,2006.03.23(平成18.03.23),2006.03.02(平成18.03.02),,20060302,,国土の歴史的景観に寄与しているもの,,和歌山県,和歌山県紀の川市西三谷地内,,小田井土地改良区,,,34.27717000000000,135.33480000000000,打田町の町境を流れる木積川に架かる水路橋。橋長６．０ｍの煉瓦造単アーチ橋で，アーチは煉瓦４枚厚とし，イギリス積で築かれたスパンドレル中央には橋名等を陰刻した銘板を嵌め込む。側面頂部の水平帯にはデンティルと鋸歯飾りをあしらう丁寧なつくり。,https://bunka.nii.ac.jp/heritage/43967/_106339/43967_106339111225021218351_300.jpg
101,00005352,小田井灌漑用水路龍之渡井,おだいかんがいようすいろたつのとい,1基,,登録有形文化財(建造物),産業1次,土木構造物,,大正,大正8,1919,煉瓦造・石造及びコンクリート造単アーチ橋、橋長21m、幅員5.3m,,30 － 0086,49,2006.03.23(平成18.03.23),2006.03.02(平成18.03.02),,20060302,,再現することが容易でないもの,,和歌山県,和歌山県紀の川市西野山～伊都郡かつらぎ町高田,,小田井土地改良区,,,34.28307000000000,135.44820000000000,那賀町とかつらぎ町の境を流れる穴伏川に架かる水路橋。橋長２１ｍの大規模な煉瓦造単アーチ橋で，煉瓦７枚厚のアーチは段状に迫り出したつくりで，スパンドレルを石積で築き，その上部にフランス積の煉瓦壁を立ち上げる独特の構造形式とする。,https://bunka.nii.ac.jp/heritage/43967/_106340/43967_106340111225021219902_300.jpg
101,00005353,小田井灌漑用水路小庭谷川渡井,おだいかんがいようすいろこにわだにがわとい,1基,,登録有形文化財(建造物),産業1次,土木構造物,,明治,明治42,1909,煉瓦造単アーチ橋、橋長9.3m、幅員7.4m,,30 － 0087,49,2006.03.23(平成18.03.23),2006.03.02(平成18.03.02),,20060302,,国土の歴史的景観に寄与しているもの,,和歌山県,和歌山県伊都郡かつらぎ町笠田東,,小田井土地改良区,,,34.29193000000000,135.47560000000000,紀ノ川に右岸から合流する堂田川に架かる水路橋。橋長９．３ｍの煉瓦造単アーチ橋で，石積の基部から煉瓦４枚厚のアーチを立ち上げ，スパンドレルはフランス積で築く。明治末期に着手された用水路改修工事の関連施設の中で，最初期に竣工した構造物。,https://bunka.nii.ac.jp/heritage/43967/_106341/43967_106341111225021221315_300.jpg
101,00005354,小田井灌漑用水路中谷川水門,おだいかんがいようすいろなかたにがわすいもん,1基,,登録有形文化財(建造物),産業1次,土木構造物,,明治,明治45,1912,煉瓦造、延長13m、幅員6.4m,,30 － 0088,49,2006.03.23(平成18.03.23),2006.03.02(平成18.03.02),,20060302,,再現することが容易でないもの,,和歌山県,和歌山県伊都郡かつらぎ町中飯降,,小田井土地改良区,,,34.30351000000000,135.53460000000000,紀ノ川にほぼ平行して流れる用水路が中谷川と交差する地点に築かれた暗渠。サイホンの原理を利用し川の下に築かれる。アーチは煉瓦造４枚厚で，壁面をフランス積とし，頂部にはパラペットを立ち上げる。藩政時代に開削された大規模灌漑用水路の近代化を表す。,https://bunka.nii.ac.jp/heritage/43967/_106342/43967_106342111225021222653_300.jpg
101,00005400,小西家住宅主屋,こにしけじゅうたくしゅおく,1棟,,登録有形文化財(建造物),住宅,建築物,,昭和前,昭和14,1939,木造2階建、瓦葺、建築面積169㎡,,30 － 0089,50,2006.04.12(平成18.04.12),2006.03.27(平成18.03.27),,20060327,,造形の規範となっているもの,,和歌山県,和歌山県和歌山市新高町64,,,,,34.20373000000000,135.16680000000000,北面に入母屋造の表玄関をもつ桟瓦葺の２階建住宅。全体を和風意匠で纏め，基本的に中廊下型の平面構成で，玄関脇に洋風の応接間を配し，１階，２階とも敷地南の庭に面して座敷を配する。造作は上質の材をふんだんに用い，繊細につくる。昭和初期住宅の好例。,https://bunka.nii.ac.jp/heritage/43967/_106388/43967_106388111225021323456_300.jpg
101,00005401,小西家住宅土蔵,こにしけじゅうたくどぞう,1棟,,登録有形文化財(建造物),住宅,建築物,,昭和前,昭和14頃,1939頃,土蔵造2階建、瓦葺、建築面積12㎡,,30 － 0090,50,2006.04.12(平成18.04.12),2006.03.27(平成18.03.27),,20060327,,造形の規範となっているもの,,和歌山県,和歌山県和歌山市新高町64,,,,,34.20384000000000,135.16680000000000,北辺が街路に接した敷地北西隅に建つ。桁行２間，梁間１間半，東西棟で切妻造，本瓦葺の土蔵造２階建。南面に出入口を設け，外壁は漆喰塗で，窓庇まで漆喰塗とし，軒廻りに鉢巻を廻すなど，丁寧なつくりの土蔵。伝統的な街路景観の形成に寄与している。,https://bunka.nii.ac.jp/heritage/43967/_106389/43967_106389111225021324382_300.jpg
101,00005402,小西家住宅門及び塀,こにしけじゅうたくもんおよびへい,1棟,,登録有形文化財(建造物),住宅,その他工作,,昭和前,昭和14頃,1939頃,門　木造、瓦葺及び銅板葺、間口3.4m、塀　木造、瓦葺、延長12m,,30 － 0091,50,2006.04.12(平成18.04.12),2006.03.27(平成18.03.27),,20060327,,国土の歴史的景観に寄与しているもの,,和歌山県,和歌山県和歌山市新高町64,,,,,34.20383000000000,135.16680000000000,主屋北面にある門は，背面に控柱を設けた棟門形式で，内法長押と冠木の間を筬欄間で飾る。屋根は切妻造であるが，棟廻りを瓦葺，周囲を銅板葺とし，西の潜戸，東の脇壁にも同形の屋根を架ける。この東西に真壁造の塀が延び，敷地北辺の街路景観を整えている。,https://bunka.nii.ac.jp/heritage/43967/_106390/43967_106390111225021325588_300.jpg
101,00005650,初桜酒造主屋,はつさくらしゅぞうしゅおく,1棟,,登録有形文化財(建造物),産業3次,建築物,,大正,大正初期,1912-1925,木造2階建、瓦葺、建築面積197㎡,,30 － 0092,51,2006.08.24(平成18.08.24),2006.08.03(平成18.08.03),,20060803,,造形の規範となっているもの,,和歌山県,和歌山県伊都郡かつらぎ町中飯降85,,,,,34.30311000000000,135.53340000000000,旧大和街道に南面する敷地の南寄りに東西棟で建つ。桁行６間，梁行６間，入母屋造，桟瓦葺，木造２階建の町家建築で，東方を土間とし，西方床上部に２列３室を配し，２階正面側に３室の続き間座敷を設ける。良材を用い，床脇柱など趣向を凝らしたつくりに特徴。,https://bunka.nii.ac.jp/heritage/43967/_106638/43967_106638111225021845810_300.jpg
101,00005651,初桜酒造仕込蔵,はつさくらしゅぞうしこみぐら,1棟,,登録有形文化財(建造物),産業2次,建築物,,明治,明治初期,1868-1911,木造2階建、瓦葺、建築面積376㎡,,30 － 0093,51,2006.08.24(平成18.08.24),2006.08.03(平成18.08.03),,20060803,,国土の歴史的景観に寄与しているもの,,和歌山県,和歌山県伊都郡かつらぎ町中飯降85,,,,,34.30351000000000,135.53310000000000,主屋の北方に南北棟で建つ。桁行１６間，梁間６間規模，北を入母屋造，南を切妻造とした桟瓦葺で，内部は中央部に床を張り２階建とする。外部は大壁で腰を竪板張とする。敷地内を東西に抜ける町道に入母屋造，漆喰塗，連子窓付きの特徴ある北妻面をみせる。,https://bunka.nii.ac.jp/heritage/43967/_106639/43967_106639111225021848124_300.jpg
101,00005652,初桜酒造囲蔵,はつさくらしゅぞういぐら,1棟,,登録有形文化財(建造物),産業2次,建築物,,明治,明治後期,1868-1911,木造2階建、瓦葺、建築面積288㎡,,30 － 0094,51,2006.08.24(平成18.08.24),2006.08.03(平成18.08.03),,20060803,,国土の歴史的景観に寄与しているもの,,和歌山県,和歌山県伊都郡かつらぎ町中飯降85,,,,,34.30355000000000,135.53320000000000,仕込蔵の東に接して南北棟で建つ。桁行１６間，梁間４間半規模，切妻造，桟瓦葺の木造２階建で，梁間を１間半と３間に分ける位置に柱を建てる。外部は大壁で腰高の竪板張とする。東面の長大な酒蔵の景観は酒造りの盛んな時期の当地の歴史を今に伝えている。,https://bunka.nii.ac.jp/heritage/43967/_106640/43967_106640111225021849866_300.jpg
101,00005653,高垣酒造主屋,たかがきしゅぞうしゅおく,1棟,,登録有形文化財(建造物),産業3次,建築物,,大正,大正15,1926,木造2階建、瓦葺、建築面積245㎡,,30 － 0095,51,2006.08.24(平成18.08.24),2006.08.03(平成18.08.03),,20060803,,造形の規範となっているもの,,和歌山県,和歌山県有田郡有田川町小川1465,,,,,34.07816000000000,135.28010000000000,敷地のほぼ中央に東西棟で建つ。桁行９間半，梁行６間，入母屋造，桟瓦葺で，西方を土間，東方床上部を２列６室とし，東南に床付きの１０畳座敷を配する。土間部の上には南北棟の入母屋造，桟瓦葺の２階を載せた独特の外観で，全体として上質のつくりである。,https://bunka.nii.ac.jp/heritage/43967/_106641/43967_106641111225021851635_300.jpg
101,00005654,高垣酒造土蔵,たかがきしゅぞうどぞう,1棟,,登録有形文化財(建造物),住宅,建築物,,大正,大正15,1926,土蔵造2階建、瓦葺、建築面積30㎡,,30 － 0096,51,2006.08.24(平成18.08.24),2006.08.03(平成18.08.03),,20060803,,造形の規範となっているもの,,和歌山県,和歌山県有田郡有田川町小川1465,,,,,34.07822000000000,135.28020000000000,主屋の東方に南北棟で建つ。桁行３間，梁間２間，切妻造，桟瓦葺，平入の２階建土蔵で，西面北寄りに戸口を設け，南北妻面に各２箇所の小窓を開ける。外部は腰高の目板羽目とし，漆喰で軒下まで塗込める。窓小庇持ち送りの装飾など丁寧なつくりに特徴。,https://bunka.nii.ac.jp/heritage/43967/_106642/43967_106642111225021853370_300.jpg
101,00005655,高垣酒造仕込蔵,たかがきしゅぞうしこみぐら,1棟,,登録有形文化財(建造物),産業2次,建築物,,大正,大正15,1926,土蔵造2階建、瓦葺、建築面積351㎡,,30 － 0097,51,2006.08.24(平成18.08.24),2006.08.03(平成18.08.03),,20060803,,国土の歴史的景観に寄与しているもの,,和歌山県,和歌山県有田郡有田川町小川1465,,,,,34.07834000000000,135.27980000000000,主屋の北西方に東西棟で建つ。桁行１０間，梁間６間規模，切妻造，桟瓦葺の２階建酒蔵で，南面全面には３間幅の下屋を設ける。内部は２列４本の柱を建て，外部は腰高の目板羽目とする。北面には規則的に開口をとり，道路沿いに造り酒屋特有の景観をつくる。,https://bunka.nii.ac.jp/heritage/43967/_106643/43967_106643111225021855046_300.jpg
101,00005656,高垣酒造貯蔵庫,たかがきしゅぞうちょぞうこ,1棟,,登録有形文化財(建造物),産業2次,建築物,,大正,大正15,1926,土蔵造2階建、瓦葺、建築面積363㎡、釜場及び煙突付,,30 － 0098,51,2006.08.24(平成18.08.24),2006.08.03(平成18.08.03),,20060803,,国土の歴史的景観に寄与しているもの,,和歌山県,和歌山県有田郡有田川町小川1465,,,,,34.07835000000000,135.28020000000000,仕込蔵の東に続いて建つ。桁行１１間，梁間５間，切妻造，桟瓦葺の２階建酒蔵で，南面西寄りには釜場を突出させ，東寄りは下屋を設けて壜場とする。内部は棟通りに柱を建て，地棟に登梁を交叉させる。北面の景観要素であるとともに，釜場煙突が目印となる。,https://bunka.nii.ac.jp/heritage/43967/_106644/43967_106644111225021855733_300.jpg
101,00005657,高垣酒造塀,たかがきしゅぞうへい,1棟,,登録有形文化財(建造物),住宅,その他工作,,大正,大正15,1926,木造、瓦葺、延長24m、門付,,30 － 0099,51,2006.08.24(平成18.08.24),2006.08.03(平成18.08.03),,20060803,,国土の歴史的景観に寄与しているもの,,和歌山県,和歌山県有田郡有田川町小川1465,,,,,34.07807000000000,135.28020000000000,主屋床上部南面中央に突出する４畳半の東南端に発し，座敷庭を取り囲むように建ち，土蔵東南端に取り付く。主屋寄りには瀟洒な腕木門を開く。切石を丁寧に積んだ基礎の上に建つ真壁造，桟瓦葺で，棟高２ｍ，腰を竪板張，上部の小壁を漆喰塗とする。,https://bunka.nii.ac.jp/heritage/43967/_106645/43967_106645111225021858197_300.jpg
101,00005658,日本基督教団紀南教会,にほんきりすときょうだんきなんきょうかい,1棟,,登録有形文化財(建造物),宗教,建築物,,大正,大正14,1925,木造平屋一部2階建、銅板葺、建築面積84㎡,,30 － 0100,51,2006.08.24(平成18.08.24),2006.08.03(平成18.08.03),,20060803,,造形の規範となっているもの,,和歌山県,和歌山県東牟婁郡那智勝浦町大字下里930-1,,日本基督教団紀南教会,,,33.57937000000000,135.92180000000000,西村伊作設計の教会堂建築。間口６．４ｍ，奥行１１．７ｍ規模の単廊式教会堂で，正面中央の玄関ポーチを高く造り，急傾斜屋根を架けるのが特徴。玄関ポーチ外壁のみドイツ壁風に仕上げる。内部東面にアルコーブを設けて講壇とし，独特なトラス小屋を見せる。,https://bunka.nii.ac.jp/heritage/43967/_106646/43967_106646111225021900005_300.jpg
101,00005902,多田家住宅（旧和中家住宅）主屋,ただけじゅうたく（きゅうわなかけじゅうたく）しゅおく,1棟,,登録有形文化財(建造物),産業3次,建築物,,明治,明治初期,1868-1911,木造平屋建、瓦葺、建築面積128㎡,,30 － 0101,52,,2006.10.18(平成18.10.18),,20061018,,国土の歴史的景観に寄与しているもの,,和歌山県,和歌山県和歌山市和歌浦中2-10-8,,,,,34.19028000000000,135.16780000000000,南北に走る明光通り商店街に西面して建つ。間口８間半，奥行４間規模，北を切妻造，南を入母屋造とした本瓦葺のつし２階建で，前面に本瓦葺の下屋を付け，内部は北を土間，南を床上部とし，南に落棟で１０畳座敷を延ばす。和歌浦の歴史的景観を伝える要素。,https://bunka.nii.ac.jp/heritage/43967/_106887/43967_106887111225022539506_300.jpg
101,00005985,梅本家住宅主屋,うめもとけじゅうたくしゅおく,1棟,,登録有形文化財(建造物),住宅,建築物,,大正,大正2,1913,木造2階建、瓦葺、建築面積146㎡,,30 － 0113,55,,2007.07.31(平成19.07.31),,20070731,,国土の歴史的景観に寄与しているもの,,和歌山県,和歌山県和歌山市和歌浦中1-2-18,,,,,34.19329000000000,135.16990000000000,街路に東面して建つ。南北棟の入母屋造，桟瓦葺，２階建で，周囲に下屋を廻す。正面の下屋を一文字葺とする。正面１階は出格子を連ね，２階壁面は黒漆喰塗とし，額縁付の木格子窓を設ける。重厚で丁寧なつくりの外観は，伝統的な町並景観に寄与している。,https://bunka.nii.ac.jp/heritage/43967/_106970/43967_106970111225022805033_300.jpg
101,00006043,定福寺庫裏,じょうふくじくり,1棟,,登録有形文化財(建造物),宗教,建築物,,江戸,江戸後期,1751-1829,木造平屋建、瓦葺、建築面積166㎡,,30 － 0102,53,,2006.11.29(平成18.11.29),,20061129,,国土の歴史的景観に寄与しているもの,,和歌山県,和歌山県橋本市賢堂285,,宗教法人定福寺,,,34.30881000000000,135.61260000000000,敷地南西に位置し，本堂南西に南面して建つ。南東隅に拝殿を付ける。桁行６間半，梁間５間半の規模で，木造平屋建，入母屋造，桟瓦葺とする。東半を土間，西半を床上部とし，南西隅に座敷を設け続き間座敷とする。床構えに古い形式を留める。,https://bunka.nii.ac.jp/heritage/43967/_107028/43967_107028111225022953472_300.jpg
101,00006154,加田家住宅主屋,かだけじゅうたくしゅおく,1棟,,登録有形文化財(建造物),住宅,建築物,,昭和前,昭和4,1929,木造平屋建、瓦葺、建築面積266㎡,,30 － 0103,54,,2007.05.15(平成19.05.15),,20070515,,国土の歴史的景観に寄与しているもの,,和歌山県,和歌山県和歌山市薮ノ丁6,,,,,34.22528100000000,135.17381300000000,敷地中央に建つ。東西２０ｍ，南北２３ｍ，木造平屋建，桟瓦葺。庭園に面して客間等の座敷を雁行形に配して縁を廻す。正面中央の大玄関に入母屋の妻飾を３箇所を見せ，屋根軒下に下屋屋根を重ねるなど屋根に変化をもたせ，外観に工夫を凝らした意匠とする。,https://bunka.nii.ac.jp/heritage/43967/_107138/43967_107138031191924311417_300.jpg
101,00006161,加田家住宅土蔵,かだけじゅうたくどぞう,1棟,,登録有形文化財(建造物),住宅,建築物,,昭和前,昭和6,1931,土蔵造2階建、瓦葺、建築面積20㎡,,30 － 0104,54,,2007.05.15(平成19.05.15),,20070515,,国土の歴史的景観に寄与しているもの,,和歌山県,和歌山県和歌山市薮ノ丁6,,,,,34.22532957000000,135.17364028000000,主屋正面の北寄りに建つ。桁行３間，梁間２間で，土蔵造２階建，切妻造，本瓦葺とする。２階の小屋組にはキングポストトラスを採用。正面入口や２階の窓には漆喰仕上げの塗戸を吊る。窓庇の持送りには，漆喰彫刻による渦紋の絵様をつくるなど，丁寧な仕上げ。,https://bunka.nii.ac.jp/heritage/43967/_107145/43967_107145042691909060877_300.jpg
101,00006162,加田家住宅茶室,かだけじゅうたくちゃしつ,1棟,,登録有形文化財(建造物),住宅,建築物,,昭和前,昭和6,1931,木造平屋建、瓦葺、建築面積46㎡,,30 － 0105,54,,2007.05.15(平成19.05.15),,20070515,,再現することが容易でないもの,,和歌山県,和歌山県和歌山市薮ノ丁6,,,,,34.22533000000000,135.17405700000000,主屋後方に庭園を挟んで建つ。南側に三畳台目茶室の不老庵，北側に八畳の広間をもつ暁月亭を配す。桟瓦葺の入母屋造及び切妻造で，深い庇を銅板葺とする。両者を廊下で繋ぎ，廊下の東側に水屋をおく。表千家と関わりのある数寄屋大工平井儀三郎の作品として貴重。,https://bunka.nii.ac.jp/heritage/43967/_107146/43967_107146493290426427174_300.jpg
101,00006176,梅本家住宅土蔵,うめもとけじゅうたくどぞう,1棟,,登録有形文化財(建造物),住宅,建築物,,大正,大正2頃,1913頃,土蔵造2階建、瓦葺、建築面積33㎡,,30 － 0114,55,,2007.07.31(平成19.07.31),,20070731,,造形の規範となっているもの,,和歌山県,和歌山県和歌山市和歌浦中1-2-18,,,,,34.19336000000000,135.16980000000000,南北棟の切妻造，桟瓦葺，平入の土蔵造２階建で，東面と南面に下屋を設け，１階は東面に扉口，南面に窓，２階は東面・北面に窓を設ける。小屋は地棟に登梁を架けた形式で，漆喰塗の外壁は腰を縦板で覆う。丁寧なつくりで，主屋とほぼ同時期の建築と見られる。,https://bunka.nii.ac.jp/heritage/43967/_107160/43967_107160111225023350293_300.jpg
101,00006177,梅本家住宅納屋及び車庫,うめもとけじゅうたくなやおよびしゃこ,1棟,,登録有形文化財(建造物),住宅,建築物,,昭和中,昭和28,1953,木造平屋建、瓦葺、建築面積46㎡,,30 － 0115,55,,2007.07.31(平成19.07.31),,20070731,,造形の規範となっているもの,,和歌山県,和歌山県和歌山市和歌浦中1-2-18,,,,,34.19332000000000,135.16980000000000,主屋の西に連続して建つ。南北棟の切妻造，桟瓦葺で，外壁は黒漆喰塗である。平面は東を納屋及び物置，西を車庫とし，出入口の車庫部北面は，両開きの板扉を設け，上部に格子窓を付ける。形式は簡素であるが，生活の変化に伴い造られた建築の好例。,https://bunka.nii.ac.jp/heritage/43967/_107161/43967_107161111225023352190_300.jpg
101,00006178,和田家住宅主屋,わだけじゅうたくしゅおく,1棟,,登録有形文化財(建造物),住宅,建築物,,明治,明治36,1903,木造2階建、瓦葺、建築面積161㎡,,30 － 0116,55,,2007.07.31(平成19.07.31),,20070731,,国土の歴史的景観に寄与しているもの,,和歌山県,和歌山県和歌山市和歌浦中1-2-20,,,,,34.19310000000000,135.16980000000000,街路に接した敷地東辺に東面して建つ。起りのある南北棟の入母屋造，本瓦葺，２階建で，周囲に下屋を廻す。正面１階は出格子を連続するが，２階壁面は黒漆喰塗，額縁付の格子窓を設ける。重厚かつ風格のある外観をよく残し，伝統的な町並景観に寄与している。,https://bunka.nii.ac.jp/heritage/43967/_107162/43967_107162111225023353915_300.jpg
101,00006187,加田家住宅腰掛待合,かだけじゅうたくこしかけまちあい,1棟,,登録有形文化財(建造物),住宅,建築物,,昭和前,昭和初期,1926-1988,木造平屋建、瓦葺、建築面積6.7㎡、雪隠付,,30 － 0106,54,,2007.05.15(平成19.05.15),,20070515,,国土の歴史的景観に寄与しているもの,,和歌山県,和歌山県和歌山市薮ノ丁6,,,,,34.22520400000000,135.17406357000000,主屋から茶室に向かう露地の途中，やや高い位置に建つ。桁行３ｍ，梁間２ｍ，切妻造，桟瓦葺。瓦は一文字瓦葺で，庇は銅板葺。正面側は下地窓を開いた腰掛，裏側には雪隠を配する。柱，桁，垂木とも丸太を使い，中塗仕上げとする。露地の構成要素として重要。,https://bunka.nii.ac.jp/heritage/43967/_107171/43967_107171017326383889651_300.jpg
101,00006212,加田家住宅社,かだけじゅうたくやしろ,1棟,,登録有形文化財(建造物),住宅,建築物,,昭和前,昭和初期,1926-1988,木造平屋建、銅板葺、建築面積1.1㎡,,30 － 0108,54,,2007.05.15(平成19.05.15),,20070515,,国土の歴史的景観に寄与しているもの,,和歌山県,和歌山県和歌山市薮ノ丁6,,,,,34.22540300000000,135.17402600000000,敷地の北東隅，石積基壇の上に祀られる。一間社流造，見世棚造の形式で，銅板葺とする。土台に立つ角柱を長押で固め，舟肘木で桁を受ける。軒は一軒繁垂木，妻は豕扠首形式。柱，舟肘木，桁は面を大きく取り，檜の良材で丁寧につくり，技術的にも優秀。,https://bunka.nii.ac.jp/heritage/43967/_107196/43967_107196383361780673332_300.jpg
101,00006213,加田家住宅表門,かだけじゅうたくおもてもん,1棟,,登録有形文化財(建造物),住宅,その他工作物,,昭和前,昭和初期,1926-1988,木造、瓦葺、間口2.2m、潜戸付,,30 － 0110,54,,2007.05.15(平成19.05.15),,20070515,,国土の歴史的景観に寄与しているもの,,和歌山県,和歌山県和歌山市薮ノ丁6,,,,,34.22518500000000,135.17364500000000,敷地西面のほぼ中央に建つ。棟門の両側に潜戸を付け，段違の切妻造で，桟瓦葺とする。それぞれの潜戸から矩の手に塀が延び，柱や内法長押，扉などには上質な檜や欅を用いる。長押と冠木の間に筬欄間を入れ，屋根には緩やかな起りがあり，落ち着いた外観である。,https://bunka.nii.ac.jp/heritage/43967/_107197/43967_107197210181457114912_300.jpg
101,00006214,加田家住宅塀,かだけじゅうたくへい,1棟,,登録有形文化財(建造物),住宅,その他工作物,,昭和前,昭和初期,1926-1988,煉瓦造、瓦葺、総延長31m,,30 － 0111,54,,2007.05.15(平成19.05.15),,20070515,,国土の歴史的景観に寄与しているもの,,和歌山県,和歌山県和歌山市薮ノ丁6,,,,,34.22529707000000,135.17357164000000,敷地西面，表門の左右に延びる。高さ２ｍ，総延長３１ｍ，煉瓦造，桟瓦葺。外側は地元の青石（緑泥片岩）を貼って石積風に見せ，基部には御影石を貼り，重厚な趣とする。内側はモルタル塗刷毛引きとして落ち着いた仕上げとし，内外の意匠を使い分ける。,https://bunka.nii.ac.jp/heritage/43967/_107198/43967_107198808504754147767_300.jpg
101,00006215,加田家住宅露地門,かだけじゅうたくろじもん,1棟,,登録有形文化財(建造物),住宅,その他工作物,,昭和前,昭和初期,1926-1988,木造、杉皮葺、間口1.0m,,30 － 0107,54,,2007.05.15(平成19.05.15),,20070515,,国土の歴史的景観に寄与しているもの,,和歌山県,和歌山県和歌山市薮ノ丁6,,,,,34.22533800000000,135.17399600000000,暁月亭の前面に建つ。棟門，杉皮葺。腕木で軒桁を受け，屋根は押え竹で杉皮を押え，棟には丸竹を伏せる。扉は竹簀戸を両開きに吊り込み，正統的な梅見門の形式とする。主屋前の庭園と茶室の間にある中門で，繊細な意匠とし，部材の接合などの技術に優れる。,https://bunka.nii.ac.jp/heritage/43967/_107199/43967_107199523370683865226_300.jpg
101,00006216,加田家住宅鳥居,かだけじゅうたくとりい,1基,,登録有形文化財(建造物),住宅,その他工作物,,昭和前,昭和6,1931,石造、高さ2.2m、幅1.7m,,30 － 0109,54,,2007.05.15(平成19.05.15),,20070515,,国土の歴史的景観に寄与しているもの,,和歌山県,和歌山県和歌山市薮ノ丁6,,,,,34.22538766000000,135.17400477000000,敷地北東隅にある社の前面に立つ石造鳥居。間口１．７ｍ，高さ２．２ｍ。円柱を直立させ，笠木も長く直線的につくり，神明鳥居の形式とする。上質の御影石を用いて丁寧に加工しており，屋敷神の鳥居として，格式のある構えを見せている。,https://bunka.nii.ac.jp/heritage/43967/_107200/43967_107200555676285644251_300.jpg
101,00006245,和田家住宅土蔵,わだけじゅうたくどぞう,1棟,,登録有形文化財(建造物),住宅,建築物,,明治,明治38頃,1905頃,土蔵造2階建、瓦葺、建築面積31㎡,,30 － 0117,55,,2007.07.31(平成19.07.31),,20070731,,国土の歴史的景観に寄与しているもの,,和歌山県,和歌山県和歌山市和歌浦中1-2-20,,,,,34.19328000000000,135.16940000000000,南北棟の切妻造，本瓦葺，平入の土蔵造２階建で，東面１階に庇付の扉口，２階南妻面に庇付の窓を設ける。小屋は地棟に登梁を架けた形式で，漆喰塗の外壁は腰を縦板で覆い，一部を鉄板で保護しているが，丁寧なつくり。,https://bunka.nii.ac.jp/heritage/43967/_107229/43967_107229111225023559372_300.jpg
101,00006246,和田家住宅塀,わだけじゅうたくへい,1棟,,登録有形文化財(建造物),住宅,その他工作,,明治,明治38頃,1905頃,土塀、瓦葺、総延長46m,,30 － 0118,55,,2007.07.31(平成19.07.31),,20070731,,国土の歴史的景観に寄与しているもの,,和歌山県,和歌山県和歌山市和歌浦中1-2-20,,,,,34.19339000000000,135.16940000000000,土蔵の南側に延長１７ｍ，北側に折曲り延長２９ｍで延びる土塀。高さ約２．３ｍで，結晶片岩と瓦及び土で構築し，頂部に桟瓦を載せる。石の積み方に変化を持たせ，意匠的にも工夫が見られ，見応えのある景観を形成している。,https://bunka.nii.ac.jp/heritage/43967/_107230/43967_107230111225023600258_300.jpg
101,00006385,山本家住宅主屋,やまもとけじゅうたくしゅおく,1棟,,登録有形文化財(建造物),住宅,建築物,,江戸,江戸末期／明治39増築,1830-1867／1906増築,木造平屋一部3階建、瓦葺、建築面積177㎡,,30 － 0123,56,2007.10.22(平成19.10.22),2007.10.02(平成19.10.02),,20071002,,国土の歴史的景観に寄与しているもの,,和歌山県,和歌山県海南市阪井679他,,,,,34.15994000000000,135.26000000000000,事務所の東に国道からやや退いて建つ。木造つし２階建、切妻造平入の居室部の東に、寄棟造の３階をのせた座敷部を増築。居室部は下屋庇とも本瓦葺、座敷部は桟瓦葺。外壁は黒漆喰塗の真壁造である。３階座敷には高欄付の縁をつける。屋根構成に変化を見せる。,https://bunka.nii.ac.jp/heritage/43967/_107368/43967_107368111225023915137_300.jpg
101,00006386,山本勝之助商店事務所,やまもとかつのすけしょうてんじむしょ,1棟,,登録有形文化財(建造物),産業3次,建築物,,大正,大正中期,1912-1925,木造2階建、瓦葺、建築面積89㎡,,30 － 0119,56,2007.10.22(平成19.10.22),2007.10.02(平成19.10.02),,20071002,,国土の歴史的景観に寄与しているもの,,和歌山県,和歌山県海南市阪井679他,,,,,34.15996000000000,135.25990000000000,シュロ皮商の店舗として建設。国道に南面する間口３間、奥行８間の木造２階建で、寄棟造桟瓦葺の東西棟の裏に切妻造本瓦葺の南北棟が続く。南面は１、２階ともガラス窓とし、東面南端に戸口を開く。１階表の事務所には鉄柱を用いる。外壁の黒漆喰が目をひく。,https://bunka.nii.ac.jp/heritage/43967/_107369/43967_107369111225023916125_300.jpg
101,00006387,山本勝之助商店店蔵一,やまもとかつのすけしょうてんみせぐらいち,1棟,,登録有形文化財(建造物),産業3次,建築物,,大正,大正中期,1912-1925,土蔵造2階建、瓦葺、建築面積128㎡,,30 － 0120,56,2007.10.22(平成19.10.22),2007.10.02(平成19.10.02),,20071002,,国土の歴史的景観に寄与しているもの,,和歌山県,和歌山県海南市阪井679他,,,,,34.15998000000000,135.25980000000000,事務所の西に並ぶ土蔵造２階建の商品倉庫。桁行７間、梁間４間の南北棟で、国道に妻を見せる。切妻造桟瓦葺で、東平側に瓦葺庇をつけて蔵前とする。外壁は白漆喰塗で、腰に鉄板を張り、２階には小窓を穿つ。小屋組は登梁。歴史的街路景観を構成する。,https://bunka.nii.ac.jp/heritage/43967/_107370/43967_107370111225023917143_300.jpg
101,00006388,山本勝之助商店店蔵二,やまもとかつのすけしょうてんみせぐらに,1棟,,登録有形文化財(建造物),産業3次,建築物,,大正,大正前期,1912-1925,土蔵造2階建、瓦葺、建築面積61㎡,,30 － 0121,56,2007.10.22(平成19.10.22),2007.10.02(平成19.10.02),,20071002,,国土の歴史的景観に寄与しているもの,,和歌山県,和歌山県海南市阪井479-1,,,,,34.15979000000000,135.25960000000000,店蔵一と国道を挟んで向かいに建つ土蔵造２階建である。桁行５間、梁間２間半の南北棟で、切妻造桟瓦葺。東に瓦葺庇をつけて蔵前とする。外壁は白漆喰塗で、腰は竪板張。１階は板床とする。束立の和小屋で、野地は割竹の小舞である。妻の屋号がアクセント。,https://bunka.nii.ac.jp/heritage/43967/_107371/43967_107371111225023918050_300.jpg
101,00006389,山本勝之助商店店蔵三,やまもとかつのすけしょうてんみせぐらさん,1棟,,登録有形文化財(建造物),産業3次,建築物,,大正,大正中期,1912-1925,土蔵造2階建、瓦葺、建築面積119㎡,,30 － 0122,56,2007.10.22(平成19.10.22),2007.10.02(平成19.10.02),,20071002,,国土の歴史的景観に寄与しているもの,,和歌山県,和歌山県海南市阪井479-1,,,,,34.15974000000000,135.25990000000000,事務所の向かいに建つ土蔵造２階建である。桁行８間、梁間３間の東西棟で、切妻造桟瓦葺とし、北に吹放ちの瓦葺庇をつけて、３箇所に戸口を開く。１階は板床。束立の和小屋である。外壁は白漆喰塗で、妻は鉢巻に造り、軒は垂木形に塗り込めて変化をつける。,https://bunka.nii.ac.jp/heritage/43967/_107372/43967_107372111225023919072_300.jpg
101,00006390,山本家住宅内蔵一,やまもとけじゅうたくうちぐらいち,1棟,,登録有形文化財(建造物),住宅,建築物,,大正,大正12,1923,土蔵造2階建、瓦葺、建築面積25㎡,,30 － 0124,56,2007.10.22(平成19.10.22),2007.10.02(平成19.10.02),,20071002,,国土の歴史的景観に寄与しているもの,,和歌山県,和歌山県海南市阪井679他,,,,,34.16008000000000,135.25970000000000,店蔵一の北西に建つ土蔵造２階建である。桁行３間半、梁間２間の南北棟で、切妻造本瓦葺。花崗岩の高い石垣積基礎の上に建ち、外壁は白漆喰塗で、腰を竪羽目板張とする。東面南寄りに戸口を設け、小庇をつける。小屋組は登梁。西方からの景観の要となる。,https://bunka.nii.ac.jp/heritage/43967/_107373/43967_107373111225023921972_300.jpg
101,00006391,山本家住宅内蔵二,やまもとけじゅうたくうちぐらに,1棟,,登録有形文化財(建造物),住宅,建築物,,大正,大正中期,1912-1925,土蔵造2階建、瓦葺、建築面積28㎡,,30 － 0125,56,2007.10.22(平成19.10.22),2007.10.02(平成19.10.02),,20071002,,国土の歴史的景観に寄与しているもの,,和歌山県,和歌山県海南市阪井679他,,,,,34.16006000000000,135.25980000000000,内蔵一の東に棟方向を違えて建つ土蔵造２階建である。桁行３間半、梁間２間の東西棟で、切妻造桟瓦葺とし、南に鉄板葺庇をつけて戸口を開く。基礎は花崗岩の高い石垣である。外壁は白漆喰塗で、腰を竪羽目板張、妻に母屋形を見せる。小屋組は登梁。,https://bunka.nii.ac.jp/heritage/43967/_107374/43967_107374111225023923057_300.jpg
101,00006392,山本家住宅門,やまもとけじゅうたくもん,1棟,,登録有形文化財(建造物),住宅,その他工作,,明治,明治39頃,1906頃,木造、瓦葺、間口1.2m、塀延長3.6m付,,30 － 0128,56,2007.10.22(平成19.10.22),2007.10.02(平成19.10.02),,20071002,,国土の歴史的景観に寄与しているもの,,和歌山県,和歌山県海南市阪井679他,,,,,34.15987000000000,135.26000000000000,主屋の正面東寄りにあり、居室部表から座敷部の庭園に入る門で、西面する。間口４尺の腕木門である。切妻屋根は和歌山特有の丸桟瓦で葺く。軒は疎垂木で軽快。１枚板の門扉の両開とする。袖塀は黒漆喰塗で、腰を竪板張とし、丸桟瓦葺。屋敷構えを整える。,https://bunka.nii.ac.jp/heritage/43967/_107375/43967_107375111225023924152_300.jpg
101,00006393,山本家住宅石塀,やまもとけじゅうたくいしべい,1基,,登録有形文化財(建造物),住宅,その他工作,,明治,明治39頃,1906頃,石造、延長18m,,30 － 0129,56,2007.10.22(平成19.10.22),2007.10.02(平成19.10.02),,20071002,,国土の歴史的景観に寄与しているもの,,和歌山県,和歌山県海南市阪井679他,,,,,34.15983000000000,135.26010000000000,敷地南面の東半に設けられ、主屋座敷部の庭園と国道を画す。門の袖塀南端から延長１８ｍ余。石材は緑泥片岩系の和歌山産青石で、人頭大の石を乱石積とする。基底幅は４０ｃｍとし、高さ１．８ｍで、上端を笠木形に造る。街路景観に独特の雰囲気を与えている。,https://bunka.nii.ac.jp/heritage/43967/_107376/43967_107376111225023925098_300.jpg
101,00006394,山本家住宅隠居所,やまもとけじゅうたくいんきょじょ,1棟,,登録有形文化財(建造物),住宅,建築物,,昭和前,昭和12,1937,木造平屋建、瓦葺、建築面積128㎡,,30 － 0126,56,2007.10.22(平成19.10.22),2007.10.02(平成19.10.02),,20071002,,国土の歴史的景観に寄与しているもの,,和歌山県,和歌山県海南市阪井679他,,,,,34.16017000000000,135.25970000000000,内蔵二の北、小路を挟んだ別敷地に建つ。桁行５間、梁行４間半の木造平屋建で、入母屋造桟瓦葺。南正面に切妻屋根の玄関がつく。瓦葺庇を巡らし、正面は出桁造とする。矩折れの中廊下をもち、座敷８畳など４室を配す。外壁の小壁や妻壁の赤土塗が鮮やかである。,https://bunka.nii.ac.jp/heritage/43967/_107377/43967_107377111225023926686_300.jpg
101,00006395,山本家住宅赤倉,やまもとけじゅうたくあかぐら,1棟,,登録有形文化財(建造物),住宅,建築物,,昭和前,昭和12,1937,木造2階建、瓦葺、建築面積35㎡,,30 － 0127,56,2007.10.22(平成19.10.22),2007.10.02(平成19.10.02),,20071002,,国土の歴史的景観に寄与しているもの,,和歌山県,和歌山県海南市阪井679他,,,,,34.16017000000000,135.25970000000000,隠居所の北側縁から廊下を介して続く木造２階建。１階は方３間、２階は方２間で、寄棟造桟瓦葺とする。１階屋根には千鳥破風を飾る。外壁木部の赤ペンキ塗から赤倉の称がある。内部は１、２階とも１室で、木部は水色ペンキ塗。独特の外観で親しまれる建物。,https://bunka.nii.ac.jp/heritage/43967/_107378/43967_107378111225023929121_300.jpg
101,00006929,和合庵主屋,わごうあんしゅおく,1棟,,登録有形文化財(建造物),住宅,建築物,,大正,大正15,1926,木造2階建、鉄板葺、建築面積200㎡,,30 － 0130,58,2008.03.19(平成20.03.19),2008.03.07(平成20.03.07),,20080307,,再現することが容易でないもの,,和歌山県,和歌山県伊都郡高野町高野山字一心院谷34,,,,,34.21713000000000,135.58730000000000,桁行４間半梁間４間、南北棟、入母屋造鉄板葺、木造２階建の主体部の三方に廊下をまわし、東南隅に玄関、東面から北面にかけて応接室や内玄関、台所、仏間を平屋建で配する。入母屋の妻や応接室東面の開口の形状は特徴的で、地元高野山の大工堀野久吉の作。,https://bunka.nii.ac.jp/heritage/43967/_107911/43967_107911111225025347599_300.jpg
101,00006930,和合庵土蔵,わごうあんどぞう,1棟,,登録有形文化財(建造物),住宅,建築物,,大正,大正15頃,1926頃,土蔵造2階建、銅板葺、建築面積22㎡,,30 － 0131,58,2008.03.19(平成20.03.19),2008.03.07(平成20.03.07),,20080307,,国土の歴史的景観に寄与しているもの,,和歌山県,和歌山県伊都郡高野町高野山字一心院谷34,,,,,34.21726000000000,135.58730000000000,敷地の北端に東西棟で建ち、主屋と渡り廊下で接続する。桁行２間半梁間２間、切妻造桟瓦型銅板葺の２階建で、南面西端近くに戸口を設ける。外壁は、白漆喰塗で腰に竪板を張り、東面の各階、西面２階に窓を開ける。窓庇の持送りに繰形をつけるなど丁寧なつくり。,https://bunka.nii.ac.jp/heritage/43967/_107912/43967_107912111225025349386_300.jpg
101,00006931,和合庵門,わごうあんもん,1棟,,登録有形文化財(建造物),住宅,その他工作物,,大正,大正15頃,1926頃,木造、鉄板葺、間口1.5m,,30 － 0132,58,2008.03.19(平成20.03.19),2008.03.07(平成20.03.07),,20080307,,国土の歴史的景観に寄与しているもの,,和歌山県,和歌山県伊都郡高野町高野山字一心院谷34,,,,,34.21704000000000,135.58740000000000,主屋の南東端に取り付き、通りから石段を上がった踊場に北向きに建つ。門口幅１．５ｍ、東西棟、寄棟造鉄板葺の腕木門で、北面に「和合庵」の扁額を掲げる。柱や冠木に節の目立つ丸太を用い、屋根面に起りを付け、吹寄垂木を配るなど凝ったつくりとする。,https://bunka.nii.ac.jp/heritage/43967/_107913/43967_107913111225025351077_300.jpg
101,00006932,和合庵塀,わごうあんへい,1棟,,登録有形文化財(建造物),住宅,その他工作物,,大正,大正15頃,1926頃,木造、銅板葺、延長7.4m,,30 － 0133,58,2008.03.19(平成20.03.19),2008.03.07(平成20.03.07),,20080307,,国土の歴史的景観に寄与しているもの,,和歌山県,和歌山県伊都郡高野町高野山字一心院谷34,,,,,34.21701000000000,135.58740000000000,門の脇から通り沿いに南方に延びる長７．４ｍの木造屋根塀で、割石乱積の擁壁上に建ち、内側に斜材の支えを入れ、柱と貫で繋ぐ。屋根は起りを付け、銅板で桟瓦型に葺く。壁は外側がひしゃぎ竹の竪詰打、内側が杉皮の網代組とした瀟洒な数寄屋風のつくりになる。,https://bunka.nii.ac.jp/heritage/43967/_107914/43967_107914111225025352910_300.jpg
101,00007111,亀屋旅館本館,かめやりょかんほんかん,1棟,,登録有形文化財(建造物),産業3次,建築物,,昭和前,昭和3,1928,木造2階建、瓦葺、建築面積154㎡,,30 － 0134,59,2008.05.07(平成20.05.07),2008.04.18(平成20.04.18),,20080418,,国土の歴史的景観に寄与しているもの,,和歌山県,和歌山県田辺市本宮町川湯1434-1,,,,,33.81285000000000,135.77400000000000,大塔川沿いの川湯温泉のほぼ中央に位置する。入母屋造桟瓦葺の木造２階建で、１階に銅板葺庇を付ける。桁行１５ｍ梁間９．０ｍ規模で、正面中央に南面して玄関を設ける。１、２階とも中廊下式で、両側に部屋を配する。風景と調和し、老舗旅館の風格を伝える。,https://bunka.nii.ac.jp/heritage/43967/_108093/43967_108093111225025923184_300.jpg
101,00007525,宇藤家住宅主屋,うとうけじゅうたくしゅおく,1棟,,登録有形文化財(建造物),住宅,建築物,,明治,明治前期／大正前期増築・平成12改修,1868-1911／1912-1925・2000改修,木造平屋建、瓦葺、建築面積206㎡,,30 － 0135,62,2009.01.22(平成21.01.22),2009.01.08(平成21.01.08),,20090108,,造形の規範となっているもの,,和歌山県,和歌山県和歌山市布施屋524,,,,,34.24329000000000,135.26470000000000,敷地中央に南面して建つ木造平屋建。東西棟の入母屋造で下屋庇をまわし、南面に入母屋造の角屋を突き出し、西に落棟で入母屋造錣葺の座敷部を付ける。正面は上部壁を黒漆喰仕上げとし、下部は腰板張で黄漆喰仕上げとする。変化に富む外観をもつ近代農家建築。,https://bunka.nii.ac.jp/heritage/43967/_108507/43967_108507111225031316117_300.jpg
101,00007526,宇藤家住宅長屋門,うとうけじゅうたくながやもん,1棟,,登録有形文化財(建造物),住宅,建築物,,大正,大正期,1912-1925,木造平屋建、瓦葺、建築面積80㎡,,30 － 0136,62,2009.01.22(平成21.01.22),2009.01.08(平成21.01.08),,20090108,,国土の歴史的景観に寄与しているもの,,和歌山県,和歌山県和歌山市布施屋524,,,,,34.24318000000000,135.26480000000000,敷地南辺に位置する。桁行２０ｍ梁間３．６ｍの木造平屋建。東西棟で西端を入母屋造とし、東は納屋に接続する。ほぼ中央の間口３．７ｍを門口とし、両開戸と潜りを設け、東に板敷の倉庫、西に居室等を配する。外壁は高く竪板を張り、上部を白漆喰仕上げとする。,https://bunka.nii.ac.jp/heritage/43967/_108508/43967_108508111225031316641_300.jpg
101,00007527,宇藤家住宅納屋,うとうけじゅうたくなや,1棟,,登録有形文化財(建造物),住宅,建築物,,明治,明治前期,1868-1911,木造平屋建、瓦葺、建築面積96㎡,,30 － 0137,62,2009.01.22(平成21.01.22),2009.01.08(平成21.01.08),,20090108,,国土の歴史的景観に寄与しているもの,,和歌山県,和歌山県和歌山市布施屋524,,,,,34.24329000000000,135.26490000000000,敷地東辺に位置し、長屋門と直角に接続する。南北棟の入母屋造瓦葺で、桁行２０ｍ梁間４．０ｍ。赤味のある結晶片岩の基礎に建ち、外壁は上部を白漆喰仕上げ、下部を竪板張とする。南から倉庫、風呂・便所、倉庫と続く。長屋門と一連で重厚な屋敷構えをつくる。,https://bunka.nii.ac.jp/heritage/43967/_108509/43967_108509111225031317890_300.jpg
101,00007528,宇藤家住宅門,うとうけじゅうたくもん,1棟,,登録有形文化財(建造物),住宅,その他工作,,大正,大正期,1912-1925,木造、瓦葺、間口1.9m,,30 － 0138,62,2009.01.22(平成21.01.22),2009.01.08(平成21.01.08),,20090108,,国土の歴史的景観に寄与しているもの,,和歌山県,和歌山県和歌山市布施屋524,,,,,34.24315000000000,135.26460000000000,主屋西側の庭園に面し、敷地西辺の築地塀の中央に開けられた築地門。間口１．９ｍの切妻造桟瓦葺。本柱の前後に４本の控柱を配し、男梁を架し、束を立て棟木を支持する。軒は一軒疎垂木。弁柄塗がわずかに残る。熊野古道から見る屋敷西辺の構えを構成する。,https://bunka.nii.ac.jp/heritage/43967/_108510/43967_108510111225031318776_300.jpg
101,00007529,長多家住宅主屋,ながたけじゅうたくしゅおく,1棟,,登録有形文化財(建造物),住宅,建築物,,明治,明治前期,1868-1911,木造平屋建、瓦葺、建築面積164㎡,,30 － 0139,62,2009.01.22(平成21.01.22),2009.01.08(平成21.01.08),,20090108,,造形の規範となっているもの,,和歌山県,和歌山県和歌山市井ノ口119-2,,,,,34.23641000000000,135.25070000000000,敷地中央に南面して建つ。東西棟の切妻造本瓦葺で、桟瓦葺錣屋根の下屋庇をまわし、西に落棟で寄棟造桟瓦葺の座敷部を付ける。東にもと土間、西に居室を田の字型に配する。座敷部は十畳で、トコと付書院を構え仏壇を置く。伝統的な形態を受け継ぐ近代農家建築。,https://bunka.nii.ac.jp/heritage/43967/_108511/43967_108511111225031320580_300.jpg
101,00007530,長多家住宅土蔵,ながたけじゅうたくどぞう,1棟,,登録有形文化財(建造物),住宅,建築物,,明治,明治後期,1868-1911,土蔵造2階建、瓦葺、建築面積51㎡,,30 － 0140,62,2009.01.22(平成21.01.22),2009.01.08(平成21.01.08),,20090108,,造形の規範となっているもの,,和歌山県,和歌山県和歌山市井ノ口119-2,,,,,34.23652000000000,135.25070000000000,主屋の北側に建つ土蔵造２階建。桁行１１ｍ梁間４．１ｍ、東西棟の切妻造本瓦葺で、東寄り桁行３．２ｍの棟を低くし、さらに東面に下屋庇を付ける。屋根形態の違いに合わせて、軒まわりの仕様や腰竪板壁の高さを違えて、リズム感のある外観をつくる。,https://bunka.nii.ac.jp/heritage/43967/_108512/43967_108512111225031322582_300.jpg
101,00007531,長多家住宅門長屋,ながたけじゅうたくもんながや,1棟,,登録有形文化財(建造物),住宅,建築物,,大正,大正期,1912-1925,木造平屋建、瓦葺、建築面積103㎡,,30 － 0141,62,2009.01.22(平成21.01.22),2009.01.08(平成21.01.08),,20090108,,国土の歴史的景観に寄与しているもの,,和歌山県,和歌山県和歌山市井ノ口119-2,,,,,34.23623000000000,135.25070000000000,敷地南側の通りから少し入った位置に建つ。桁行２３ｍ梁間５．１ｍ、東西棟の入母屋造本瓦葺。中央西寄りに間口３．０ｍの門口を設ける。切石上に建ち、腰下見板張で黒漆喰仕上げとし、西寄りに出格子窓を設ける。腰板のすぐ上に通る白漆喰の線が印象的である。,https://bunka.nii.ac.jp/heritage/43967/_108513/43967_108513111225031323490_300.jpg
101,00007532,長多家住宅土塀,ながたけじゅうたくどべい,1棟,,登録有形文化財(建造物),住宅,その他工作,,大正,大正期,1912-1925,土塀、瓦葺、延長66m,,30 － 0142,62,2009.01.22(平成21.01.22),2009.01.08(平成21.01.08),,20090108,,国土の歴史的景観に寄与しているもの,,和歌山県,和歌山県和歌山市井ノ口119-2,,,,,34.23647000000000,135.25050000000000,門長屋から西に延び、北に折れて敷地を東西に分け、土蔵からも西へ延びる。総延長６６ｍ。紀州の青石といわれる緑泥片岩を１．２ｍの高さに積み上げ、その上に１．３ｍ高の土塀を造る。屋根は桟瓦葺。屋敷構えと農地が一体となって、豊かな農村景観をつくる。,https://bunka.nii.ac.jp/heritage/43967/_108514/43967_108514111225031324373_300.jpg
101,00007799,大江家住宅主屋,おおえけじゅうたくしゅおく,1棟,,登録有形文化財(建造物),住宅,建築物,,江戸,江戸後期／明治前期増築,1751-1829／1868-1911増築,木造平屋建、瓦葺、建築面積321㎡,,30-0143,64,2009.08.25(平成21.08.25),2009.08.07(平成21.08.07),,20090807,,国土の歴史的景観に寄与しているもの,,和歌山県,和歌山県日高郡みなべ町北道字濱通り309,,,,,33.76749000000000,135.32100000000000,旧熊野街道に東面して建つ。間口１７ｍ、北入母屋南切妻造の主体部の南に、間口９．７ｍ、切妻造の座敷部が連続し、正面下屋庇を通す。木造つし２階建で、上部は白漆喰の大壁造とし、虫籠窓を開ける。重厚な構えのなか、繊細な出格子を備える質の高い町家。,https://bunka.nii.ac.jp/heritage/43967/_108780/43967_108780130606020051429_300.jpg
101,00008752,太地水産共同組合事務所,たいじすいさんきょうどうくみあいじむしょ,1棟,,登録有形文化財(建造物),産業1次,建築物,,大正,大正7年,,木造平屋建、瓦葺、建築面積118㎡,,30 － 0144,70,2011.07.25(平成23.07.25),2011.07.25(平成23.07.25),,20110725,,国土の歴史的景観に寄与しているもの,,和歌山県,和歌山県東牟婁郡太地町大字太地字寄子路3263-2,,,,,33.59126000000000,135.94500000000000,太地漁港近く、通りに西面して建つ。桁行11ｍ梁間9.5ｍの木造、入母屋造桟瓦葺で周囲に庇をまわす。正面中央に玄関を設け、北側に台所、南に事務室、東背面に和室などを配する。外部木部は建具を含め、淡いピンク色のペンキが塗られ、特異な外観を呈する。,https://bunka.nii.ac.jp/heritage/43967/_149473/43967_149473140216024255322_300.jpg
101,00009202,平松家住宅主屋,ひらまつけじゅうたくしゅおく,1棟,,登録有形文化財(建造物),住宅,建築物,,江戸,安政3年(1856),1856,木造平屋建、瓦葺、建築面積222㎡,,,72,2012.02.23(平成24.02.23),2012.02.23(平成24.02.23),,20120223,,国土の歴史的景観に寄与しているもの,,和歌山県,和歌山県和歌山市川辺603,,,,,34.25699000000000,135.26540000000000,上方街道に西面する敷地中央に建つ。木造つし2階建、建築面積222平方メートル、入母屋造本瓦葺で下屋を廻らす。正面中央に入母屋造の式台玄関を突出させ、北西には仏間と茶室を設け、北側水路に迫り出す。重厚な構えの住宅で、優れた農村景観を形成する。,https://bunka.nii.ac.jp/heritage/43967/_164755/43967_164755140222025119949_300.jpg
101,00009203,平松家住宅長屋門,ひらまつけじゅうたくながやもん,1棟,,登録有形文化財(建造物),住宅,建築物,,江戸,江戸末期,1830～1868,木造平屋建、瓦葺、建築面積77㎡,,,72,2012.02.23(平成24.02.23),2012.02.23(平成24.02.23),,20120223,,国土の歴史的景観に寄与しているもの,,和歌山県,和歌山県和歌山市川辺603,,,,,34.25698000000000,135.26520000000000,敷地西辺に建ち、桁行18.7メートル梁間4メートル、入母屋造本瓦葺。中央南寄りに半間ひかえて門を開き、ケヤキ1枚板の板戸を両開きに吊り、北脇に潜戸を吊る。外壁は腰を簓子下見板張とし、土壁に武者窓を穿つ。木太く、重厚な構えを見せる長屋門。,https://bunka.nii.ac.jp/heritage/43967/_164756/43967_164756140222025121875_300.jpg
101,00009204,福田家住宅主屋,ふくだけじゅうたくしゅおく,1棟,,登録有形文化財(建造物),住宅,建築物,,明治,明治中期,1883～1897,木造平屋建、瓦葺、建築面積192㎡,,,72,2012.02.23(平成24.02.23),2012.02.23(平成24.02.23),,20120223,,国土の歴史的景観に寄与しているもの,,和歌山県,和歌山県岩出市山318,,,,,34.27560000000000,135.27910000000000,敷地中央に南面して建つ。木造平屋建、桁行15.1メートル梁間10メートル、入母屋造本瓦葺で、下屋を廻らす。内部は東が土間で、床上は整型4間取の1部をさらに分割し、前列上間にトコ.棚を備える。南面中央には入母屋造の式台玄関を設け、風格を醸す。,https://bunka.nii.ac.jp/heritage/43967/_164757/43967_164757151214162236315_300.jpg
101,00009205,福田家住宅米蔵及び納屋,ふくだけじゅうたくこめぐらおよびなや,1棟,,登録有形文化財(建造物),住宅,建築物,,明治,明治中期,1883～1897,土蔵造2階建一部木造平屋建、瓦葺、建築面積74㎡,,,72,2012.02.23(平成24.02.23),2012.02.23(平成24.02.23),,20120223,,国土の歴史的景観に寄与しているもの,,和歌山県,和歌山県岩出市山318,,,,,34.27551000000000,135.27910000000000,敷地東辺に沿って南北棟で建つ。建築面積74平方メートル、土蔵造2階建1部木造平屋建、切妻造本瓦及び桟瓦葺である。南から米蔵、納屋、風呂を配する。米蔵は腰をモルタル洗出しとし、納屋は腰に竪板を張る。主屋に向かう通路に風格を添える。,https://bunka.nii.ac.jp/heritage/43967/_164758/43967_164758151214162237081_300.jpg
101,00009206,福田家住宅北蔵,ふくだけじゅうたくきたぐら,1棟,,登録有形文化財(建造物),住宅,建築物,,明治,明治前期,1868～1882,土蔵造2階建、瓦葺、建築面積36㎡,,,72,2012.02.23(平成24.02.23),2012.02.23(平成24.02.23),,20120223,,国土の歴史的景観に寄与しているもの,,和歌山県,和歌山県岩出市山318,,,,,34.27570000000000,135.27900000000000,敷地北辺に東西棟で建つ。桁行7.9メートル梁行4.6メートル、土蔵造2階建、切妻造妻入本瓦葺。1階東面は海鼠壁、北面と西面は竪板張とする。2階北面に2箇所、西面に1箇所の窓を穿ち、庇の持送りに漆喰で装飾的な繰形を見せる、丁寧なつくりの土蔵。,https://bunka.nii.ac.jp/heritage/43967/_164759/43967_164759151214162238245_300.jpg
101,00009207,福田家住宅門,ふくだけじゅうたくもん,1棟,,登録有形文化財(建造物),住宅,その他工作物,,昭和前,昭和25年,1950,木造、瓦葺、間口2.1m、左右袖付,,,72,2012.02.23(平成24.02.23),2012.02.23(平成24.02.23),,20120223,,国土の歴史的景観に寄与しているもの,,和歌山県,和歌山県岩出市山318,,,,,34.27538000000000,135.27910000000000,敷地の南辺中央に東西棟で建つ。間口2.1メートルの一間薬医門、切妻造桟瓦葺で、東西に落棟として切妻造桟瓦葺の袖を付け、西袖に潜戸を開く。本柱に冠木を架け渡し、ケヤキ1枚板を用いた板戸を両開きとする。格式のある屋敷構えを形成している。,https://bunka.nii.ac.jp/heritage/43967/_164760/43967_164760151214162238844_300.jpg
101,00009208,福田家住宅内塀,ふくだけじゅうたくうちべい,1基,,登録有形文化財(建造物),住宅,その他工作物,,昭和前,昭和前期,1926～1945,土塀、瓦葺、総延長13m、門付,,,72,2012.02.23(平成24.02.23),2012.02.23(平成24.02.23),,20120223,,国土の歴史的景観に寄与しているもの,,和歌山県,和歌山県岩出市山318,,,,,34.27545000000000,135.27910000000000,表門から主屋に至る通路西辺に南北棟で建ち、総延長13メートル、切妻造桟瓦葺で、中央北寄りに腕木門を、両端に木戸を開く。各柱間に窓を穿ち、塀は真壁で、通路側を黒漆喰塗、腰を下見板張とし、内庭側を白壁とする。品格のある庭空間を創出している。,https://bunka.nii.ac.jp/heritage/43967/_164761/43967_164761151214162239534_300.jpg
101,00009209,福田家住宅土塀,ふくだけじゅうたくどべい,1基,,登録有形文化財(建造物),住宅,その他工作物,,明治,明治中期,1883～1897,土塀、瓦葺、総延長42m,,,72,2012.02.23(平成24.02.23),2012.02.23(平成24.02.23),,20120223,,国土の歴史的景観に寄与しているもの,,和歌山県,和歌山県岩出市山318,,,,,34.27558000000000,135.27890000000000,敷地西辺の道路に沿って建ち、南北両端を矩折れとする。延長41.5メートル高さ約2.5メートル、切妻造桟瓦葺。基礎は精緻な間知石積とし、外壁はモルタル洗出し、軒先は漆喰塗とする。重厚な姿が落ち着きのある旧家の屋敷構えを構成している。,https://bunka.nii.ac.jp/heritage/43967/_164762/43967_164762151214162240180_300.jpg
101,00009210,福田家住宅主屋,ふくだけじゅうたくしゅおく,1棟,,登録有形文化財(建造物),住宅,建築物,,明治,明治34年,1901,木造平屋建、瓦葺、建築面積158㎡,,,72,2012.02.23(平成24.02.23),2012.02.23(平成24.02.23),,20120223,,国土の歴史的景観に寄与しているもの,,和歌山県,和歌山県西牟婁郡すさみ町佐本東栗垣内115,,,,,33.59132000000000,135.61150000000000,石垣を築いた敷地中央に南面する。桁行13.8メートル梁間8.7メートル、木造平屋建、入母屋造桟瓦葺で、北東隅に炊事場を張出し、床上部は2列に6室を配する。前列下手に土間付の玄関をおき、上手の縁は軒を深く出すなど、紀南地方の民家の特徴を示す。,https://bunka.nii.ac.jp/heritage/43967/_164763/43967_164763140222025129776_300.jpg
101,00009211,福田家住宅離座敷,ふくだけじゅうたくはなれざしき,1棟,,登録有形文化財(建造物),住宅,建築物,,明治,明治36年,1903,木造平屋建、瓦葺、建築面積42㎡,,,72,2012.02.23(平成24.02.23),2012.02.23(平成24.02.23),,20120223,,国土の歴史的景観に寄与しているもの,,和歌山県,和歌山県西牟婁郡すさみ町佐本東栗垣内115,,,,,33.59137000000000,135.61140000000000,主屋の西側に、渡廊下を介して建つ。建築面積42平方メートル、木造平屋建、入母屋造及び切妻造、桟瓦葺である。6畳主室はトコ.棚.付書院を備え、南東面を開放して縁を廻らす。主要部材にケヤキを使用し、木柄が細く、軽妙な印象の離座敷である。,https://bunka.nii.ac.jp/heritage/43967/_164764/43967_164764140222025130792_300.jpg
101,00009212,福田家住宅納屋,ふくだけじゅうたくなや,1棟,,登録有形文化財(建造物),住宅,建築物,,明治,明治11年／明治45年・大正9年改修,1878／1912・1920改修,木造平屋一部2階建、瓦葺、建築面積52㎡,,,72,2012.02.23(平成24.02.23),2012.02.23(平成24.02.23),,20120223,,国土の歴史的景観に寄与しているもの,,和歌山県,和歌山県西牟婁郡すさみ町佐本東栗垣内115,,,,,33.59132000000000,135.61170000000000,主屋の東北側に建ち、桁行8.2メートル梁間3.6メートル、木造平屋1部2階建、切妻造桟瓦葺で3方に下屋を廻らす。外観は腰高に竪板を張り、上部は真壁の漆喰塗とする。1階は南半の4室を物入など、北半は1室の農具置場とし、2階は居室にも使用された。,https://bunka.nii.ac.jp/heritage/43967/_164765/43967_164765140222025131780_300.jpg
101,00009213,福田家住宅風呂及び便所,ふくだけじゅうたくふろおよびべんじょ,1棟,,登録有形文化財(建造物),住宅,建築物,,大正,大正元年,1912,木造平屋建、瓦葺、建築面積21㎡,,,72,2012.02.23(平成24.02.23),2012.02.23(平成24.02.23),,20120223,,国土の歴史的景観に寄与しているもの,,和歌山県,和歌山県西牟婁郡すさみ町佐本東栗垣内115,,,,,33.59125000000000,135.61160000000000,主屋の東側、納屋南面に建ち、桁行4.7メートル梁間4.5メートル、木造平屋建、入母屋造桟瓦葺である。南半に大小の便所5基、北半に脱衣場と風呂場を配し、外壁は板壁と黄土壁とする。丁寧なつくりになる建物で、往時の生活様式と屋敷構えを伝える。,https://bunka.nii.ac.jp/heritage/43967/_164766/43967_164766141128133151942_300.jpg
101,00009214,福田家住宅正門,ふくだけじゅうたくせいもん,1棟,,登録有形文化財(建造物),住宅,その他工作,,明治,明治42年頃,1909頃,木造、瓦葺、間口2.4m,,,72,2012.02.23(平成24.02.23),2012.02.23(平成24.02.23),,20120223,,国土の歴史的景観に寄与しているもの,,和歌山県,和歌山県西牟婁郡すさみ町佐本東栗垣内115,,,,,33.59122000000000,135.61150000000000,主屋正面の、石垣と土塀に挟まれた石段上部に開かれた門である。間口2.4メートルの一間腕木門で、切妻造桟瓦葺である。親柱間に方立を立ててケヤキ1枚板の板戸を両開きに吊り、上部に菱格子欄間を飾る。小規模ながら、風格を備えた正門である。,https://bunka.nii.ac.jp/heritage/43967/_164767/43967_164767140222025132737_300.jpg
101,00009215,福田家住宅西門,ふくだけじゅうたくにしもん,1棟,,登録有形文化財(建造物),住宅,その他工作,,大正,大正2年頃／昭和前期改修,1913頃／1926～1945改修,木造、瓦葺、間口1.7m,,,72,2012.02.23(平成24.02.23),2012.02.23(平成24.02.23),,20120223,,国土の歴史的景観に寄与しているもの,,和歌山県,和歌山県西牟婁郡すさみ町佐本東栗垣内115,,,,,33.59134000000000,135.61130000000000,離座敷南西側の石段上部に西面して建つ。間口1.7メートルの一間腕木門で、南面に袖塀を矩折れに設けてＬ字形平面を呈し、屋根は切妻造桟瓦葺である。ケヤキ板の板戸を両開きに吊り、上部の板欄間に竹や菊花などを透かす。正門とともに屋敷構えを引締める。,https://bunka.nii.ac.jp/heritage/43967/_164768/43967_164768140222025133862_300.jpg
101,00009216,福田家住宅石垣及び土塀,ふくだけじゅうたくいしがきおよびどべい,1棟,,登録有形文化財(建造物),住宅,その他工作,,江戸,江戸末期／明治33年・大正3年増築,1830～1868／1900・1914増築,石垣　石造、総延長154m、石段付　土塀　土塀、瓦葺、総延長63m,,,72,2012.02.23(平成24.02.23),2012.02.23(平成24.02.23),,20120223,,国土の歴史的景観に寄与しているもの,,和歌山県,和歌山県西牟婁郡すさみ町佐本東栗垣内115,,,,,33.59128000000000,135.61140000000000,敷地正背面の石垣と正面の土塀である。正面石垣は高さ約4メートル総延長98メートル、反りをもたせた布積で精緻に積む。土塀は総延長63メートルで、漆喰仕上げ、桟瓦葺。背面石垣は延長56メートルの布積である。長大な石垣と土塀が城郭のような趣を醸す。,https://bunka.nii.ac.jp/heritage/43967/_164769/43967_164769140222025134973_300.jpg
101,00009359,旧松井家別邸（がんこ六三園）主屋,きゅうまついけべってい（がんころくさんえん）しゅおく,1棟,,登録有形文化財(建造物),住宅,建築物,,大正,大正9年,1920,木造平屋一部2階建、瓦葺一部銅板葺、建築面積357㎡,,30 － 0160,73,2012.08.13(平成24.08.13),2012.08.13(平成24.08.13),,20120813,,国土の歴史的景観に寄与しているもの,,和歌山県,和歌山県和歌山市堀止西1-3-22,,,,,34.21452000000000,135.16780000000000,敷地中央に建つ。東面し、式台玄関を持つ玄関棟の南側に座敷棟、西奥に二階棟を接続する。建築面積三五七平方メートル。各棟とも庭園の眺望を考慮し、南面を中心に縁を廻し、窓を大きく開ける。規模が大きく、全体を落ち着いた意匠で統一した和風建築。,https://bunka.nii.ac.jp/heritage/43967/_194152/43967_194152333440281775005_300.jpg
101,00009360,旧松井家別邸（がんこ六三園）表門,きゅうまついけべってい（がんころくさんえん）おもてもん,1棟,,登録有形文化財(建造物),住宅,その他工作物,,大正,大正14年,1925,木造平屋建、瓦葺、建築面積36㎡,,30 － 0161,73,2012.08.13(平成24.08.13),2012.08.13(平成24.08.13),,20120813,,国土の歴史的景観に寄与しているもの,,和歌山県,和歌山県和歌山市堀止西1-3-22,,,,,34.21454000000000,135.16820000000000,敷地東面北寄りに建つ長屋門。木造平屋建、桁行九・六メートル梁間三・八メートル、入母屋造本瓦葺北二間を部屋、南三間を通路とし、引分けの板戸を建込む。外壁は漆喰仕上の真壁とし、腰を簓子下見板及びスギ一枚板張とする。広大な屋敷地の正面を飾る正門。,https://bunka.nii.ac.jp/heritage/43967/_194153/43967_194153419449425330321_300.jpg
101,00009361,旧松井家別邸（がんこ六三園）茶室,きゅうまついけべってい（がんころくさんえん）ちゃしつ,1棟,,登録有形文化財(建造物),住宅,建築物,,大正,大正後期／平成12年改修,1919～1926／2000改修,木造平屋建、瓦葺一部銅板葺及び檜皮葺、建築面積45㎡,,30 － 0162,73,2012.08.13(平成24.08.13),2012.08.13(平成24.08.13),,20120813,,国土の歴史的景観に寄与しているもの,,和歌山県,和歌山県和歌山市堀止西1-3-22,,,,,34.21453000000000,135.16800000000000,表門と主屋の間に建ち、南に庭園を望む。東西棟の切妻造桟瓦葺一部銅板葺の主体部周囲に檜皮葺の土庇や入母屋造の角屋などを張出し複雑な外観とする。内部は四畳半本勝手の上座床とし、西に控えの間、北に水屋と出入口を設ける。開放的な近代の茶室の好例。,https://bunka.nii.ac.jp/heritage/43967/_194154/43967_194154359459261052128_300.jpg
101,00009362,旧松井家別邸（がんこ六三園）北土蔵,きゅうまついけべってい（がんころくさんえん）きたどぞう,1棟,,登録有形文化財(建造物),住宅,建築物,,大正,大正後期,1919～1926,土蔵造2階建、瓦葺、建築面積32㎡,,30 － 0163,73,2012.08.13(平成24.08.13),2012.08.13(平成24.08.13),,20120813,,国土の歴史的景観に寄与しているもの,,和歌山県,和歌山県和歌山市堀止西1-3-22,,,,,34.21469000000000,135.16760000000000,敷地の北西隅、南蔵の北側に並び建つ。土蔵造二階建、桁行六・七メートル梁間四・八メートル、切妻造本瓦葺で、南面東寄りに戸口を開ける。小屋はトラス組。外壁は漆喰塗で鉢巻を廻す。小路側の北面は腰を竪板張、基礎は切石張とし、落着いた景観を醸す。,https://bunka.nii.ac.jp/heritage/43967/_194155/43967_194155670525477000042_300.jpg
101,00009363,旧松井家別邸（がんこ六三園）南土蔵,きゅうまついけべってい（がんころくさんえん）みなみどぞう,1棟,,登録有形文化財(建造物),住宅,建築物,,大正,大正8年,1919,土蔵造、瓦葺、建築面積18㎡,,30 － 0164,73,2012.08.13(平成24.08.13),2012.08.13(平成24.08.13),,20120813,,国土の歴史的景観に寄与しているもの,,和歌山県,和歌山県和歌山市堀止西1-3-22,,,,,34.21463000000000,135.16760000000000,北蔵の南に建ち、土蔵造平屋建、桁行四・八メートル梁間三・八メートル、切妻造本瓦葺である。東面に戸口を開き、二階の三面に窓を穿つ。軒下に鉢巻を廻し、外壁は漆喰塗で鉢巻を廻し、小屋はトラス組。小規模ながら主屋、北蔵とともに屋敷構えを構成する。,https://bunka.nii.ac.jp/heritage/43967/_194156/43967_194156288124140346559_300.jpg
101,00009364,旧松井家別邸（がんこ六三園）給水塔,きゅうまついけべってい（がんころくさんえん）きゅうすいとう,1棟,,登録有形文化財(建造物),住宅,建築物,,大正,大正後期,1919～1926,煉瓦造2階建、鉄板葺、建築面積18㎡,,30 － 0165,73,2012.08.13(平成24.08.13),2012.08.13(平成24.08.13),,20120813,,国土の歴史的景観に寄与しているもの,,和歌山県,和歌山県和歌山市堀止西1-3-22,,,,,34.21471000000000,135.16770000000000,主屋の北側に建つ。煉瓦造、片流れ屋根で、小屋組は梁間方向に垂木をわたす。軒にコー二スを廻し、二階各面に上下窓を二箇所設け、その上下端にタイルで白色バンドを入れる。和風建築群の中にあって洋風意匠の近代設備を大胆に取入れ、特徴的な景観とする。,https://bunka.nii.ac.jp/heritage/43967/_194157/43967_194157427579026827832_300.jpg
101,00009365,旧松井家別邸（がんこ六三園）浴室棟,きゅうまついけべってい（がんころくさんえん）よくしつとう,1棟,,登録有形文化財(建造物),住宅,建築物,,大正,大正後期,1919～1926,煉瓦造平屋建、建築面積18㎡,,30 － 0166,73,2012.08.13(平成24.08.13),2012.08.13(平成24.08.13),,20120813,,国土の歴史的景観に寄与しているもの,,和歌山県,和歌山県和歌山市堀止西1-3-22,,,,,34.21422000000000,135.16810000000000,敷地の南東、南面道路沿い建つ。建築面積一七・六平方メートル、煉瓦造で陸屋根のスラブを鉄筋コンクリート造とする。外壁頂部にパラペットをつくり、コーニスを廻す。内部は浴室や脱衣室とする。外観を円弧などの幾何意匠で構成し、当時の意匠の傾向を示す。,https://bunka.nii.ac.jp/heritage/43967/_194158/43967_194158130887899572365_300.jpg
101,00009366,旧松井家別邸（がんこ六三園）便所,きゅうまついけべってい（がんころくさんえん）べんじょ,1棟,,登録有形文化財(建造物),住宅,建築物,,大正,大正後期,1919～1926,木造平屋建、瓦葺一部檜皮葺、建築面積7.6㎡,,30 － 0167,73,2012.08.13(平成24.08.13),2012.08.13(平成24.08.13),,20120813,,国土の歴史的景観に寄与しているもの,,和歌山県,和歌山県和歌山市堀止西1-3-22,,,,,34.21448000000000,135.16810000000000,茶室の南東に建つ。桁行二・六メートル梁間二・八メートル、切妻造桟瓦葺で軒先を檜皮葺とする葺。北妻の出入口に杉皮葺の庇を付ける。外壁は黄大津、腰はモルタル仕上げとし、各面に様々な形の下地窓を開ける。手の込んだ数寄屋造として庭園空間を構成する。,https://bunka.nii.ac.jp/heritage/43967/_194159/43967_194159581688837690818_300.jpg
101,00009367,旧松井家別邸（がんこ六三園）裏門,きゅうまついけべってい（がんころくさんえん）うらもん,1基,,登録有形文化財(建造物),住宅,その他工作物,,大正,大正後期,1919～1926,鉄筋コンクリート造、間口3.4m,,30 － 0168,73,2012.08.13(平成24.08.13),2012.08.13(平成24.08.13),,20120813,,国土の歴史的景観に寄与しているもの,,和歌山県,和歌山県和歌山市堀止西1-3-22,,,,,34.21421000000000,135.16810000000000,敷地南面、浴室棟の西側に建つ。鉄筋コンクリート造で間口三・四メートル、両側に門柱が立ち、間口一・二メートルの戸口に板戸を開く。門柱間を欠円アーチで繋ぎ、戸口に枠と頂部のキーストーンを象る。簡略化された洋風意匠が独自の雰囲気を醸す。,https://bunka.nii.ac.jp/heritage/43967/_194160/43967_194160632710409467794_300.jpg
101,00009368,旧松井家別邸（がんこ六三園）土塀,きゅうまついけべってい（がんころくさんえん）どべい,1棟,,登録有形文化財(建造物),住宅,その他工作物,,大正,大正後期,1919～1926,土塀、瓦葺、総延長91m,,30 － 0169,73,2012.08.13(平成24.08.13),2012.08.13(平成24.08.13),,20120813,,国土の歴史的景観に寄与しているもの,,和歌山県,和歌山県和歌山市堀止西1-3-22,,,,,34.21419000000000,135.16790000000000,長屋門南妻から敷地南面及び西面まで折曲がりに延びる。高さ約二メートル、桟瓦葺で、軒下を漆喰塗、外壁は土壁に弁柄色の骨材を吹付け、赤味を帯びる。腰は砂岩質の切石を二段重ね、基礎に地元産の青石を積む。伝統的な彩色が施され屋敷の外観を引き締める。,https://bunka.nii.ac.jp/heritage/43967/_194161/43967_194161252954300467895_300.jpg
101,00009523,北海道大学和歌山研究林本館,ほっかいどうだいがくわかやまけんきゅうりんほんかん,1棟,,登録有形文化財(建造物),学校,建築物,,昭和前,昭和2年／平成7年改修,1927／1995改修,木造2階建、鉄板葺、建築面積182㎡,,30 － 0170,74,2013.03.29(平成25.03.29),2013.03.29(平成25.03.29),,20130329,,国土の歴史的景観に寄与しているもの,,和歌山県,和歌山県東牟婁郡古座川町平井560-1他,,国立大学法人北海道大学,非営利法人,,33.64273000000000,135.68950000000000,平井川左岸、平井集落の中に建つ演習林宿舎。Ｈ形平面の木造二階建で、両翼部の妻壁を見せた切妻造鉄板葺。外壁は下見板張で、両翼妻壁はシングル張とする。窓は二連、三連の上下窓を引違に改修。小屋組は繋梁入の垂木小屋。紀伊山中に建つ札幌農学校建築。,https://bunka.nii.ac.jp/heritage/43967/_194316/43967_194316140908092838986_300.jpg
101,00009658,木綿家住宅主屋,きわたけじゅうたくしゅおく,1棟,,登録有形文化財(建造物),住宅,建築物,,昭和前,昭和15,1940,木造平屋建、瓦葺、建築面積164㎡,,30 － 0171,75,2013.06.21(平成25.06.21),2013.06.21(平成25.06.21),,20130621,,国土の歴史的景観に寄与しているもの,,和歌山県,和歌山県和歌山市堀止東1-2-28,,,,,34.21533135000000,135.17318519000000,市街地の宅地に南面し、木造平屋建、入母屋造桟瓦葺である。東端に玄関を構え、西脇の洋風応接間は切妻造スパニッシュ瓦葺とし、二連アーチ窓を設ける。西半は庭に面して和室を並べ縁を廻らせる。和洋両室とも意匠に優れる、戦前の上質な洋間付住宅である。,https://bunka.nii.ac.jp/heritage/43967/_194654/43967_194654000443996490921_300.jpg
101,00009659,木綿家住宅離れ,きわたけじゅうたくはなれ,1棟,,登録有形文化財(建造物),住宅,建築物,,昭和前,昭和15頃,1940頃,木造平屋一部2階建、瓦葺、建築面積84㎡,,30 － 0172,75,2013.06.21(平成25.06.21),2013.06.21(平成25.06.21),,20130621,,国土の歴史的景観に寄与しているもの,,和歌山県,和歌山県和歌山市堀止東1-2-28,,,,,34.21545746000000,135.17309953000000,主屋後方に中庭を介して建ち、木造平屋一部二階建で、屋根は桟瓦の錣葺とする。東側に和室二室、西端に六畳茶室を配する。茶室では、皮付丸太や面皮柱、竹棹縁を用いるなど数寄屋風を基調とし、また二階の軒は垂木を扇に配る。洗練されたつくりの離れ。,https://bunka.nii.ac.jp/heritage/43967/_194655/43967_194655132570911199481_300.jpg
101,00009660,木綿家住宅土蔵,きわたけじゅうたくどぞう,1棟,,登録有形文化財(建造物),住宅,建築物,,昭和前,昭和14,1939,土蔵造2階建、瓦葺、建築面積33㎡,,30 － 0173,75,2013.06.21(平成25.06.21),2013.06.21(平成25.06.21),,20130621,,国土の歴史的景観に寄与しているもの,,和歌山県,和歌山県和歌山市堀止東1-2-28,,,,,34.21550743000000,135.17303767000000,離れ後方に東西棟で建ち、桁行七・三メートル梁間四・六メートル、土蔵造二階建、切妻造桟瓦葺である。南面入口に大きな鉄扉を両開きとし、上部の天井廻りに洋風の蛇腹を廻らせる。外壁漆喰塗で東妻面の上下階に、独特な繰形の持送りを付した庇を付ける。,https://bunka.nii.ac.jp/heritage/43967/_194656/43967_194656673085618131383_300.jpg
101,00009661,木綿家住宅門及び塀,きわたけじゅうたくもんおよびへい,1棟,,登録有形文化財(建造物),住宅,その他工作物,,昭和前,昭和15頃,1940頃,門　木造、瓦葺、間口3.8m　塀　煉瓦造、瓦葺、総延長21m,,30 － 0174,75,2013.06.21(平成25.06.21),2013.06.21(平成25.06.21),,20130621,,国土の歴史的景観に寄与しているもの,,和歌山県,和歌山県和歌山市堀止東1-2-28,,,,,34.21524316000000,135.17333556000000,主屋玄関正面に構える門と、左右に折曲がりにのびる塀。門は一間薬医門、切妻造桟瓦葺で、左右に落棟の脇門を開く。塀の腰は花崗岩張、壁はモルタル掻落し仕上げで、桟瓦葺とする。門の両側で円弧状に曲げて穏やかな印象を持たせ、良質な宅地景観をつくる。,https://bunka.nii.ac.jp/heritage/43967/_194657/43967_194657412700643512063_300.jpg
101,00009662,中野家住宅主屋,なかのけじゅうたくしゅおく,1棟,,登録有形文化財(建造物),住宅,建築物,,明治,明治前期／明治後期改修,1868～1882／1898～1912改修,木造平屋建、瓦葺、建築面積126㎡,,30 － 0175,75,2013.06.21(平成25.06.21),2013.06.21(平成25.06.21),,20130621,,国土の歴史的景観に寄与しているもの,,和歌山県,和歌山県海南市七山字星子1259,,,,,34.19805000000000,135.31320000000000,田園地帯の敷地に南面し、木造平屋建、入母屋造桟瓦葺で、下屋を廻らす。内部は東寄りを土間、床上部を整型四間取とし、南側にザシキ・シモノマを配する。小屋は棟束に登梁を鼻栓差とする。土間寄付きの部屋境を半間ずらすなど、当地方の民家の特徴を伝える。,https://bunka.nii.ac.jp/heritage/43967/_194658/43967_194658140916101430579_300.jpg
101,00009818,和歌山県庁舎本館,わかやまけんちょうしゃほんかん,1棟,,登録有形文化財(建造物),官公庁舎,建築物,,昭和前,昭和13／平成23改修,1938／2011改修,鉄筋コンクリート造一部鉄骨鉄筋コンクリート造4階建一部地階付、建築面積2630㎡,,30 － 0176,76,2013.12.24(平成25.12.24),2013.12.24(平成25.12.24),,20131224,,造形の規範となっているもの,,和歌山県,和歌山県和歌山市小松原通1-1,,和歌山県,都道府県,,34.22598000000000,135.16750000000000,鉄筋コンクリート造四階建で、正面に構える主棟の背後に議場を含む中央棟や翼廊をのばし、Ｅ字形平面として建築された。タイル貼の外壁に二連アーチ窓を並べ、頂部や玄関ポーチをテラコッタの装飾で飾り、四階正庁の内部意匠も格調がある。県都を象徴する庁舎。,https://bunka.nii.ac.jp/heritage/43967/_195647/43967_195647140905092518889_300.jpg
101,00009819,寒川家住宅主屋,そうがわけじゅうたくしゅおく,1棟,,登録有形文化財(建造物),住宅,建築物,,江戸,嘉永3頃／昭和53改修,1850頃／1978改修,木造平屋建、茅葺一部瓦葺、建築面積152㎡,,30 － 0177,76,2013.12.24(平成25.12.24),2013.12.24(平成25.12.24),,20131224,,国土の歴史的景観に寄与しているもの,,和歌山県,和歌山県日高郡日高川町大字寒川273,,,,,33.95670000000000,135.46700000000000,敷地中央に南面する。入母屋造茅葺で、桟瓦葺の下屋を廻す。東側の土間を後方に突出し、床上部は食違い四間取で、社家らしく大型の神棚を備える。部屋境には四本溝の差鴨居を入れるなど、古式を見せる。敷地内建物とあいまって山間地の農村景観に寄与する。,https://bunka.nii.ac.jp/heritage/43967/_195648/43967_195648140222025927637_300.jpg
101,00009820,寒川家住宅離れ,そうがわけじゅうたくはなれ,1棟,,登録有形文化財(建造物),住宅,建築物,,大正,大正前期／昭和前期改修,1912～1918／1926～1945改修,木造平屋建、瓦葺、建築面積108㎡,,30 － 0178,76,2013.12.24(平成25.12.24),2013.12.24(平成25.12.24),,20131224,,国土の歴史的景観に寄与しているもの,,和歌山県,和歌山県日高郡日高川町大字寒川273,,,,,33.95668000000000,135.46690000000000,主屋西方に渡廊下を介して建つ。入母屋造桟瓦葺で四方に下屋を廻らし、壁上部を漆喰塗として格子窓を穿つ。内部は三室を東西に並べ、西端の八畳主室にトコと違棚、瀟洒な意匠の書院を設える。背面の浴室や便所は天井の意匠を凝らす。閑静な佇まいの離れ。,https://bunka.nii.ac.jp/heritage/43967/_195649/43967_195649140222025928582_300.jpg
101,00009821,寒川家住宅土蔵,そうがわけじゅうたくどぞう,1棟,,登録有形文化財(建造物),住宅,建築物,,明治,明治中期,1883～1897,土蔵造2階建、瓦葺、建築面積34㎡,,30 － 0179,76,2013.12.24(平成25.12.24),2013.12.24(平成25.12.24),,20131224,,国土の歴史的景観に寄与しているもの,,和歌山県,和歌山県日高郡日高川町大字寒川273,,,,,33.95663000000000,135.46720000000000,主屋の南東方に南北棟で建つ。桁行六・八メートル梁間五メートル、土蔵造二階建、切妻造、置屋根式の桟瓦葺で、西面を戸口として庇を付す。外壁は漆喰塗とし、腰を竪板張目板打ちとする。家財道具などを納める蔵で、屋敷地の景観を引き立てる。,https://bunka.nii.ac.jp/heritage/43967/_195650/43967_195650140222025929670_300.jpg
101,00009822,寒川家住宅表門,そうがわけじゅうたくおもてもん,1棟,,登録有形文化財(建造物),住宅,その他工作,,昭和前,昭和12,1937,木造、杉皮葺、間口4.0m,,30 － 0180,76,2013.12.24(平成25.12.24),2013.12.24(平成25.12.24),,20131224,,国土の歴史的景観に寄与しているもの,,和歌山県,和歌山県日高郡日高川町大字寒川273,,,,,33.95660000000000,135.46720000000000,敷地正面中央に構える間口三間の棟門で、中央間背面に控柱二本を立て、屋根は切妻造杉皮葺である。中央間を広くとって門口とし、東脇間を潜戸、西脇間を竪板壁とするが、開口はいずれも門扉を吊らず開放とする。風格ある大型の門で、表構えに格式を与えている。,https://bunka.nii.ac.jp/heritage/43967/_195651/43967_195651140222025931854_300.jpg
101,00009823,寒川家住宅塀,そうがわけじゅうたくへい,1棟,,登録有形文化財(建造物),住宅,その他工作,,昭和前,昭和12,1937,木造、杉皮葺、総延長22m,,30 － 0181,76,2013.12.24(平成25.12.24),2013.12.24(平成25.12.24),,20131224,,国土の歴史的景観に寄与しているもの,,和歌山県,和歌山県日高郡日高川町大字寒川273,,,,,33.95659000000000,135.46710000000000,表門の東西に折曲がりにのびる塀。東方が延長九・五メートル、西方が同一三メートルで、屋根は杉皮葺とする。水切の下部を竪板壁とし、上部は黒漆喰壁で、白漆喰の見切りを廻してアクセントとする。表門と同時期の建築で、ともに良質な表構えを形成する。,https://bunka.nii.ac.jp/heritage/43967/_195652/43967_195652140222025933741_300.jpg
101,00009824,寒川家住宅小門,そうがわけじゅうたくこもん,1棟,,登録有形文化財(建造物),住宅,その他工作,,大正,大正後期,1919～1926,木造、瓦葺、間口2.0m、左右袖塀付,,30 － 0182,76,2013.12.24(平成25.12.24),2013.12.24(平成25.12.24),,20131224,,国土の歴史的景観に寄与しているもの,,和歌山県,和歌山県日高郡日高川町大字寒川273,,,,,33.95662000000000,135.46680000000000,屋敷地の西辺、離れの南西側に開く小型の一間薬医門で、左右に土塀の袖塀を付ける。普段は使用されず、屋敷地の西側に位置する寒川神社で祭礼を行う際の出入りに使用する。全体に簡素な意匠となっているが、屋敷地と神社との関係性を示す門である。,https://bunka.nii.ac.jp/heritage/43967/_195653/43967_195653140222025934693_300.jpg
101,00009825,寒川家住宅石垣,そうがわけじゅうたくいしがき,1基,,登録有形文化財(建造物),住宅,その他工作,,昭和前,昭和前期,1926～1945,石造、延長20m,,30 － 0183,76,2013.12.24(平成25.12.24),2013.12.24(平成25.12.24),,20131224,,国土の歴史的景観に寄与しているもの,,和歌山県,和歌山県日高郡日高川町大字寒川273,,,,,33.95657000000000,135.46690000000000,表門の西にのびる塀と、小門との間に築かれた石垣で、屋敷地の南西辺を区画する。緩やかに折れ曲がり、延長二〇メートルを測る。切石を腰ほどの高さに四段布積みし、上部に植栽を施す。要所に家紋に因む梅鉢を象った積み方を表し、外観に変化を添える。,https://bunka.nii.ac.jp/heritage/43967/_195654/43967_195654140222025935638_300.jpg
101,00010033,和歌山電鐵貴志川線伊太祈曽駅プラットホーム及び上屋,わかやまでんてつきしがわせんいだきそえきぷらっとほーむおよびうわや,1棟,,登録有形文化財(建造物),交通,建築物,,大正,プラットホーム　大正5　上屋　昭和前期,プラットホーム　1916　上屋　1926～1945,プラットホーム　石造、延長43m　上屋　鉄骨造、鉄板葺、建築面積36㎡,,30 － 0184,77,2014.04.25(平成26.04.25),2014.04.25(平成26.04.25),,20140425,,国土の歴史的景観に寄与しているもの,,和歌山県,和歌山県和歌山市伊太祈曽字宮ノ前76-3,,和歌山電鐵株式会社,営利法人,,34.20365000000000,135.24960000000000,和歌山電鐵伊太祈曽駅構内西側に位置する、延長四三メートルの石積プラットホームと桁行一五メートル梁間二・四メートルの上屋である。上屋は古レールの柱と山形に組んだ梁を一体化した躯体で母屋を受け、軒先にデンティル形の飾り板をあしらう特徴的な形式。,https://bunka.nii.ac.jp/heritage/43967/_196180/43967_196180140718092342363_300.jpg
101,00010034,和歌山電鐵貴志川線伊太祈曽駅検査場,わかやまでんてつきしがわせんいだきそえきけんさじょう,1棟,,登録有形文化財(建造物),交通,建築物,,大正,大正5／昭和36改修,1916／1961改修,木造平屋建、鉄板葺、建築面積569㎡,,30 － 0185,77,2014.04.25(平成26.04.25),2014.04.25(平成26.04.25),,20140425,,国土の歴史的景観に寄与しているもの,,和歌山県,和歌山県和歌山市伊太祈曽字宮ノ前65-2他,,和歌山電鐵株式会社,営利法人,,34.20365000000000,135.24960000000000,和歌山電鐵伊太祈曽駅構内の東側に西面して建つ。桁行五二メートル、梁間七・六メートル、切妻造の木造平屋建で、南面に片流れの附属屋を付ける。小屋組は丸太を用いたキングポストトラスで、床にはピットを二本設ける。木造の車両検査場として貴重な遺構。,https://bunka.nii.ac.jp/heritage/43967/_196181/43967_196181140718092344856_300.jpg
101,00010035,和歌山電鐵貴志川線大池第一橋梁,わかやまでんてつきしがわせんおいけだいいちきょうりょう,1基,,登録有形文化財(建造物),交通,土木構造物,,昭和前,昭和8,1933,鋼製5連桁橋、橋長36m,,30 － 0186,77,2014.04.25(平成26.04.25),2014.04.25(平成26.04.25),,20140425,,再現することが容易でないもの,,和歌山県,和歌山県和歌山市永山～紀の川市貴志川町長山1304-3,,和歌山電鐵株式会社,営利法人,,34.20632000000000,135.25970000000000,旧和歌山鉄道の延伸に伴い建設された橋梁。橋長三六メートル、単線仕様の鋼製五連桁橋。桁には長さ七メートルのＩビームを用い、二本の主桁を上下の横構と中間支材で繋ぐ。昭和初期の官鉄の標準設計では使用されなかった長大なＩビームが特徴的。,https://bunka.nii.ac.jp/heritage/43967/_196182/43967_196182140718092347060_300.jpg
101,00010036,和歌山電鐵貴志川線大池第二橋梁,わかやまでんてつきしがわせんおいけだいにきょうりょう,1基,,登録有形文化財(建造物),交通,土木構造物,,昭和前,昭和8,1933,鋼製7連桁橋、橋長51m,,30 － 0187,77,2014.04.25(平成26.04.25),2014.04.25(平成26.04.25),,20140425,,再現することが容易でないもの,,和歌山県,和歌山県和歌山市永山,,和歌山電鐵株式会社,営利法人,,34.20632000000000,135.25970000000000,第一橋梁と共に大池に架かる鉄道橋梁。橋長五一メートル、単線仕様の鋼製七連橋梁で、桁には七メートル長のＩビームを用いる。橋脚は円筒形の鉄筋コンクリート造で、橋台は鉄筋コンクリート造躯体の両側に空積の石積翼壁をつける。同路線における最長の橋梁。,https://bunka.nii.ac.jp/heritage/43967/_196183/43967_196183140718092349541_300.jpg
101,00010037,和歌山電鐵貴志川線西第二橋梁,わかやまでんてつきしがわせんにしだいにきょうりょう,1基,,登録有形文化財(建造物),交通,土木構造物,,大正,大正5,1916,鋼製2連桁橋、橋長14m,,30 － 0188,77,2014.04.25(平成26.04.25),2014.04.25(平成26.04.25),,20140425,,再現することが容易でないもの,,和歌山県,和歌山県和歌山市西字淀,,和歌山電鐵株式会社,営利法人,,34.20453000000000,135.21730000000000,伊太祈曽駅から約三キロメートル西側に位置する。橋長一四メートル、単線仕様の鋼製二連橋梁で、桁には六・七メートル長のＩビームを用いる。鉄道とほぼ平行に築かれた農業用水と鋭角に交差するため、二本の主桁を互いに大きく前後させて繋ぐ特徴的なつくり。,https://bunka.nii.ac.jp/heritage/43967/_196184/43967_196184140718092353391_300.jpg
101,00010038,豊島家住宅主屋,とよしまけじゅうたくしゅおく,1棟,,登録有形文化財(建造物),住宅,建築物,,江戸,天明3,1783,木造平屋一部2階建、瓦葺、建築面積160㎡,,30 － 0189,77,2014.04.25(平成26.04.25),2014.04.25(平成26.04.25),,20140425,,国土の歴史的景観に寄与しているもの,,和歌山県,和歌山県橋本市清水字中栄226,,,,,34.30814000000000,135.60500000000000,旧高野街道に北面して建つ。右土間で、床上部は表側にマチノマなど三室、裏側を二室とする。一・二尺角の大黒柱や太い梁を架構し、成の高い差物でマチノマ周囲を固める。正面構えを太い格子や出格子で構成し、入口に摺揚戸を残すなど、橋本の町家の特徴を伝える。,https://bunka.nii.ac.jp/heritage/43967/_196185/43967_196185140718092355969_300.jpg
101,00010039,東光寺本堂,とうこうじほんどう,1棟,,登録有形文化財(建造物),宗教,建築物,,江戸,弘化4,1847,木造平屋建、瓦葺、建築面積234㎡,,30 － 0190,77,2014.04.25(平成26.04.25),2014.04.25(平成26.04.25),,20140425,,国土の歴史的景観に寄与しているもの,,和歌山県,和歌山県東牟婁郡北山村大字竹原296,,宗教法人東光寺,非営利法人,,33.93206000000000,135.96940000000000,桁行九間半梁間六間、切妻造平入で、東面して建つ。方丈型本堂と庫裏を組み合わせた形式で、本堂部は五室、庫裏部は四室からなり、簡素な外観ながら、ケヤキを用いた内陣を中心とした上質な堂内をもつ。両妻にはガンギと呼ばれる板張を設け、地方的特色を示す。,https://bunka.nii.ac.jp/heritage/43967/_196186/43967_196186140718092357098_300.jpg
101,00010040,東光寺山門,とうこうじさんもん,1棟,,登録有形文化財(建造物),宗教,その他工作,,江戸,文久元,1861,木造、瓦葺、間口2.4m,,30 － 0191,77,2014.04.25(平成26.04.25),2014.04.25(平成26.04.25),,20140425,,国土の歴史的景観に寄与しているもの,,和歌山県,和歌山県東牟婁郡北山村大字竹原字下モ地296,,宗教法人東光寺,非営利法人,,33.93206000000000,135.96940000000000,本堂の東正面に建つ四脚門形式の山門で、棟柱を若干正面側にずらし、薬医門に似た構成とする。切妻造桟瓦葺。柱上には組物を設けず、棟通りは冠木上に棟束三本を立てて斗と実肘木で棟木を受け、妻では棟束に大振りの笈形を付す。伽藍正面の景観を引き立てる。,https://bunka.nii.ac.jp/heritage/43967/_196187/43967_196187140718092359760_300.jpg
101,00010225,堀河屋又兵衛家住宅主屋,ほりかわやまたべえけじゅうたくしゅおく,1棟,,登録有形文化財(建造物),住宅,建築物,,江戸,江戸末期／昭和前期改修,1830～1868／1926～1945改修,木造平屋一部2階建、瓦葺、建築面積189㎡,,30 － 0192,78,2014.10.07(平成26.10.07),2014.10.07(平成26.10.07),,20141007,,国土の歴史的景観に寄与しているもの,,和歌山県,和歌山県御坊市御坊85,,,,,33.88808000000000,135.15770000000000,日高御坊の寺内町中心部に所在し、別院裏の通りに西面して建ち、本瓦葺とする。正面に出格子をたて、軒先に当地でオダレと呼ぶ幕板を設けて地方的特色を備える。内部は前後二列で後列北を座敷とする。建ちが低く古様を示す町家で、寺内町の景観形成に寄与する。,https://bunka.nii.ac.jp/heritage/43967/_198058/43967_198058150317212801860_300.jpg
101,00010226,堀河屋又兵衛家住宅土蔵,ほりかわやまたべえけじゅうたくどぞう,1棟,,登録有形文化財(建造物),住宅,建築物,,昭和前,昭和5頃,1930頃,土蔵造2階建、瓦葺、建築面積23㎡,,30 － 0193,78,2014.10.07(平成26.10.07),2014.10.07(平成26.10.07),,20141007,,国土の歴史的景観に寄与しているもの,,和歌山県,和歌山県御坊市御坊85,,,,,33.88808000000000,135.15770000000000,主屋の北側に接道して東西棟で建つ、切妻造二階建の土蔵。基礎は花崗岩積で、西面は一階を竪板張、二階を漆喰塗とする。小屋組は折置組の登梁とし、屋根には本瓦を葺いて緩やかな起りをつける。主屋とともに、寺内町の通りの歴史的な景観を構成する。,https://bunka.nii.ac.jp/heritage/43967/_198059/43967_198059150317212802553_300.jpg
101,00010227,堀河屋野村店舗兼主屋,ほりかわやのむらてんぽけんしゅおく,1棟,,登録有形文化財(建造物),産業2次,建築物,,江戸,江戸末期／明治中期改修,1830～1868／1883～1897改修,木造平屋建、瓦葺、建築面積149㎡,,30 － 0194,78,2014.10.07(平成26.10.07),2014.10.07(平成26.10.07),,20141007,,国土の歴史的景観に寄与しているもの,,和歌山県,和歌山県御坊市薗字新町743他,,,,,33.89469000000000,135.15390000000000,新町通りに北面して建つ。木造平屋建で、本瓦を葺く。軒高が低く、座敷部分を出格子とし、木部にベンガラを塗る。床上部は二列六室構成でアガリトと呼ばれる板床を土間に張出す、江戸末期における当地の町家の典型的平面になる。上質で地方的特色を示す近世町家。,https://bunka.nii.ac.jp/heritage/43967/_198060/43967_198060150317212803308_300.jpg
101,00010228,堀河屋野村土蔵,ほりかわやのむらどぞう,1棟,,登録有形文化財(建造物),産業2次,建築物,,江戸,江戸末期／昭和28頃改修,1830～1868／1953頃改修,土蔵造2階建、瓦葺、建築面積44㎡,,30 － 0195,78,2014.10.07(平成26.10.07),2014.10.07(平成26.10.07),,20141007,,国土の歴史的景観に寄与しているもの,,和歌山県,和歌山県御坊市薗字新町743他,,,,,33.89469000000000,135.15390000000000,敷地ほぼ中央に東西棟で、西面して建つ。桁行四間、梁間三間、土蔵造二階建、切妻造本瓦葺で、西妻を戸口として、重厚に塗込めた庇を付ける。蔵の中央には七寸角の柱を立てて牛梁を受ける。醸造関係の道具や家財道具を収納するために建てられた土蔵。,https://bunka.nii.ac.jp/heritage/43967/_198061/43967_198061150317212804071_300.jpg
101,00010229,堀河屋野村第一仕込蔵,ほりかわやのむらだいいちしこみぐら,1棟,,登録有形文化財(建造物),産業2次,建築物,,江戸,江戸末期,1830～1868,木造平屋建、瓦葺、建築面積85㎡,,30 － 0196,78,2014.10.07(平成26.10.07),2014.10.07(平成26.10.07),,20141007,,国土の歴史的景観に寄与しているもの,,和歌山県,和歌山県御坊市薗字新町743他,,,,,33.89469000000000,135.15390000000000,土蔵の南隣に南北棟で建ち、西面に戸口を開く。桁行五間半、梁間四間で、半間毎に柱を立て、土壁を塗る。棟通中央に棟柱を立て、両妻の天秤梁から地棟木を渡して登梁を架ける。内壁は中塗仕上とし、木部にも麹菌が付着する。醤油のもろみを熟成させるための蔵。,https://bunka.nii.ac.jp/heritage/43967/_198062/43967_198062150317212804838_300.jpg
101,00010230,堀河屋野村第二仕込蔵,ほりかわやのむらだいにしこみぐら,1棟,,登録有形文化財(建造物),産業2次,建築物,,大正,大正前期,1912～1918,木造平屋建、瓦葺、建築面積72㎡,,30 － 0197,78,2014.10.07(平成26.10.07),2014.10.07(平成26.10.07),,20141007,,国土の歴史的景観に寄与しているもの,,和歌山県,和歌山県御坊市薗字新町743,,,,,33.89469000000000,135.15390000000000,主屋背面側西寄りに南北棟で建ち、東面に戸口を開く。桁行五間、梁間四間で、南西側の一角にコンクリート造のムロを張出す。小屋組はキングポストトラスで方杖を併用する。壁は内部を荒壁仕上、外部を竪板張とする。内部に多数の木桶を置き、仕込みに用いる。,https://bunka.nii.ac.jp/heritage/43967/_198063/43967_198063150317212805548_300.jpg
101,00010231,堀河屋野村作業蔵,ほりかわやのむらさぎょうぐら,1棟,,登録有形文化財(建造物),産業2次,建築物,,江戸,江戸後期／昭和前期増築,1751～1830／1926～1945増築,木造一部コンクリート造平屋建、瓦葺、建築面積127㎡、煙突付,,30 － 0198,78,2014.10.07(平成26.10.07),2014.10.07(平成26.10.07),,20141007,,国土の歴史的景観に寄与しているもの,,和歌山県,和歌山県御坊市薗字新町743,,,,,33.89469000000000,135.15390000000000,第二仕込蔵の南側に、第一仕込蔵と対面して建つ。もろみを絞り出して生醤油の加熱や瓶詰等を行う作業場で、桁行六間、梁間四間の本屋北側に梁間一間の庇、東には煉瓦造の煙突を付け、南西にはコンクリート造のムロを張出す。醤油醸造所の景観を特徴付ける。,https://bunka.nii.ac.jp/heritage/43967/_198064/43967_198064150317212806297_300.jpg
101,00010232,大江家住宅大蔵,おおえけじゅうたくおおぐら,1棟,,登録有形文化財(建造物),住宅,建築物,,明治,明治前期,1868～1882,土蔵造2階建、瓦葺、建築面積176㎡,,30 － 0199,78,2014.10.07(平成26.10.07),2014.10.07(平成26.10.07),,20141007,,国土の歴史的景観に寄与しているもの,,和歌山県,和歌山県日高郡みなべ町北道字濱通り309,,,,,33.77013000000000,135.32140000000000,旧熊野街道に東面する主屋の西側東面して建つ。桁行九間、梁間五間の規模で、現状では一階を四室に間仕切るが、もとは一室の大空間であった。二階は一室で、二本の棟通り柱で牛梁を受ける。外壁は上部漆喰塗とし、高く竪板を張る。酒造の歴史を伝える大型土蔵。,https://bunka.nii.ac.jp/heritage/43967/_198065/43967_198065150317212807016_300.jpg
101,00010233,大江家住宅東蔵,おおえけじゅうたくひがしぐら,1棟,,登録有形文化財(建造物),住宅,建築物,,江戸,江戸末期／明治後期改修,1830～1868／1898～1912改修,土蔵造2階建、瓦葺、建築面積43㎡,,30 － 0200,78,2014.10.07(平成26.10.07),2014.10.07(平成26.10.07),,20141007,,国土の歴史的景観に寄与しているもの,,和歌山県,和歌山県日高郡みなべ町北道字濱通り309,,,,,33.77013000000000,135.32140000000000,主屋の南西方に西面して建つ二階建の土蔵。東面は主屋の西側に広がる庭園に面しており、下部を海鼠壁に、上部を漆喰仕上とする。ほかの三面は、下部を竪板張、上部を漆喰仕上とする。家財道具の収納に使用したと伝える蔵で、敷地内の景観を構成する。,https://bunka.nii.ac.jp/heritage/43967/_198066/43967_198066150317212807718_300.jpg
101,00010335,興山寺本堂,こうざんじほんどう,1棟,,登録有形文化財(建造物),宗教,建築物,,明治,明治22年,1889年,木造平屋建、瓦葺、建築面積54㎡,,30-0201,79,2014.12.19(平成26.12.19),2014.12.19(平成26.12.19),,20141219,,国土の歴史的景観に寄与しているもの,,和歌山県,和歌山県紀の川市桃山町最上字東垣内561,,興山寺,非営利法人,,34.23128000000000,135.34790000000000,宝形造本瓦葺の三間堂で背面の庇一間を取込み、正面に向拝を付ける。柱上端を虹梁で固めて長押との間に彫刻化した蟇股を挟み、籠彫の木鼻を付す。組物は出組詰組で獅子の拳鼻を飾る。内部は一室で二重折上小組格天井を張る。豊かな彫刻で荘厳された近代仏堂。,https://bunka.nii.ac.jp/heritage/43967/_199108/43967_199108150807110542129_300.jpg
101,00010489,坂部家住宅離座敷,さかべけじゅうたくはなれざしき,1棟,,登録有形文化財(建造物),住宅,建築物,,昭和前,昭和前期,1926～1945,木造平屋建、瓦葺、建築面積39㎡,,30 － 0202,80,2015.03.26(平成27.03.26),2015.03.26(平成27.03.26),,20150326,,国土の歴史的景観に寄与しているもの,,和歌山県,和歌山県和歌山市府中875,,,,,34.26279000000000,135.22990000000000,市東部、紀ノ川右岸に所在し、主屋の東に渡廊下を介して接続する。小規模な離れで、六畳と四畳半の二室を南北に並べ、六畳の南に切目縁を、四畳半の北から西に榑縁を廻す。四畳半には床、六畳には地袋を設け、要所に杉丸太などを用い、丁寧な造作となる。,https://bunka.nii.ac.jp/heritage/43967/_199437/43967_199437151005165715024_300.jpg
101,00010490,坂部家住宅乾蔵,さかべけじゅうたくいぬいぐら,1棟,,登録有形文化財(建造物),住宅,建築物,,明治,明治前期,1868～1882,土蔵造2階建、瓦葺、建築面積20㎡,,30 － 0203,80,2015.03.26(平成27.03.26),2015.03.26(平成27.03.26),,20150326,,国土の歴史的景観に寄与しているもの,,和歌山県,和歌山県和歌山市府中875,,,,,34.26295000000000,135.22970000000000,敷地の北西隅に建つ土蔵造二階建で、南北棟の切妻造とする。屋根は置屋根形式で、本瓦葺である。外部の壁は漆喰塗、腰は竪板張とする。もとは二階に食器類が保管され、家財道具を納める蔵であった。角地に建ち、農村部の歴史的な景観に寄与している。,https://bunka.nii.ac.jp/heritage/43967/_199438/43967_199438151005165715987_300.jpg
101,00010491,坂部家住宅門長屋,さかべけじゅうたくもんながや,1棟,,登録有形文化財(建造物),住宅,建築物,,江戸,江戸末期／平成18改修,1830～1868／2006改修,木造平屋建、瓦葺、建築面積86㎡,,30 － 0204,80,2015.03.26(平成27.03.26),2015.03.26(平成27.03.26),,20150326,,国土の歴史的景観に寄与しているもの,,和歌山県,和歌山県和歌山市府中875,,,,,34.26277000000000,135.22960000000000,敷地の西側南寄りに西面して建つ。長屋門形式の建物で、入母屋造本瓦葺とし、東面の一部に下屋を付す。門口の北にウシベヤ、南にウマベヤほか四室を並べる。ウマベヤに馬とどめの柵を残す希少な遺構であり、旧家の正門として景観上も重要な役割を果たしている。,https://bunka.nii.ac.jp/heritage/43967/_199439/43967_199439151005165716888_300.jpg
101,00010492,伊藤家住宅主屋,いとうけじゅうたくしゅおく,1棟,,登録有形文化財(建造物),住宅,建築物,,大正,大正前期／昭和前期改修,1912～1918／1926～1945改修,木造2階一部平屋建、瓦葺、建築面積187㎡,,30 － 0205,80,2015.03.26(平成27.03.26),2015.03.26(平成27.03.26),,20150326,,国土の歴史的景観に寄与しているもの,,和歌山県,和歌山県御坊市御坊33他,,,,,33.88861000000000,135.15830000000000,御坊寺内町の中心部、日高別院の北東方の東町通りに西面して建つ町家。正面一階床上部は出格子、二階は鼠漆喰壁に隅を木瓜状に縁取る窓を穿つ。平面は喰違いの六間取とする。屋根は本瓦葺で、正面の下屋に当地でオダレと呼ぶ幕板を付け、地方的特色を備える。,https://bunka.nii.ac.jp/heritage/43967/_199440/43967_199440151005165717793_300.jpg
101,00010493,伊藤家住宅離れ,いとうけじゅうたくはなれ,1棟,,登録有形文化財(建造物),住宅,建築物,,昭和前,昭和前期,1926～1945,木造平屋建、瓦葺、建築面積108㎡,,30 － 0206,80,2015.03.26(平成27.03.26),2015.03.26(平成27.03.26),,20150326,,国土の歴史的景観に寄与しているもの,,和歌山県,和歌山県御坊市御坊33他,,,,,33.88866000000000,135.15870000000000,主屋東側に渡廊下を介して建つ。八畳座敷二室と四畳半の小室からなる。主座敷は書院付の床と違棚を備え、ツガなどの良材を用いて建てられている。庭側は開放的な形式とするが、背面の隣地側は軒などを塗込めて延焼防止対策が講じられた、良質な離れ建築。,https://bunka.nii.ac.jp/heritage/43967/_199441/43967_199441151005165719284_300.jpg
101,00010494,佐竹家住宅主屋,さたけけじゅうたくしゅおく,1棟,,登録有形文化財(建造物),住宅,建築物,,明治,明治中期／大正後期移築,1883～1897／1919～1926移築,木造平屋一部2階建、瓦葺、建築面積150㎡,,30 － 0207,80,2015.03.26(平成27.03.26),2015.03.26(平成27.03.26),,20150326,,国土の歴史的景観に寄与しているもの,,和歌山県,和歌山県御坊市御坊103,,,,,33.88870000000000,135.15810000000000,御坊寺内町の中心部、日高別院の北東側で東町通りに東面する、つし二階建。屋根は本瓦葺で正面に桟瓦葺の下屋を通す。一階床上部の正面は繊細な出格子を設け、二階に袖壁を付ける。平面は整型四間取で左に土間を設ける。寺内町の景観に寄与する間口の広い町家。,https://bunka.nii.ac.jp/heritage/43967/_199442/43967_199442151005165720225_300.jpg
101,00010495,佐竹家住宅離れ,さたけけじゅうたくはなれ,1棟,,登録有形文化財(建造物),住宅,建築物,,昭和中,昭和32,1957,木造平屋一部2階建、瓦葺、建築面積62㎡,,30 － 0208,80,2015.03.26(平成27.03.26),2015.03.26(平成27.03.26),,20150326,,国土の歴史的景観に寄与しているもの,,和歌山県,和歌山県御坊市御坊103,,,,,33.88872000000000,135.15800000000000,主屋角屋の北西に渡廊下を介して建ち、入母屋造本瓦葺で、東寄りに二階を持つ。一階は三室の座敷を並べ、八畳主室には書院付の床を設けて、部屋境に筬欄間を嵌める。二階座敷では数寄屋風を加味する。洗練された意匠になる離れで、山林業による繁栄を伝える。,https://bunka.nii.ac.jp/heritage/43967/_199443/43967_199443151005165721127_300.jpg
101,00010496,旧南方家住宅主屋,きゅうみなかたけじゅうたくしゅおく,1棟,,登録有形文化財(建造物),住宅,建築物,,大正,明治後期／平成17改修,1898～1912／2005改修,木造2階一部平屋建、瓦葺、建築面積71㎡,,30 － 0209,80,2015.03.26(平成27.03.26),2015.03.26(平成27.03.26),,20150326,,国土の歴史的景観に寄与しているもの,,和歌山県,和歌山県田辺市中屋敷町36-1,,田辺市,市区町村,,33.73088000000000,135.37780000000000,田辺旧城下の和歌山藩与力屋敷跡地に建つ民家。南方熊楠が大正五年に移り住み、晩年を過ごした住居として知られる。木造二階建で上下階とも二室の座敷を並べる。外壁は軒下小壁を漆喰塗とするほかは焼杉板の下見板張としており、素朴な風貌を見せる。,https://bunka.nii.ac.jp/heritage/43967/_199444/43967_199444151005165722032_300.jpg
101,00010497,旧南方家住宅書斎,きゅうみなかたけじゅうたくしょさい,1棟,,登録有形文化財(建造物),住宅,建築物,,大正,大正4／大正5移築・平成17改修,1915／1916移築・2005改修,木造平屋建、瓦葺、建築面積28㎡,,30 － 0210,80,2015.03.26(平成27.03.26),2015.03.26(平成27.03.26),,20150326,,国土の歴史的景観に寄与しているもの,,和歌山県,和歌山県田辺市中屋敷町36-1,,田辺市,市区町村,,33.73086000000000,135.37760000000000,敷地の西方に建つ小規模な建築で、熊楠自筆の敷地図には「研究室」と記される。切妻造桟瓦葺で、八畳一室の東西に縁を設けて開放的につくり、漆喰塗の外壁は腰を竪板張とする。現在は、粘菌などの研究に没頭した熊楠存命中の研究室の状況を再現して展示する。,https://bunka.nii.ac.jp/heritage/43967/_199445/43967_199445151005165723929_300.jpg
101,00010498,旧南方家住宅土蔵,きゅうみなかたけじゅうたくどぞう,1棟,,登録有形文化財(建造物),住宅,建築物,,大正,明治中期／平成17改修,1883～1897／2007改修,土蔵造2階建、瓦葺、建築面積23㎡,,30 － 0211,80,2015.03.26(平成27.03.26),2015.03.26(平成27.03.26),,20150326,,国土の歴史的景観に寄与しているもの,,和歌山県,和歌山県田辺市中屋敷町36-1,,田辺市,市区町村,,33.73094000000000,135.37760000000000,書斎の北方に主屋と平行して南北棟で建つ。土蔵造二階建で、小屋組は登梁形式、屋根は本瓦葺とする。外壁は焼杉板の竪板張である。熊楠存命中は、一階を書庫に、二階を物置に使っていたと伝える。他の建物と同様の外観仕様になり、屋敷内の景観を整えている。,https://bunka.nii.ac.jp/heritage/43967/_199446/43967_199446151005165725760_300.jpg
101,00010499,旧南方家住宅井戸屋形,きゅうみなかたけじゅうたくいどやかた,1棟,,登録有形文化財(建造物),住宅,建築物,,明治,明治中期／平成17改修,1883～1897／2007改修,木造平屋建、瓦葺、建築面積14㎡,,30 － 0212,80,2015.03.26(平成27.03.26),2015.03.26(平成27.03.26),,20150326,,国土の歴史的景観に寄与しているもの,,和歌山県,和歌山県田辺市中屋敷町36-1,,田辺市,市区町村,,33.73081000000000,135.37780000000000,主屋の南東方向、台所の傍らに建ち、外台所とも呼ばれていたという。建ちが低く、屋根は招造桟瓦葺とする。平面は、西から井戸、土間、床上部とし、それぞれ土壁で仕切られる。中央の土間にはかつて竈が設置されていた。往時の生活の様子を現在に伝える施設。,https://bunka.nii.ac.jp/heritage/43967/_199447/43967_199447151005165727651_300.jpg
101,00010877,友ヶ島灯台,ともがしまとうだい,1基,,登録有形文化財(建造物),交通,その他工作物,,明治,明治5／明治23移築・昭和52改修,1872／1890移築・1977改修,石造、建築面積55㎡、高さ12m,,30 ‐ 0213,82,2015.11.17(平成27.11.17),2015.11.17(平成27.11.17),,20151117,,国土の歴史的景観に寄与しているもの,,和歌山県,和歌山県和歌山市加太苫ヶ沖島2673-1内,,国（国土交通省）,国,,34.28076000000000,135.00040000000000,紀淡海峡に所在する友ヶ島の西端、海抜五一メートル地点に建つ、ブラントン設計の石造灯台。円形平面で高さ一二メートルの灯塔に、同心半円形の附属舎を設け、灯室頂部は鉄板でドーム状に作る。英国と交わした約定に基づき建設された、わが国最初期の洋式灯台。,https://bunka.nii.ac.jp/heritage/43967/_201712/43967_201712160322112319085_300.jpg
101,00010878,なかがわ（旧中川家住宅）主屋,なかがわ（きゅうなかがわけじゅうたく）しゅおく,1棟,,登録有形文化財(建造物),住宅,建築物,,昭和前,昭和12／平成26改修,1937／2014改修,木造平屋一部2階建、瓦葺、建築面積308㎡,,30 ‐ 0214,82,2015.11.17(平成27.11.17),2015.11.17(平成27.11.17),,20151117,,国土の歴史的景観に寄与しているもの,,和歌山県,和歌山県御坊市御坊字東中筋106他,,社会福祉法人和歌山県福祉事業団,非営利法人,,33.88897000000000,135.15780000000000,寺内町の通り沿いに建つ。入母屋屋根を重層させ、庇を廻らせた風格ある外観で、道側に座敷や洋風応接室を並べ、中庭を挟む庭園側に座敷四室などを配する。上下階とも南に廊下を通し開放する。林業家らしくヒノキの良材を多用し、和洋の意匠も上質な近代住宅。,https://bunka.nii.ac.jp/heritage/43967/_201713/43967_201713160322112321039_300.jpg
101,00010879,なかがわ（旧中川家住宅）東蔵,なかがわ（きゅうなかがわけじゅうたく）ひがしぐら,1棟,,登録有形文化財(建造物),住宅,建築物,,昭和前,昭和前期,1926～1945,土蔵造2階建及び木造平屋建、瓦葺、建築面積51㎡,,30 ‐ 0215,82,2015.11.17(平成27.11.17),2015.11.17(平成27.11.17),,20151117,,国土の歴史的景観に寄与しているもの,,和歌山県,和歌山県御坊市御坊字東中筋106他,,社会福祉法人和歌山県福祉事業団,非営利法人,,33.88903000000000,135.15800000000000,主屋東側の座敷部に前室を介して接続する。桁行五・八メートル梁間五・〇メートル、土蔵造二階建、切妻造本瓦葺で、前室側に扉を開く。外壁漆喰塗で鉢巻を廻らし、腰を洗出し仕上げとする。上下階とも南妻の窓に繰形付の庇を付す。庭空間を引立てる内蔵。,https://bunka.nii.ac.jp/heritage/43967/_201714/43967_201714160322112322512_300.jpg
101,00010880,なかがわ（旧中川家住宅）西蔵,なかがわ（きゅうなかがわけじゅうたく）にしぐら,1棟,,登録有形文化財(建造物),住宅,建築物,,昭和前,昭和12／平成26改修,1937／2014改修,土蔵造2階建、瓦葺、建築面積27㎡,,30 ‐ 0216,82,2015.11.17(平成27.11.17),2015.11.17(平成27.11.17),,20151117,,国土の歴史的景観に寄与しているもの,,和歌山県,和歌山県御坊市御坊字東中筋106他,,社会福祉法人和歌山県福祉事業団,非営利法人,,33.88899000000000,135.15770000000000,主屋の西側、玄関への斜路を挟む通り沿いに、南北棟で建つ。桁行五・六メートル梁間四・七メートル、土蔵造、切妻造本瓦葺で、南妻を戸口として瓦庇を付ける。外壁漆喰塗で鉢巻を廻らし、腰を花崗岩張とする。主屋と対峙して建ち、重厚な表構えを創る土蔵。,https://bunka.nii.ac.jp/heritage/43967/_201715/43967_201715160322112324041_300.jpg
101,00011389,旧戸田家住宅主屋,きゅうとだけじゅうたくしゅおく,1棟,,登録有形文化財(建造物),住宅,建築物,,大正,大正後期,1919～1926,木造2階建、瓦葺、建築面積125㎡,,30－0217,85,2016.11.29(平成28.11.29),2016.11.29(平成28.11.29),,20161129,,国土の歴史的景観に寄与しているもの,,和歌山県,和歌山県有田郡広川町大字広1347他,,広川町,市区町村,,34.02742000000000,135.17290000000000,近世から製網業を営んだ家の主屋。通りに西面し、南側に土間を取って北に床上部四室を配し、土間背面には台所を突出させる。二階は土間上の一部を吹き抜けとし、西北隅八畳は棹縁天井を折り上げる。外観も二階出格子窓下部を漆喰で持ち出すなど意匠を凝らす。,https://bunka.nii.ac.jp/heritage/43967/_209226/43967_209226617619030158541_300.jpg
101,00011390,旧戸田家住宅大座敷棟,きゅうとだけじゅうたくおおざしきとう,1棟,,登録有形文化財(建造物),住宅,建築物,,昭和前,昭和前期,1926～1945,木造平屋建、瓦葺、建築面積95㎡,,30－0218,85,2016.11.29(平成28.11.29),2016.11.29(平成28.11.29),,20161129,,造形の規範となっているもの,,和歌山県,和歌山県有田郡広川町大字広1347他,,広川町,市区町村,,34.02733000000000,135.17320000000000,敷地の東北隅に建つ。木造平屋建、入母屋造桟瓦葺で、網工場に接する西面以外は庇を付す。庭に面した南・東の二面は庇軒先を銅板葺として軽快に見せる。内部は一〇畳二室と四畳を配し、庭側に縁を廻らす。檜の良材を用い、上質な意匠でまとめた客座敷である。,https://bunka.nii.ac.jp/heritage/43967/_209227/43967_209227612384387403267_300.jpg
101,00011391,旧戸田家住宅隠居棟,きゅうとだけじゅうたくいんきょとう,1棟,,登録有形文化財(建造物),住宅,建築物,,昭和前,昭和前期,1926～1945,木造平屋建、瓦葺、建築面積36㎡,,30－0219,85,2016.11.29(平成28.11.29),2016.11.29(平成28.11.29),,20161129,,造形の規範となっているもの,,和歌山県,和歌山県有田郡広川町大字広1347他,,広川町,市区町村,,34.02731000000000,135.17300000000000,主屋の背面側に建つ独立棟。主として保太郎の弟が起居したと伝える。緩やかな起り屋根の入母屋造平屋建で、南以外の三面に銅板葺の庇を廻らす。西面戸口を両開板戸とし、半間土間を介して四畳と六畳の二室を並べる。庇を扇垂木とし、軽快な外観を見せる。,https://bunka.nii.ac.jp/heritage/43967/_209228/43967_209228473701240080306_300.jpg
101,00011392,旧戸田家住宅網工場,きゅうとだけじゅうたくあみこうば,1棟,,登録有形文化財(建造物),住宅,建築物,,大正,大正後期,1919～1926,木造2階建、瓦葺、建築面積204㎡,,30－0220,85,2016.11.29(平成28.11.29),2016.11.29(平成28.11.29),,20161129,,造形の規範となっているもの,,和歌山県,和歌山県有田郡広川町大字広1347他,,広川町,市区町村,,34.02744000000000,135.17300000000000,主屋の北側に妻を見せて建つ桁行二八メートルの長大な建物。一・二階とも窓を多く取り、一階は土間として三室に区切り、奥の一室は土壁で囲う。二階は一室の作業場とする。小屋は和小屋で、水平梁と登梁を混用する。製網用に広い内部空間をとった工場建築。,https://bunka.nii.ac.jp/heritage/43967/_209229/43967_209229518999023121152_300.jpg
101,00011393,旧戸田家住宅西蔵,きゅうとだけじゅうたくにしぐら,1棟,,登録有形文化財(建造物),住宅,建築物,,昭和前,昭和前期,1926～1945,土蔵造2階建、瓦葺、建築面積35㎡,,30－0221,85,2016.11.29(平成28.11.29),2016.11.29(平成28.11.29),,20161129,,国土の歴史的景観に寄与しているもの,,和歌山県,和歌山県有田郡広川町大字広1347他,,広川町,市区町村,,34.02735000000000,135.17280000000000,主屋南に建ち、街路に妻面を見せる。桁行梁間とも五・九メートルの正方形平面で、本瓦葺。基礎石の上に土台を敷いて半間毎に柱を立てる。内部は一階が竪板張、二階は漆喰塗とする。外壁は主屋側を海鼠壁とする他は竪板張とし、上部は漆喰塗で鉢巻を廻らす。,https://bunka.nii.ac.jp/heritage/43967/_209230/43967_209230624300540032534_300.jpg
101,00011394,旧戸田家住宅東蔵,きゅうとだけじゅうたくひがしぐら,1棟,,登録有形文化財(建造物),住宅,建築物,,昭和前,昭和前期,1926～1945,土蔵造2階建、瓦葺、建築面積44㎡,,30－0222,85,2016.11.29(平成28.11.29),2016.11.29(平成28.11.29),,20161129,,国土の歴史的景観に寄与しているもの,,和歌山県,和歌山県有田郡広川町大字広1347他,,広川町,市区町村,,34.02731000000000,135.17290000000000,西蔵に並んで建つ。外壁の意匠を西蔵とほぼ同一にするが、桁行がやや長い長方形平面で、計画寸法も桁行梁間で違えている。北面と東面は下部を海鼠壁とするが、それぞれ四半張と芋張として意匠を変えている。家財蔵と伝え、漁業で栄えた地域の景観を今に伝える。,https://bunka.nii.ac.jp/heritage/43967/_209231/43967_209231189520685698951_300.jpg
101,00011785,正住寺離れ座敷,しょうじゅうじはなれざしき,1棟,,登録有形文化財(建造物),宗教,建築物,,大正,大正9年／平成25年移築,1920／2013移築,木造平屋建、瓦葺、建築面積62㎡,,30-0223,87,2017.06.28(平成29.06.28),2017.06.28(平成29.06.28),,20170628,,造形の規範となっているもの,,和歌山県,和歌山県和歌山市東長町二丁目17他,,宗教法人正住寺,宗教法人,,34.22823000000000,135.16380000000000,山門から本堂へと続く参道の北側に建つ。寄棟造桟瓦葺の平屋建で、座敷一〇畳、次の間七畳半の正面側及び背面側に内縁を設け、南西隅に入母屋造の玄関が取り付く。座敷廻りを杉や檜を用いて端正にまとめるなど、質の高い意匠を備える離れ座敷である。,https://bunka.nii.ac.jp/heritage/43967/_210801/43967_210801211148396360101_300.jpg
101,00011786,稱念寺本堂,しょうねんじほんどう,1棟,,登録有形文化財(建造物),宗教,建築物,,江戸,寛政7年（1795）／明治40年移築,1795／1907移築,木造平屋建、瓦葺、建築面積343㎡,,30-0224,87,2017.06.28(平成29.06.28),2017.06.28(平成29.06.28),,20170628,,造形の規範となっているもの,,和歌山県,和歌山県和歌山市加太1346,,宗教法人稱念寺,宗教法人,,34.27494000000000,135.07440000000000,加太の街中にある西山浄土宗寺院の本堂。入母屋造本瓦葺の七間堂で、和歌山城下にあった真光寺より移築したもの。三間規模の向拝を設け、南東には式台玄関が付く。身舎柱は円柱、庇柱は面取角柱。内陣柱は漆塗金襴巻、小壁に彫刻欄間をはめるなど荘厳な造り。,https://bunka.nii.ac.jp/heritage/43967/_210802/43967_210802964088918555676_300.jpg
101,00011787,稱念寺山門,しょうねんじさんもん,1棟,,登録有形文化財(建造物),宗教,その他工作物,,江戸,江戸末期,1830～1868,木造、瓦葺、間口2.9m、左右潜戸付,,30-0225,87,2017.06.28(平成29.06.28),2017.06.28(平成29.06.28),,20170628,,造形の規範となっているもの,,和歌山県,和歌山県和歌山市加太1346,,宗教法人稱念寺,宗教法人,,34.27480000000000,135.07430000000000,境内の西面に建つ四脚門。切妻造本瓦葺で、両脇には小屋根を付けた潜戸が付く。門柱は円柱とし、冠木上に中備蟇股として虹梁を支える。控柱は几帳面取角柱で、門柱との間は腰貫、腰長押、頭貫で繋ぐ。小規模ながら総欅造とするなど質の高い門である。,https://bunka.nii.ac.jp/heritage/43967/_210803/43967_210803282690581346813_300.jpg
101,00011788,宮﨑家住宅主屋,みやざきけじゅうたくしゅおく,1棟,,登録有形文化財(建造物),住宅,建築物,,大正,大正7年,1918,木造2階建、瓦葺、建築面積130㎡,,30-0226,87,2017.06.28(平成29.06.28),2017.06.28(平成29.06.28),,20170628,,国土の歴史的景観に寄与しているもの,,和歌山県,和歌山県和歌山市加太1388,,,,,34.27571000000000,135.07600000000000,桁行六間半、梁間四間の周囲に下屋庇を出す総二階建の入母屋造本瓦葺で、正面右に土間を取り、床上部は四間取。一階は腰板張、上部黒漆喰塗で、二階開口部には銅板折戸を付ける。当初は二階で綿布業の作業を行なっていたと伝え、地域の歴史を今に伝えている。,https://bunka.nii.ac.jp/heritage/43967/_210804/43967_210804844013072206998_300.jpg
101,00011789,宮﨑家住宅土蔵,みやざきけじゅうたくどぞう,1棟,,登録有形文化財(建造物),住宅,建築物,,大正,大正7年,1918,土蔵造2階建、瓦葺、建築面積20㎡,,30-0227,87,2017.06.28(平成29.06.28),2017.06.28(平成29.06.28),,20170628,,国土の歴史的景観に寄与しているもの,,和歌山県,和歌山県和歌山市加太1388,,,,,34.27584000000000,135.07590000000000,主屋背面側、敷地の西北隅に建つ。桁行五・四メートル、梁間三・七メートル、切妻造本瓦葺の土蔵造二階建で、東妻面に扉口を開く。基礎を高く積み、外壁は腰縦板張、上部漆喰塗で軒まで塗込める。内部は一・二階とも一室とし、一階南面、二階東面に窓を設ける。,https://bunka.nii.ac.jp/heritage/43967/_210805/43967_210805993951904198020_300.jpg
101,00011790,宮﨑家住宅長屋門,みやざきけじゅうたくながやもん,1棟,,登録有形文化財(建造物),住宅,建築物,,大正,大正後期,1919～1926,木造平屋建、瓦葺、建築面積34㎡,,30-0228,87,2017.06.28(平成29.06.28),2017.06.28(平成29.06.28),,20170628,,国土の歴史的景観に寄与しているもの,,和歌山県,和歌山県和歌山市加太1388,,,,,34.27581000000000,135.07600000000000,淡路街道に面し、主屋背面側に直交して建つ。切妻造桟瓦葺の平屋建で、桁行五間、梁間二間の規模を有し、中央部に一間幅の門口を開く。扉口の北には土間より入る六畳間、南には物置を設ける。港町のかつての景観を今に伝える長屋門である。,https://bunka.nii.ac.jp/heritage/43967/_210806/43967_210806303687342903546_300.jpg
101,00012231,伊勢屋北蔵,いせやきたぐら,1棟,,登録有形文化財(建造物),産業2次,建築物,,明治,明治前期,1868〜1882,土蔵造及び木造2階一部平屋建、瓦葺、建築面積205㎡,,30-229,89,2018.03.27(平成30.03.27),2018.03.27(平成30.03.27),,20180327,,国土の歴史的景観に寄与しているもの,,和歌山県,和歌山県御坊市薗744,,,,,33.88578000000000,135.15480000000000,御坊市街南西の小竹八幡神社東方、伊勢屋の主屋南東に位置する。桁行三間半、梁間二間半の生活用具庫と桁行五間半、梁間四間半の作業場が南北に接続する。作業場内部は、柱を減らして空間を確保する。酒蔵施設に欠かせない大規模土蔵。,https://bunka.nii.ac.jp/heritage/43967/_353031/43967_353031068874453654030_300.jpg
101,00012232,伊勢屋南蔵,いせやみなみぐら,1棟,,登録有形文化財(建造物),産業2次,建築物,,大正,大正期／昭和前期増築,1912〜1926,土蔵造及び木造2階一部平屋建、瓦葺、建築面積386㎡,,30-230,89,2018.03.27(平成30.03.27),2018.03.27(平成30.03.27),,20180327,,国土の歴史的景観に寄与しているもの,,和歌山県,和歌山県御坊市薗744,,,,,33.88544000000000,135.15480000000000,敷地の南東隅に北蔵と連続して建つ。主体部は桁行一四間半、梁間六間で、桁行四間の増築部を接続して北蔵とつなぐ。二階は独立柱を桁行方向に牛梁でつなぎ、牛梁間に架けた梁から束を立てて小屋を組む。壮観な梁組が当地の酒造業の歴史を彩る。,https://bunka.nii.ac.jp/heritage/43967/_353032/43967_353032177899940078286_300.jpg
101,00012440,伊藤家住宅主屋,いとうけじゅうたくしゅおく,1棟,,登録有形文化財(建造物),住宅,建築物,,江戸,江戸末期／明治43年増築、平成28年改修,1830～1868,木造平屋建、瓦葺、建築面積176㎡,,30-231,90,2018.05.10(平成30.05.10),2018.05.10(平成30.05.10),,20180510,,国土の歴史的景観に寄与しているもの,,和歌山県,和歌山県有田市糸我町中番1097,,,,,34.06159000000000,135.17950000000000,有田川下流域の丘陵の南麓にあり、地場産業である蜜柑発祥の由緒をもつ畑に南面して建つ。つし二階建、切妻造本瓦葺で、土間下手部分を落棟とする。内部はダイドコロが土間側に張出す食違い四間取である。長大で重厚な外観が山村景観の核をなしている。,https://bunka.nii.ac.jp/heritage/43967/_354570/43967_354570124292252078632_300.jpg
101,00012441,伊藤家住宅土蔵,いとうけじゅうたくどぞう,1棟,,登録有形文化財(建造物),住宅,建築物,,江戸,江戸末期,1830～1868,土蔵造2階建、瓦葺、建築面積26㎡,,30-232,90,2018.05.10(平成30.05.10),2018.05.10(平成30.05.10),,20180510,,国土の歴史的景観に寄与しているもの,,和歌山県,和歌山県有田市糸我町中番1097,,,,,34.06159000000000,135.17950000000000,主屋の西方、敷地の奥に東面して建つ家財蔵。土蔵造二階建、南北棟の切妻造本瓦葺。外壁は漆喰塗の腰板張で、鉢巻を廻す。内部は竪板張とする。道路から望見できる北妻面は窓庇の持送りを繰形にして漆喰で塗籠めるなど、重厚な意匠で整える。,https://bunka.nii.ac.jp/heritage/43967/_354572/43967_354572631912973364459_300.jpg
101,00012442,伊藤家住宅納屋,いとうけじゅうたくなや,1棟,,登録有形文化財(建造物),住宅,建築物,,明治,明治後期,1898～1912,木造2階建、瓦葺、建築面積66㎡、門及び脇塀付,,30-233,90,2018.05.10(平成30.05.10),2018.05.10(平成30.05.10),,20180510,,国土の歴史的景観に寄与しているもの,,和歌山県,和歌山県有田市糸我町中番1097,,,,,34.06159000000000,135.17950000000000,主屋の東側に建つ。二階建の桟瓦葺で、正面となる南を切妻造、道路に面する北を入母屋造とする。南側には門と脇塀を付す。内部は南半を板床の納屋、北半を居室、西側の吹放ち下屋を作業空間とする。敷地の北東部を占め、後方の屋敷構えをかたちづくっている。,https://bunka.nii.ac.jp/heritage/43967/_354574/43967_354574162691827124987_300.jpg
101,00012443,笹野家住宅主屋,ささのけじゅうたくしゅおく,1棟,,登録有形文化財(建造物),住宅,建築物,,昭和前,昭和前期,1926～1945,木造2階建、瓦葺、建築面積282㎡,,30-234,90,2018.05.10(平成30.05.10),2018.05.10(平成30.05.10),,20180510,,造形の規範となっているもの,,和歌山県,和歌山県御坊市薗字新町731他,,,,,33.89469194000000,135.15393083000000,中心市街地の南西部にある。二階建の桟瓦葺で、北に玄関を開き、右脇に応接間、南に座敷二室を配し、二階に座敷二室や茶室をもつ。巧みな廊下の構成や応接間の洋風意匠、二階座敷の矩折れに配した床脇など、随所に近代の手法を取込んだ昭和前期の和風住宅。,https://bunka.nii.ac.jp/heritage/43967/_354576/43967_354576012166479428470_300.jpg
