台帳ID,管理対象ID,名称,ふりがな,員数,棟名,文化財種類,種別1,種別2,国,時代,年代,西暦,構造及び形式等,その他参考となるべき事項,登録番号,登録回,登録告示年月日,登録年月日,追加年月日,重文指定年月日,国宝指定年月日,登録基準1,登録基準2,都道府県,所在地,保管施設の名称,所有者名,所有者種別,管理団体又は責任者,緯度,経度,解説文,画像URL
101,00000064,コニシ株式会社（旧小西儀助商店）三階蔵,こにしかぶしきがいしゃ（きゅうこにしぎすけしょうてん）さんかいぐら,1棟,,登録有形文化財(建造物),住宅,建築物,,明治,明治36,1903,土蔵造3階建、瓦葺、建築面積45㎡,,27 － 0004,1,1996.12.26(平成8.12.26),1996.12.20(平成8.12.20),,19961220,,国土の歴史的景観に寄与しているもの,,大阪府,大阪府大阪市中央区道修町1-6,,コニシ株式会社,,,34.68884000000000,135.50690000000000,敷地の背後に建つ３棟の土蔵のうち，東北部に位置する３階建の土蔵で，外観は１階部分を石張りとし，２・３階を白漆喰塗の大壁造とする。軒蛇腹は時代の特色を表す帯状のものになるが，妻側は２段のして変化を付けている。,https://bunka.nii.ac.jp/heritage/43967/_101054/43967_101054111225010329886_300.jpg
101,00000065,日本基督教団大阪教会,にほんきりすときょうだんおおさかきょうかい,1棟,,登録有形文化財(建造物),宗教,建築物,,大正,大正11,1922,鉄骨造・煉瓦造・コンクリート造3階建塔屋付、銅板葺、建築面積674㎡,,27 － 0005,1,1996.12.26(平成8.12.26),1996.12.20(平成8.12.20),,19961220,,造形の規範となっているもの,,大阪府,大阪府大阪市西区江戸堀1-23-17,,宗教法人日本基督教団大阪教会,,,34.68944000000000,135.49340000000000,ヴォーリズ設計の鉄骨・煉瓦・コンクリート混合造の教会堂で，背後に塔屋が建つ。ロマネスク様式を基調とする意匠で構成され，数少ない大正期の赤煉瓦建物として親しまれている。正面妻壁のバラ窓や，玄関上部の半円形の飾り窓で構成される外観に特徴がある。,https://bunka.nii.ac.jp/heritage/43967/_101055/43967_101055111225010330144_300.jpg
101,00000139,大阪倶楽部,おおさかくらぶ,1棟,,登録有形文化財(建造物),文化福祉,建築物,,大正,大正13,1924,鉄筋コンクリート造地上4階地下1階建，建築面積795㎡,,27 － 0015,2,1997.05.29(平成9.05.29),1997.05.07(平成9.05.07),,19970507,,造形の規範となっているもの,,大阪府,大阪府大阪市中央区今橋5-11,,社団法人大阪倶楽部,,,34.69097000000000,135.49890000000000,開口部の小さい，壁を意識させる造形が特徴的。細部装飾にはインドやイスラムの影響が見られる。関西に多くの作品を残した安井武雄の片岡事務所時代の作品で，施工は大林組。プロポーションへの意識，装飾の取り扱いなど近代建築の黎明期の作品といえる。,https://bunka.nii.ac.jp/heritage/43967/_101129/43967_101129111225010421450_300.jpg
101,00000140,岸和田市立自泉会館（自泉館）,きしわだしりつじせんかいかん（じせんかん）,1棟,,登録有形文化財(建造物),文化福祉,建築物,,昭和前,昭和7,1932,鉄筋コンクリート造2階建，建築面積539㎡,,27 － 0016,2,1997.05.29(平成9.05.29),1997.05.07(平成9.05.07),,19970507,,造形の規範となっているもの,,大阪府,大阪府岸和田市岸城町5-10,,岸和田市,,,34.46059000000000,135.37190000000000,大規模な事務所建築を得意とした渡辺節の作品。彼の作品の中では比較的小規模な住宅系のものとして注目に値する。装飾の少ないシンプルな外観であるが，列柱を配した玄関部などに様式建築のモチーフが見られる。,https://bunka.nii.ac.jp/heritage/43967/_101130/43967_101130111225010422634_300.jpg
101,00000141,聖母女学院校舎,せいぼじょがくいんこうしゃ,1棟,,登録有形文化財(建造物),学校,建築物,,昭和前,昭和7,1932,鉄筋コンクリート造地上2階地下1階建，建築面積3233㎡,,27 － 0017,2,1997.05.29(平成9.05.29),1997.05.07(平成9.05.07),,19970507,,造形の規範となっているもの,,大阪府,大阪府寝屋川市美井町1011-6,,学校法人聖母女学院,,,34.78122000000000,135.63620000000000,大正12年に創立された名門女学校の校舎で，均等な日照や通風のとれるフィンガー型の平面配置を採用した初期の例である。設計はアントニン・レーモンド。スパニッシュ風のコロネードとコンポジット式の柱頭を持つ正面入り口が意匠上の特徴である。,https://bunka.nii.ac.jp/heritage/43967/_101131/43967_101131111225010424160_300.jpg
101,00000222,生駒時計店,いこまとけいてん,1棟,,登録有形文化財(建造物),産業3次,建築物,,昭和前,昭和5,1930,鉄筋コンクリート造地上5階地下1階建塔屋付，建築面積176㎡,,27 － 0019,3,1997.06.24(平成9.06.24),1997.06.12(平成9.06.12),,19970612,,造形の規範となっているもの,,大阪府,大阪府大阪市中央区平野町2-2-12,,株式会社生駒ビルヂング,,,34.68753000000000,135.50630000000000,大阪市街地の角地に建つRC造、５階建の時計塔を持つビルで、設計は宗兵蔵である。外壁にスクラッチタイルを用いることや、窓の上下の縁で水平線を強調しつつバルコニーや出窓などに曲線や装飾を有効に配するデザインによく時代の特徴があわらわている。,https://bunka.nii.ac.jp/heritage/43967/_101212/43967_101212111225010509150_300.jpg
101,00000255,四天王寺八角亭,してんのうじはっかくてい,1棟,,登録有形文化財(建造物),文化福祉,建築物,,明治,明治36,1903,木造平屋建，瓦葺，建築面積21㎡,,27 － 0020,4,1997.07.30(平成9.07.30),1997.07.15(平成9.07.15),,19970715,,再現することが容易でないもの,,大阪府,大阪府大阪市天王寺区四天王寺1-11-18,,宗教法人四天王寺,,,34.65543000000000,135.51820000000000,第５回内国勧業博覧会の小奏楽堂として建築されたものを、後に現在地に移築したと伝える。平面八角で、庇柱は吹き放ちとし、窓には色ガラスをはめる。母屋柱はコリント式の柱頭飾を付け、モールディングの廻り縁を巡らすなど施工技術にも見るべきものがある。,https://bunka.nii.ac.jp/heritage/43967/_101245/43967_101245111225010535084_300.jpg
101,00000256,新井ビル,あらいびる,1棟,,登録有形文化財(建造物),産業3次,建築物,,大正,大正11,1922,鉄筋コンクリート造地上4階地下1階建，建築面積254㎡,,27 － 0021,4,1997.07.30(平成9.07.30),1997.07.15(平成9.07.15),,19970715,,造形の規範となっているもの,,大阪府,大阪府大阪市中央区今橋2-1-1,,新井株式会社,,,34.69074000000000,135.50630000000000,鉄筋コンクリート４階建、１階正面の玄関部分は４本のドリス式オーダーを並べた重厚な外観になる。もと銀行店舗として建設されたもので、内部は中央が吹き抜けとなり２階周囲に個室を稗史階以上は事務室とする構成になる。設計河合浩蔵、施工清水組。,https://bunka.nii.ac.jp/heritage/43967/_101246/43967_101246111225010536192_300.jpg
101,00000299,大阪城天守閣,おおさかじょうてんしゅかく,1棟,,登録有形文化財(建造物),文化福祉,建築物,,昭和前,昭和6,1931,鉄骨鉄筋コンクリート造8階建，建築面積1199㎡,,27 － 0022,5,1997.09.16(平成9.09.16),1997.09.03(平成9.09.03),,19970903,,国土の歴史的景観に寄与しているもの,,大阪府,大阪府大阪市中央区大阪城1-1,,大阪市,,,34.68734000000000,135.52600000000000,陸軍用地となっていた旧本丸一帯を公園化する計画に伴い，博物館として建設された。設計は市土木局建築課，施工は大林組による。鉄筋コンクリート造，地上６階地下２階建で，市民の寄付で建設されたこともあり，大阪のシンボルとして親しまれている。,https://bunka.nii.ac.jp/heritage/43967/_101289/43967_101289120209020207110_300.jpg
101,00000300,三木楽器,みきがっき,1棟,,登録有形文化財(建造物),産業3次,建築物,,大正,大正13,1924,鉄筋コンクリート造地上4階地下1階建，建築面積468㎡,,27 － 0023,5,1997.09.16(平成9.09.16),1997.09.03(平成9.09.03),,19970903,,造形の規範となっているもの,,大阪府,大阪府大阪市中央区北久宝寺町3-3-4,,三木楽器株式会社,,,34.67988000000000,135.50160000000000,鉄筋コンクリート造，地上４階地下１階建の楽器店。設計は増田建築事務所，施工は鴻池組で，ドイツの楽器店を模したと伝える。大正期の都市部における中層商業ビルの好例で，外壁をタイル張りとして縦の線を強調した外観によく時代の特徴があらわれている。,https://bunka.nii.ac.jp/heritage/43967/_101290/43967_101290111225010558465_300.jpg
101,00000301,青山ビル,あおやまびる,1棟,,登録有形文化財(建造物),住宅,建築物,,大正,大正14,1925,鉄筋コンクリート造地上5階地下１階建，建築面積258㎡,,27 － 0024,5,1997.09.16(平成9.09.16),1997.09.03(平成9.09.03),,19970903,,造形の規範となっているもの,,大阪府,大阪府大阪市中央区伏見町2-2-6,,,,,34.68895000000000,135.50600000000000,鉄筋コンクリート造，地上５階地下１階建で，当初は１・２階を住宅，３階以上を貸室としていた。中層の都市住宅としては初期の事例のひとつであり，要所に装飾を配した外観や瀟洒な意匠の階段等に時代の特徴がよく表れている。設計は伊東恒治。,https://bunka.nii.ac.jp/heritage/43967/_101291/43967_101291161715602226072_300.jpg
101,00000358,旧岸和田村尋常小学校校舎,きゅうきしわだむらじんじょうしょうがっこうこうしゃ,1棟,,登録有形文化財(建造物),学校,建築物,,明治,明治36,1903,木造平屋建，瓦葺，建築面積185㎡,,27 － 0025,6,1997.12.03(平成9.12.03),1997.11.05(平成9.11.05),,19971105,,造形の規範となっているもの,,大阪府,大阪府岸和田市西之内町８,,岸和田市,,,34.46978000000000,135.39520000000000,木造平屋建，瓦葺の校舎。中央部の玄関から左右に教室をのばした左右対称の形態や教室に採光するための大きな窓を持つ外観の意匠に特徴がある。明治期に建設された小規模な学校建築の好例で，現在は岸和田市中央公園に移築保存されている。,https://bunka.nii.ac.jp/heritage/43967/_101348/43967_101348111225010632481_300.jpg
101,00000359,高橋家住宅,たかはしけじゅうたく,1棟,,登録有形文化財(建造物),住宅,建築物,,大正,大正8,1919,木造2階建，スレート葺，建築面積330㎡,,27 － 0026,6,1997.12.03(平成9.12.03),1997.11.05(平成9.11.05),,19971105,,造形の規範となっているもの,,大阪府,大阪府箕面市箕面1-2-25,,,,,34.83450000000000,135.46700000000000,明治後期から宅地開発が行われた箕面川に面した地に建つ洋館。出窓をはじめ突出部を多くつくり，急勾配の屋根や縦長の窓を持つ等本格的な洋風の意匠になる。明治末年から大正期に大規模な邸宅において多くつくられた接客用洋館の好例である。,https://bunka.nii.ac.jp/heritage/43967/_101349/43967_101349111225010632987_300.jpg
101,00000416,遠藤家住宅（旧プレスビテリアンミッションハウス）,えんどうけじゅうたく（きゅうぷれすびてりあんみっしょんはうす）,1棟,,登録有形文化財(建造物),住宅,建築物,,大正,大正11,1922,木造2階建，瓦葺，建築面積128㎡,,27 － 0028,7,1998.01.08(平成10.01.08),1997.12.12(平成9.12.12),,19971212,,造形の規範となっているもの,,大阪府,大阪府大阪市住吉区帝塚山西3-2-11,,,,,34.61946000000000,135.49690000000000,建築当初の規模は延べ40坪ほどで，正面中央に玄関ポーチを起き，大きく開いた窓等からなる洋風住宅。内部は，中央に階段ホールを設け，大きな暖炉のある居間や２階の書斎などに特徴がある。設計はW.M.ヴォーリスで，もと宣教師館として建てられたといわれる。,https://bunka.nii.ac.jp/heritage/43967/_101406/43967_101406111225010712734_300.jpg
101,00000417,北浜レトロビルヂング（旧桂隆産業ビル）,きたはまれとろびるち゛んぐ（きゅうけいりゅうさんぎょうびる）,1棟,,登録有形文化財(建造物),産業3次,建築物,,明治,明治45,1912,煉瓦造地上2階地下1階建，建築面積56㎡,,27 － 0029,7,1998.01.08(平成10.01.08),1997.12.12(平成9.12.12),,19971212,,国土の歴史的景観に寄与しているもの,,大阪府,大阪府大阪市中央区北浜1-1-26,,,,,34.69172000000000,135.50740000000000,土佐堀通りに面して建つ小規模な煉瓦造建築。正面開口部は，花崗岩の切石を用いて縁取りし，玄関廻りを変形アーチを４本の柱型で受け，２階は大きく開く窓枠を置いてアクセントとする。近隣の洋風建築とも，金融の町北浜の往事の面影を今に伝えている。,https://bunka.nii.ac.jp/heritage/43967/_101407/43967_101407111225010713247_300.jpg
101,00000449,高谷家住宅,,1棟,,登録有形文化財(建造物),住宅,建築物,,大正,大正13頃,1924頃,鉄骨造2階建，銅板葺，建築面積86㎡,,27 － 0030,8,1998.02.12(平成10.02.12),1998.01.16(平成10.01.16),,19980116,,国土の歴史的景観に寄与しているもの,,大阪府,大阪府大阪市住吉区帝塚山中3-8-18,,,,,34.62064000000000,135.49960000000000,大正期に開発された住宅地内に建つ初期の洋風住宅。鉄骨構造で外壁はコンクリートブロック積みとする。内部は，和洋併用で全体的に質の高い意匠にまとめる。風見鶏付の銅板切妻大屋根は，この地域のランドマーク的存在で広く親しまれている。,https://bunka.nii.ac.jp/heritage/43967/_101439/43967_101439111225010731023_300.jpg
101,00000450,近江岸家住宅,おおみぎしけじゅうたく,1棟,,登録有形文化財(建造物),住宅,建築物,,昭和前,昭和10,1935,木造2階建，瓦葺，建築面積239㎡,,27 － 0031,8,1998.02.12(平成10.02.12),1998.01.16(平成10.01.16),,19980116,,造形の規範となっているもの,,大阪府,大阪府堺市西区浜寺昭和町3-351,,,,,34.54139000000000,135.44580000000000,大正から昭和にかけて開発された別荘地に建てられた円熟期のヴォーリズ設計になる木造２階建で，スパニッシュ瓦葺，切妻造の住宅。内部は中廊下式で，洋間と和室が混用になる。２階の過半にも和座敷を設け，外観意匠は和洋併用となるのが特徴である。,https://bunka.nii.ac.jp/heritage/43967/_101440/43967_101440180036360768346_300.jpg
101,00000451,近江岸家住宅外塀,おおみぎしけじゅうたくそとべい,1基,,登録有形文化財(建造物),住宅,その他工作物,,昭和前,昭和10,1935,石積塀，延長92.7m，門構2箇所附属,,27 － 0032,8,1998.02.12(平成10.02.12),1998.01.16(平成10.01.16),,19980116,,造形の規範となっているもの,,大阪府,大阪府堺市西区浜寺昭和町3-351,,,,,34.54126000000000,135.44550000000000,主屋と一体的に造られた植込み付の巨石積の外塀。正面及び側面に主屋と同じくスパニッシュ風の様式を取り入れた門が開く。表門は，切妻屋根付の親柱に簡素だが洗練された意匠の縦板厚板貼の門扉が取り付く。和洋混在の外塀として知られている。,https://bunka.nii.ac.jp/heritage/43967/_132557/43967_132557170273800977712_300.jpg
101,00000452,今戸家住宅,いまとけじゅうたく,1棟,,登録有形文化財(建造物),住宅,建築物,,大正,大正13,1924,木造2階建，アスファルト葺，建築面積94㎡,,27 － 0033,8,1998.02.12(平成10.02.12),1998.01.16(平成10.01.16),,19980116,,造形の規範となっているもの,,大阪府,大阪府箕面市桜ヶ丘2-7-26,,,,,34.82383000000000,135.45900000000000,大正時代に宅地開発されたこの地域の初期の住宅の一つ。和洋併用のスパニッシュ風の外観の建物で，設計は奥戸大蔵，施工あめりか屋。当時，バンガロー式の洋風建築を日本化したあめりか屋式といわれる洋式の住宅が流行したが，その好例である。,https://bunka.nii.ac.jp/heritage/43967/_101442/43967_101442111225010733494_300.jpg
101,00000545,念仏寺本堂,ねんぶつじほんどう,1棟,,登録有形文化財(建造物),宗教,建築物,,江戸,天保13,1842,木造平屋建，瓦葺，152㎡,,27 － 0034,9,1998.06.09(平成10.06.09),1998.04.21(平成10.04.21),,19980421,,国土の歴史的景観に寄与しているもの,,大阪府,大阪府大阪市天王寺区上本町4-2-41,,宗教法人念仏寺,,,34.67074000000000,135.52040000000000,大阪の繁華街に立地する中規模の浄土宗本堂。平面は，内外陣・余間等規格に則って配置する標準的な作品である。細部彫刻等は時代相応の構成になる。旧城下の寺町の北限を示す遺構であり，入母屋造の大屋根を見せる外観は，整った境内とも広く親しまれている。,https://bunka.nii.ac.jp/heritage/43967/_101535/43967_101535111225010836975_300.jpg
101,00000546,葛原家住宅（南葛原別邸）主屋,くずはらけじゅうたく（みなみくずはらべってい）しゅおく,1棟,,登録有形文化財(建造物),住宅,建築物,,大正,大正13,1924,木造２階建，瓦葺，建築面積103㎡,,27 － 0035,9,1998.06.09(平成10.06.09),1998.04.21(平成10.04.21),,19980421,,国土の歴史的景観に寄与しているもの,,大阪府,大阪府富田林市常盤町1-12,,,,,34.50022000000000,135.59730000000000,当時流行したコテージ風の文化住宅の好例である。平面は中廊下式で，玄関・階段・応接間等に分離派の意匠が見られる。２階に個性的な床棚を備えた座敷がある。セメント瓦葺の切妻屋根がＴ字に交差する外観は特異で，地域のランドマークとなっている。,https://bunka.nii.ac.jp/heritage/43967/_101536/43967_101536111225010837488_300.jpg
101,00000547,葛原家住宅（南葛原別邸）倉庫,くずはらけじゅうたく（みなみくずはらべってい）そうこ,1棟,,登録有形文化財(建造物),住宅,建築物,,大正,大正13,1924,木造平屋建，瓦葺，建築面積14㎡,,27 － 0036,9,1998.06.09(平成10.06.09),1998.04.21(平成10.04.21),,19980421,,国土の歴史的景観に寄与しているもの,,大阪府,大阪府富田林市常盤町1-12,,,,,34.50025000000000,135.59720000000000,広大な敷地の一画に建つ小規模な平屋建の付属屋。外壁はモルタル塗で，腰下板貼とし妻側に大きな窓を開き，屋根はセメント瓦を葺く。主屋の背後にあって，簡素な外観ながら一体的につくられており，別邸の屋敷構えを構成する要素の一つとして知られる。,https://bunka.nii.ac.jp/heritage/43967/_101537/43967_101537111225010837992_300.jpg
101,00000698,岸本瓦町邸,きしもとかわらまちてい,1棟,,登録有形文化財(建造物),住宅,建築物,,昭和前,昭和6,1931,鉄筋コンクリート造２階建，建築面積323㎡,,27 － 0042,11,1998.09.25(平成10.09.25),1998.09.02(平成10.09.02),,19980902,,造形の規範となっているもの,,大阪府,大阪府大阪市中央区瓦町1-2-1,,,,,34.68622000000000,135.50910000000000,東横堀川筋大手橋の西詰正面に位置する。住友工作部の笹川慎一の設計によるもので，竜山石による外装など住友ビルとの類似性が認められる。外観意匠は抑制されているが，室内意匠は密度が高く，昭和期大阪財界人の邸宅建築を代表する作品とすることができる。,https://bunka.nii.ac.jp/heritage/43967/_101688/43967_101688111225011037444_300.jpg
101,00000699,浅香山病院白塔,あさかやまびょういんはくとう,1棟,,登録有形文化財(建造物),文化福祉,建築物,,昭和前,昭和12,1937,鉄筋コンクリート造２階建塔屋付，瓦葺，建築面積627㎡,,27 － 0043,11,1998.09.25(平成10.09.25),1998.09.02(平成10.09.02),,19980902,,造形の規範となっているもの,,大阪府,大阪府堺市堺区今池町3-3-16,,財団法人浅香山病院,,,34.58511000000000,135.49120000000000,堺脳病院として建設。創立者の意向によりスパニッシュ・スタイルが採用された。スパニッシュのもつ明るいイメージや，白スタッコ壁の清潔さが好まれたのであろう。白塔はいわば事務所棟で，背後に平屋の病棟がパヴィリオン式に配置されていた。,https://bunka.nii.ac.jp/heritage/43967/_101689/43967_101689111225011038585_300.jpg
101,00000700,浅香山病院西病棟,あさかやまびょういんにしびょうとう,1棟,,登録有形文化財(建造物),文化福祉,建築物,,昭和前,昭和12,1937,鉄筋コンクリート造２階建，瓦葺，建築面積271㎡,,27 － 0044,11,1998.09.25(平成10.09.25),1998.09.02(平成10.09.02),,19980902,,造形の規範となっているもの,,大阪府,大阪府堺市堺区今池町3-3-16,,財団法人浅香山病院,,,34.58509000000000,135.49070000000000,清水組大阪支店の設計施工。白塔棟の西端から矩折れに南に延び，創建時は女子の一等病室等にふりあてられていた。外壁面の凹凸やスカイラインに突起した塔屋小屋根などにスパニッシュに常套的なスペイン瓦の見せ所を意図的につくりだしている。,https://bunka.nii.ac.jp/heritage/43967/_101690/43967_101690111225011039123_300.jpg
101,00000742,南海電気鉄道南海本線浜寺公園駅駅舎,なんかいでんきてつどうなんかいほんせんはまでらこうえんえきえきしゃ,1棟,,登録有形文化財(建造物),交通,建築物,,明治,明治40,1907,木造平屋建，鉄板葺，建築面積249㎡,,27 － 0045,12,1998.09.25(平成10.09.25),1998.09.02(平成10.09.02),,19980902,,造形の規範となっているもの,,大阪府,大阪府堺市西区浜寺公園町2-188,,南海電気鉄道株式会社,,,34.54088000000000,135.44440000000000,大阪近郊の著名な海水浴場への玄関口として設けられた。左右対称の平面構成を取り，向かって右を待合室，左を事務室としている。ハーフティンバーの瀟洒な外観で広く親しまれており，待合室は現在ギャラリーなどに利用されている。設計は辰野片岡建築事務所。,https://bunka.nii.ac.jp/heritage/43967/_101732/43967_101732111225011113052_300.jpg
101,00000743,南海電気鉄道南海本線諏訪ノ森駅西駅舎,なんかいでんきてつどうなんかいほんせんすわのもりえきにしえきしゃ,1棟,,登録有形文化財(建造物),交通,建築物,,大正,大正8,1919,木造平屋建，スレート葺，建築面積48㎡,,27 － 0046,12,1998.09.25(平成10.09.25),1998.09.02(平成10.09.02),,19980902,,造形の規範となっているもの,,大阪府,大阪府堺市西区浜寺諏訪森町西2-78,,南海電気鉄道株式会社,,,34.55042000000000,135.44840000000000,ホームの端部に接続する駅舎で，通り抜けの改札部分と事務室からなる。外壁腰部を石貼りとし，全体としてアーチ状になる窓を並べるなど小規模ではあるが各所に特色あるデザインがちりばめられており，細部意匠にも見るべきものがある。私鉄の駅舎の好例。,https://bunka.nii.ac.jp/heritage/43967/_101733/43967_101733111225011114884_300.jpg
101,00000800,澤村家住宅,さわむらけじゅうたく,1棟,,登録有形文化財(建造物),住宅,建築物,,大正,大正11,1922,木造２階建，瓦葺，建築面積66㎡,,27 － 0047,13,1998.09.25(平成10.09.25),1998.09.02(平成10.09.02),,19980902,,造形の規範となっているもの,,大阪府,大阪府箕面市桜ヶ丘2-6-3,,,,,34.82309000000000,135.45860000000000,日本建築協会住宅改造博の会場に建てられた洋風住宅。同協会主催第１回改良住宅設計図案懸賞募集「市街地における一戸建住案」において第１等当選をはたした谷本甲子三の案を実現したもの。Ｌ字形の平面とアーチ窓を持つ応接室兼書斎が外観を特徴づけている。,https://bunka.nii.ac.jp/heritage/43967/_101790/43967_101790111225011153696_300.jpg
101,00000988,源ケ橋温泉浴場,げんがはしおんせんよくじょう,1棟,,登録有形文化財(建造物),文化福祉,建築物,,昭和前,昭和10頃,1935頃,木造２階建，瓦葺，建築面積343㎡,,27 － 0055,15,1998.12.25(平成10.12.25),1998.12.11(平成10.12.11),,19981211,,国土の歴史的景観に寄与しているもの,,大阪府,大阪府大阪市生野区林寺1-37-1,,,,,34.64573000000000,135.52900000000000,平面は番台を挟んで男女別に区画され，浴槽部分は随時改修されているが，脱衣場及び浴室の構えはよく残る。外観は，屋根は茶褐色の桟瓦を葺き，正面２階には彫像付きの洋風窓や丸窓を開く。市街地における木造の公衆浴場の好例で，広く利用されている。,https://bunka.nii.ac.jp/heritage/43967/_101978/43967_101978111225011358535_300.jpg
101,00000989,住吉神社能舞台,すみよしじんじゃのうぶたい,1棟,,登録有形文化財(建造物),文化福祉,建築物,,明治,明治31,1898,木造平屋建，銅板葺，建築面積66㎡,,27 － 0056,15,1998.12.25(平成10.12.25),1998.12.11(平成10.12.11),,19981211,,造形の規範となっているもの,,大阪府,大阪府豊中市服部南町2-3-31,,宗教法人住吉神社,,,34.76294000000000,135.47880000000000,大阪博物場の観能施設として造られた能舞台で，天満宮を経て住吉神社が所有する。総桧造の伝統的形式に則って造られている。設計は大阪府技手岡崎要吉，工事監督井上節，棟梁は京都の雑賀長右衛門で，当時の上方大工の技術水準の高さを示す作品である。,https://bunka.nii.ac.jp/heritage/43967/_101979/43967_101979111225011359238_300.jpg
101,00001080,梅谷歯科医院,うめたにしかいいん,1棟,,登録有形文化財(建造物),文化福祉,建築物,,大正,大正11頃,1922頃,木造３階建，スレート葺一部瓦葺，建築面積98㎡,,27 － 0057,16,1999.03.12(平成11.03.12),1999.02.17(平成11.02.17),,19990217,,造形の規範となっているもの,,大阪府,大阪府大阪市西成区天下茶屋3-16-16,,,,,34.63539000000000,135.49760000000000,木造３階建で道路に面して建ち，外観は１階をタイル貼り，２・３階を下見板張りとするなど洋風の意匠になる。内部は，伝統的な町家の平面を継承した形で，一部を除き和風とする。大阪の下町において洋風の意匠を積極的に取り入れた大正期建築の好例である。,https://bunka.nii.ac.jp/heritage/43967/_102070/43967_102070111225011441965_300.jpg
101,00001081,水間鉄道水間駅舎,みずまてつどうみずまえきしゃ,1棟,,登録有形文化財(建造物),交通,建築物,,大正,大正15,1926,鉄筋コンクリート造平屋建，建築面積149㎡,,27 － 0058,16,1999.03.12(平成11.03.12),1999.02.17(平成11.02.17),,19990217,,再現することが容易でないもの,,大阪府,大阪府貝塚市水間260-1,,水間鉄道株式会社,,,34.40304000000000,135.38560000000000,水間鉄道の終着駅につくられたターミナル型の駅舎。外観は左右対称で，車寄せがある中央部を塔婆風につくり，左右両端に円形平面の張り出し部を設けるなど独特の構成になる。地域で初期の鉄筋コンクリート造建物である点も注目に値する。,https://bunka.nii.ac.jp/heritage/43967/_102071/43967_102071111225011442230_300.jpg
101,00001118,金光教玉水教会会堂,こんこうきょうたまみずきょうかいかいどう,1棟,,登録有形文化財(建造物),宗教,建築物,,昭和前,昭和10,1935,木造平屋一部二階建，銅板葺，建築面積531㎡,,27 － 0059,17,1999.07.19(平成11.07.19),1999.06.07(平成11.06.07),,19990607,,造形の規範となっているもの,,大阪府,大阪府大阪市西区江戸堀1-16-9,,宗教法人金光教玉水教会,,,34.69004000000000,135.49550000000000,木造平屋建、一部２階建とする裳階付きの大型の和風建物。入母屋造の大屋根平側に２つの千鳥破風をつけ賑やかに飾る。細部の意匠は全体的に伝統的な手法に則り構成される。堂々とした外観は、風格がある。設計は池田谷(久吉)建築事務所で、北井工務店が施工。,https://bunka.nii.ac.jp/heritage/43967/_102108/43967_102108111225011459976_300.jpg
101,00001119,桃林堂板倉家住宅,とうりんどういたくらけじゅうたく,1棟,,登録有形文化財(建造物),住宅,建築物,,江戸,18世紀前期,1701-1800,木造平屋建，茅葺一部瓦葺，建築面積158㎡,,27 － 0060,17,1999.07.19(平成11.07.19),1999.06.07(平成11.06.07),,19990607,,再現することが容易でないもの,,大阪府,大阪府八尾市東本町2-5-12,,,,,34.62822000000000,135.60380000000000,代々河内木綿の問屋を営んだ旧家で、大正期に現家屋敷に移住したという。間口９間半、奥行４間の大型の民家。平面は右手５間分が土間で、居室部は整形４間取元であったものを土間境の広縁を居室に改造している。切妻茅葺屋根の高塀造になる民家の好例である。,https://bunka.nii.ac.jp/heritage/43967/_102109/43967_102109111225011500244_300.jpg
101,00001120,畑田家住宅主屋,はただけじゅうたくしゅおく,1棟,,登録有形文化財(建造物),住宅,建築物,,明治,明治20頃,1887頃,木造２階建，瓦葺，建築面積238㎡,,27 － 0061,17,1999.07.19(平成11.07.19),1999.06.07(平成11.06.07),,19990607,,国土の歴史的景観に寄与しているもの,,大阪府,大阪府羽曳野市郡戸470,,,,,34.55419000000000,135.57310000000000,畑田家は、庄屋や村長を勤め村の経営に携わってきた旧家である。主屋は広い敷地の北東側に位置し、つし２階のある規模の大きい建屋である。平面は標準的な田の字型になり、内部の架構も伝統的な技法になる。白漆喰塗の外観は、旧家の風格を良く伝えている。,https://bunka.nii.ac.jp/heritage/43967/_102110/43967_102110111225011500516_300.jpg
101,00001121,畑田家住宅納屋,はただけじゅうたくなや,1棟,,登録有形文化財(建造物),住宅,建築物,,明治,明治20頃,1887頃,木造平屋建，瓦葺，建築面積55㎡,,27 － 0062,17,1999.07.19(平成11.07.19),1999.06.07(平成11.06.07),,19990607,,国土の歴史的景観に寄与しているもの,,大阪府,大阪府羽曳野市郡戸470,,,,,34.55407000000000,135.57290000000000,屋敷地の西側に建つ平屋建の納屋で、桟瓦葺の切妻屋根は両端部のみ３筋分押さえの丸瓦を葺く。外壁は軒下は真壁であるが、内法部分を塗込とし腰板を貼る。東面の開口部は、板戸４枚を１本溝引分として大きく開く。旧家の屋敷構を構成する遺構の一つである。,https://bunka.nii.ac.jp/heritage/43967/_102111/43967_102111111225011501040_300.jpg
101,00001122,畑田家住宅蔵１,はただけじゅうたくくらいち,1棟,,登録有形文化財(建造物),住宅,建築物,,明治,明治20頃,1887頃,木造平屋建，瓦葺，建築面積20㎡,,27 － 0063,17,1999.07.19(平成11.07.19),1999.06.07(平成11.06.07),,19990607,,国土の歴史的景観に寄与しているもの,,大阪府,大阪府羽曳野市郡戸470,,,,,34.55402000000000,135.57300000000000,屋敷地の南側にあり、南面道路に接して長屋門、蔵１などの建物が並ぶ。蔵１は小規模な白漆喰塗の土蔵で、軒廻は妻側に水切り線を入れる簡素な構成になるが、屋根は本瓦葺とする。両妻側に建物が隣接するため、窓を設けず閉鎖的な構えになっている。,https://bunka.nii.ac.jp/heritage/43967/_102112/43967_102112111225011501306_300.jpg
101,00001123,畑田家住宅付属屋,はただけじゅうたくふぞくや,1棟,,登録有形文化財(建造物),住宅,建築物,,明治,明治20頃,1887頃,木造平屋建，瓦葺，建築面積22㎡,,27 － 0064,17,1999.07.19(平成11.07.19),1999.06.07(平成11.06.07),,19990607,,国土の歴史的景観に寄与しているもの,,大阪府,大阪府羽曳野市郡戸470,,,,,34.55414000000000,135.57320000000000,主屋の右手前に建つ切妻造、平屋建の小規模な建物。屋敷地の東側を画する塀が取り付く。建築年代は不明であるが、材料工法などから主屋と同時期と考えられる。南側は便所・風呂など便益施設が設けられ、北側は居室となる。屋敷構を構成する要素として貴重。,https://bunka.nii.ac.jp/heritage/43967/_102113/43967_102113111225011502558_300.jpg
101,00001124,畑田家住宅長屋門,はただけじゅうたくながやもん,1棟,,登録有形文化財(建造物),住宅,建築物,,明治,明治20頃,1887頃,木造，瓦葺，建築面積30㎡,,27 － 0065,17,1999.07.19(平成11.07.19),1999.06.07(平成11.06.07),,19990607,,国土の歴史的景観に寄与しているもの,,大阪府,大阪府羽曳野市郡戸470,,,,,34.55401000000000,135.57310000000000,屋敷地の南東角に建つ長屋門で、屋根は角地に面する部分を片入母屋造とする。西半部は下男部屋で、道路側に小さな灯明窓が取り付く。内法壁を黒漆喰塗りとし趣のある風情を保つ。小規模ながら、全体的に伝統的な工法に則とった丁寧な造作になる。,https://bunka.nii.ac.jp/heritage/43967/_102114/43967_102114111225011502870_300.jpg
101,00001200,新井家住宅玄関・座敷,あらいけじゅうたくげんかん・ざしき,1棟,,登録有形文化財(建造物),住宅,建築物,,昭和前,昭和7,1932,木造平屋建，瓦葺，建築面積181㎡,,27 － 0066,18,1999.07.21(平成11.07.21),1999.07.08(平成11.07.08),,19990708,,国土の歴史的景観に寄与しているもの,,大阪府,大阪府泉佐野市中庄1380,,,,,34.40905000000000,135.32920000000000,居宅と迎賓館を兼ねた豪華な本邸を構成する建物の一つ。小高い丘陵上の広大な敷地に建ち、和風庭園に囲まれたコの字型構成の中央部を占める。玄関の奥に南及び東面に畳廊下と縁を配した上質の座敷が続く。玄関、座敷とも本瓦葺で、重厚な佇まいになる。,https://bunka.nii.ac.jp/heritage/43967/_102190/43967_102190111225011556967_300.jpg
101,00001201,新井家住宅奥座敷,あらいけじゅうたくおくざしき,1棟,,登録有形文化財(建造物),住宅,建築物,,昭和前,昭和7,1932,木造平屋建，瓦葺，建築面積120㎡,,27 － 0067,18,1999.07.21(平成11.07.21),1999.07.08(平成11.07.08),,19990708,,国土の歴史的景観に寄与しているもの,,大阪府,大阪府泉佐野市中庄1380,,,,,34.40906000000000,135.32900000000000,コの字型構成になる本邸の左翼部にあたる。平面は上段の間が附属する１５畳大の座敷と１０畳大の次の間を中心とした構成になる。内法の高い座敷の廻りに畳廊下及び縁を設け、ゆったりと園を見渡せるように工夫する。全体に質の高い技巧的な建物である。,https://bunka.nii.ac.jp/heritage/43967/_102191/43967_102191111225011557480_300.jpg
101,00001202,新井家住宅主屋,あらいけじゅうたくしゅおく,1棟,,登録有形文化財(建造物),住宅,建築物,,昭和前,昭和7,1932,木造平屋建，瓦葺，建築面積329㎡,,27 － 0068,18,1999.07.21(平成11.07.21),1999.07.08(平成11.07.08),,19990708,,国土の歴史的景観に寄与しているもの,,大阪府,大阪府泉佐野市中庄1380,,,,,34.40883000000000,135.32920000000000,コの字型構成の右翼部にあたる。平面は、前庭に面して玄関口を設け、南側に６畳３室及び４畳半の居室が縦長に並ぶ。中庭を挟んで北側に８畳間・風呂・便所などを置き、東北側には食堂及び接客を賄う２１畳大の広い炊事場を設けるなど独特の構成になる。,https://bunka.nii.ac.jp/heritage/43967/_102192/43967_102192111225011558773_300.jpg
101,00001203,新井家住宅蔵,あらいけじゅうたくくら,1棟,,登録有形文化財(建造物),住宅,建築物,,昭和前,昭和7,1932,木造平屋建，瓦葺，建築面積126㎡,,27 － 0069,18,1999.07.21(平成11.07.21),1999.07.08(平成11.07.08),,19990708,,国土の歴史的景観に寄与しているもの,,大阪府,大阪府泉佐野市中庄1380,,,,,34.40873000000000,135.32920000000000,住宅棟の南側に建つ切妻造、本瓦葺の２階建の大型土蔵。家財や什器類を納める内向きの蔵で、主屋とは廊下で結ばれる。外観は標準的な意匠で、一階部分をなまこ壁仕上げとする。大正から昭和期にかけての家人の生活を知る上でも、重要な要素となっている。,https://bunka.nii.ac.jp/heritage/43967/_102193/43967_102193111225011559280_300.jpg
101,00001204,新井家住宅門,あらいけじゅうたくもん,1棟,,登録有形文化財(建造物),住宅,その他工作,,昭和前,昭和7,1932,木造薬医門，瓦葺，建築面積32㎡,,27 － 0070,18,1999.07.21(平成11.07.21),1999.07.08(平成11.07.08),,19990708,,国土の歴史的景観に寄与しているもの,,大阪府,大阪府泉佐野市中庄1380,,,,,34.40887000000000,135.32900000000000,敷地南西部のやや屈曲した道路に面して建つ大型の三間の薬医門。道路面からやや引き込んだ位置にあり、両側に袖塀が付く。全体として木柄が太く、屋根を本瓦葺とした重厚な構えは、豪華な本邸にふさわしい堂々とした風格を保つ。,https://bunka.nii.ac.jp/heritage/43967/_102194/43967_102194111225011559795_300.jpg
101,00001205,新井家住宅塀,あらいけじゅうたくへい,1棟,,登録有形文化財(建造物),住宅,その他工作,,昭和前,昭和7,1932,土塀，瓦葺，延長130m,,27 － 0071,18,1999.07.21(平成11.07.21),1999.07.08(平成11.07.08),,19990708,,国土の歴史的景観に寄与しているもの,,大阪府,大阪府泉佐野市中庄1380,,,,,34.40897000000000,135.32890000000000,屋敷地の西辺部を画する土塀で、表門を挟んでその両側に設けられる。切石積の基礎上に建ち、漆喰仕上げ、瓦葺とする本格的な造りになる。総延長１３０ｍに及び、「新井の別邸」として知られる豪華な住宅にふさわしい堂々とした土塀である。,https://bunka.nii.ac.jp/heritage/43967/_102195/43967_102195111225011600057_300.jpg
101,00001288,水道記念館（旧柴島浄水場送水ポンプ場）,すいどうきねんかん（きゅうくにじまじょうすいじょうそうすいぽんぷじょう）,1棟,,登録有形文化財(建造物),生活関連,建築物,,大正,大正3,1914,煉瓦造，建築面積1758㎡,,27 － 0072,19,1999.09.07(平成11.09.07),1999.08.23(平成11.08.23),,19990823,,造形の規範となっているもの,,大阪府,大阪府大阪市東淀川区柴島1-3-1,,大阪市水道局,,,34.72436000000000,135.50530000000000,大阪市水道の拡張時につくられた煉瓦造，平屋建の建物。赤煉瓦を基調にして要所に花崗岩を混ぜた外観の意匠が特徴で，特に中央部にあるアーチ上部の煉瓦と石を交互に用いた仕上げが美しい。設計は宗兵蔵。,https://bunka.nii.ac.jp/heritage/43967/_102278/43967_102278111225011649018_300.jpg
101,00001289,池田家住宅,いけだけじゅうたく,1棟,,登録有形文化財(建造物),産業2次,建築物,,明治,明治25頃,1892頃,木造２階建，瓦葺，建築面積100㎡,,27 － 0073,19,1999.09.07(平成11.09.07),1999.08.23(平成11.08.23),,19990823,,国土の歴史的景観に寄与しているもの,,大阪府,大阪府大阪市住吉区住吉1-9-22,,,,,34.61220000000000,135.49600000000000,旧熊野街道と旧住吉街道が交差する角地に建つ店舗兼住宅。元禄年間に酒造業をはじめ後に味噌醸造を行ったと伝える家で，住宅は旧熊野街道に面した土蔵造，２階建で２階に虫籠窓を開く標準的な平入町家である。｢住之江味噌｣の製造元として広く親しまれている。,https://bunka.nii.ac.jp/heritage/43967/_102279/43967_102279111225011649526_300.jpg
101,00001290,篠崎家住宅,しのざきけじゅうたく,1棟,,登録有形文化財(建造物),住宅,建築物,,大正,大正11,1922,木造２階建，スレート葺，建築面積70㎡,,27 － 0074,19,1999.09.07(平成11.09.07),1999.08.23(平成11.08.23),,19990823,,造形の規範となっているもの,,大阪府,大阪府箕面市桜ヶ丘2-7-32,,,,,34.82422000000000,135.45930000000000,大正住宅改造博覧会において日本建築協会の出品住宅としてつくられたもので，碓井英隆の懸賞募集案を改良したもの。三方を道に面した敷地に建つ洋風住宅で，三面に切妻屋根をみせた外観と広間を中心とした間取りに特徴がある。,https://bunka.nii.ac.jp/heritage/43967/_102280/43967_102280111225011649790_300.jpg
101,00001291,畑田家住宅蔵２,はただけじゅうたくくらに,1棟,,登録有形文化財(建造物),住宅,建築物,,明治,明治20頃,1887頃,木造平屋建，瓦葺，建築面積59㎡,,27 － 0075,19,1999.09.07(平成11.09.07),1999.08.23(平成11.08.23),,19990823,,国土の歴史的景観に寄与しているもの,,大阪府,大阪府羽曳野市郡戸470,,,,,34.55401000000000,135.57290000000000,南と東側に道路が走る広大な屋敷地の南面中央に位置する。東側に連なる蔵１や長屋門とともに腰に板を貼り道路側の意匠を整える。敷地にそって附属屋を並べる構えはこの地方によくみられるが，規模が大きく庄屋の屋敷にふさわしい豪壮な構えとなっている。,https://bunka.nii.ac.jp/heritage/43967/_102281/43967_102281111225011650305_300.jpg
101,00001392,大阪天満宮梅花殿,おおさかてんまんぐうばいかでん,1棟,,登録有形文化財(建造物),宗教,建築物,,昭和前,昭和3,1928,木造平屋建、銅板葺、建築面積129㎡,,27 － 0076,20,1999.10.28(平成11.10.28),1999.10.14(平成11.10.14),,19991014,,造形の規範となっているもの,,大阪府,大阪府大阪市北区天神橋2-1-8,,宗教法人大阪天満宮,,,34.69607000000000,135.51330000000000,「天満の天神さん」として知られる大阪天満宮の境内東端中央寄りに南面して建つ。木造単層，銅板葺入母屋屋根の客殿（現在は結婚式場）で，身舎・庇構成をとり，東端の部屋の天井を支輪付二重折上小組格天井とした格式高い造りとする点に特徴がある。,https://bunka.nii.ac.jp/heritage/43967/_102382/43967_102382111225011749974_300.jpg
101,00001393,大阪天満宮神楽所,おおさかてんまんぐうかぐらしょ,1棟,,登録有形文化財(建造物),宗教,建築物,,明治,明治37,1904,木造平屋建、銅板葺、建築面積41㎡,,27 － 0077,20,1999.10.28(平成11.10.28),1999.10.14(平成11.10.14),,19991014,,造形の規範となっているもの,,大阪府,大阪府大阪市北区天神橋2-1-8,,宗教法人大阪天満宮,,,34.69598000000000,135.51290000000000,弘化２年（1845）造替の本殿・拝殿の東に建つ南北棟，銅板葺入母屋屋根の単層建物で，拝殿とは二階廊で連絡する。柱上には舟肘木を置き，軒は二軒疎角垂木とし，周囲に高く縁を回し，擬宝珠高欄を付ける。西面は，格子蔀戸を釣るなど古式を残す。,https://bunka.nii.ac.jp/heritage/43967/_102383/43967_102383111225011750761_300.jpg
101,00001394,大阪天満宮参集所,おおさかてんまんぐうさんしゅうじょ,1棟,,登録有形文化財(建造物),宗教,建築物,,明治,明治44,1911,木造平屋建、銅板葺、建築面積231㎡,,27 － 0078,20,1999.10.28(平成11.10.28),1999.10.14(平成11.10.14),,19991014,,造形の規範となっているもの,,大阪府,大阪府大阪市北区天神橋2-1-8,,宗教法人大阪天満宮,,,34.69609000000000,135.51300000000000,本殿と梅花殿の間に建つ東西棟，銅板葺入母屋屋根，木造単層の建物で，神楽所とは軒を一段落として変化をつけ，梅花殿とは廊下で繋がれる。身舎・庇構成をとり，身舎桁行を３分して計５室を設ける。通称「広間」で，現在は梅花殿の控室として利用されている。,https://bunka.nii.ac.jp/heritage/43967/_102384/43967_102384111225011752629_300.jpg
101,00001435,ミナミ株式会社（旧川崎貯蓄銀行福島出張所）,みなみかぶしきがいしゃ（きゅうかわさきちょちくぎんこうふくしましゅっちょうじょ）,1棟,,登録有形文化財(建造物),産業3次,建築物,,昭和前,昭和9,1934,鉄筋コンクリート地上2階地下1階建、建築面積206㎡,,27 － 0079,21,1999.12.02(平成11.12.02),1999.11.18(平成11.11.18),,19991118,,造形の規範となっているもの,,大阪府,大阪府大阪市福島区福島5-17-7,,ミナミ株式会社,,,34.69504000000000,135.48480000000000,川崎銀行系の建築を数多く手がけた矢部又吉の設計による小品。正面に４本のフルーティング付きイオニア式ジャイアント・オーダーを配し，端部を角型ピラスターで納める。敷地形状に対応してファサードに緩やかな凸曲面状のカーブを付けている点に特徴がある。,https://bunka.nii.ac.jp/heritage/43967/_102425/43967_102425111225011822984_300.jpg
101,00001436,阪之上家住宅洋館,さかのうえけじゅうたくようかん,1棟,,登録有形文化財(建造物),住宅,建築物,,大正,大正10頃,1921頃,煉瓦造2階建、建築面積37㎡,,27 － 0080,21,1999.12.02(平成11.12.02),1999.11.18(平成11.11.18),,19991118,,国土の歴史的景観に寄与しているもの,,大阪府,大阪府堺市西区浜寺昭和町5-594,,,,,34.53880000000000,135.44500000000000,大正７年頃から浜寺土地株式会社が分譲した海浜別荘地に所在する住宅建築の独立型洋館。浜寺土地株式会社が計画して未実施に終わった浜寺ホテルの設計図の一部を採って建築されたと伝える。柱型をパラペットまで通したファサード構成に特徴がある。,https://bunka.nii.ac.jp/heritage/43967/_102426/43967_102426111225011823499_300.jpg
101,00001437,阪之上家住宅離れ座敷,さかのうえけじゅうたくはなれざしき,1棟,,登録有形文化財(建造物),住宅,建築物,,昭和前,昭和9,1934,木造平屋建、瓦葺、建築面積107㎡,,27 － 0081,21,1999.12.02(平成11.12.02),1999.11.18(平成11.11.18),,19991118,,造形の規範となっているもの,,大阪府,大阪府堺市西区浜寺昭和町5-594,,,,,34.53871000000000,135.44510000000000,洋館の南東方に建つ桟瓦葺，寄棟屋根，平屋建の離れ座敷棟。南，西，北の３面に軒先を銅板で葺いた瓦葺の庇を回し，南東に茶室をはりだす。座敷部はつし２階風の外観を採り，内部は床・棚・書院付きの座敷を中心に上質な造りになる。,https://bunka.nii.ac.jp/heritage/43967/_102427/43967_102427111225011824930_300.jpg
101,00001438,阪之上家住宅蔵,さかのうえけじゅうたくくら,1棟,,登録有形文化財(建造物),住宅,建築物,,昭和前,昭和9,1934,木造2階建、瓦葺、建築面積20㎡,,27 － 0082,21,1999.12.02(平成11.12.02),1999.11.18(平成11.11.18),,19991118,,造形の規範となっているもの,,大阪府,大阪府堺市西区浜寺昭和町5-594,,,,,34.53871000000000,135.44520000000000,離れ座敷の東面に接続する内蔵で，東隣地の境界近くに建つ。南北棟，切妻屋根，平入，桁行３間，梁間２間規模の標準的な造りになる２階建土蔵であるが，屋根を本瓦で葺く。離れ座敷と一体となって，邸宅の構えの一翼を担う。,https://bunka.nii.ac.jp/heritage/43967/_102428/43967_102428111225011825232_300.jpg
101,00001439,阪之上家住宅渡廊下,さかのうえけじゅうたくわたりろうか,1棟,,登録有形文化財(建造物),住宅,建築物,,昭和前,昭和9,1934,木造、建築面積6.5㎡,,27 － 0083,21,1999.12.02(平成11.12.02),1999.11.18(平成11.11.18),,19991118,,造形の規範となっているもの,,大阪府,大阪府堺市西区浜寺昭和町5-594,,,,,34.53877000000000,135.44510000000000,阪之上家の敷地は，南と西が街路に接した５３ｍ×２６ｍの南北に長い角地で，ほぼ中央に離れ座敷が，北寄りに主屋が建つ。主屋は近年改築されたが，かっての主屋と離れ座敷を結ぶ連絡通路は現存し，洋館と中庭部との結界をなす。,https://bunka.nii.ac.jp/heritage/43967/_102429/43967_102429111225011825488_300.jpg
101,00001440,阪之上家住宅外塀,さかのうえけじゅうたくそとべい,1棟,,登録有形文化財(建造物),住宅,その他工作,,大正,大正10頃,1921頃,延長19m、門柱含む,,27 － 0084,21,1999.12.02(平成11.12.02),1999.11.18(平成11.11.18),,19991118,,国土の歴史的景観に寄与しているもの,,大阪府,大阪府堺市西区浜寺昭和町5-594,,,,,34.53885000000000,135.44500000000000,宅地の北西端から洋館北西端につながる外塀で，洋館寄りに宅地側に退いて石造の門柱を建てる。洋館西面が街路に接しているため，洋館の柱型意匠に合わせたバットレスを街路側に見せている点に特徴がある。住宅地景観の構成要素としても貴重である。,https://bunka.nii.ac.jp/heritage/43967/_102430/43967_102430111225011826004_300.jpg
101,00001527,鯛よし百番,たいよしひゃくばん,1棟,,登録有形文化財(建造物),文化福祉,建築物,,大正,大正中期,1912-1925,木造2階建、瓦葺、建築面積291㎡,,27 － 0086,22,2000.03.02(平成12.03.02),2000.02.15(平成12.02.15),,20000215,,造形の規範となっているもの,,大阪府,大阪府大阪市西成区山王3-5-25,,株式会社鯛よし,,,34.64262000000000,135.50560000000000,旧飛田新地の角地に建つ。木造２階建，入母屋造，桟瓦葺で，２階に擬宝珠高欄を巡らし，角を隅切りとして玄関に唐破風を付ける。内部は，日光東照宮陽明門を模すなど各部屋毎に趣向を凝らし，大阪歓楽街の殷賑を色濃く今に伝える。,https://bunka.nii.ac.jp/heritage/43967/_102517/43967_102517151023193417214_300.jpg
101,00001528,船場ビルディング,せんばびるでぃんぐ,1棟,,登録有形文化財(建造物),産業3次,建築物,,大正,大正14,1925,鉄筋コンクリート地上5階地下1階建、建築面積717㎡,,27 － 0087,22,2000.03.02(平成12.03.02),2000.02.15(平成12.02.15),,20000215,,造形の規範となっているもの,,大阪府,大阪府大阪市中央区淡路町2-5-8,,,,,34.68710000000000,135.50410000000000,御堂筋近くに建つ鉄筋コンクリート造５階建の住宅兼事務所ビル。外観はタイル張オフィスビルの意匠になるが，内部中央に細長いパティオ風の中庭を設けて吹き抜けとし，その周囲各階に回廊を巡らす特色ある造りとする。設計は村上徹一の建築事務所。,https://bunka.nii.ac.jp/heritage/43967/_102518/43967_102518111225011915670_300.jpg
101,00001529,大阪府立三国丘高等学校同窓会館（旧三丘会館）,おおさかふりつみくにがおかこうとうがっこうどうそうかいかん（きゅうさんきゅうかいかん）,1棟,,登録有形文化財(建造物),学校,建築物,,昭和前,昭和9,1934,鉄筋コンクリート2階建、建築面積354㎡,,27 － 0088,22,2000.03.02(平成12.03.02),2000.02.15(平成12.02.15),,20000215,,造形の規範となっているもの,,大阪府,大阪府堺市堺区南三国ヶ丘町2-2-36,,大阪府,,,34.57383000000000,135.48810000000000,旧制堺中学校の図書館機能を有する記念館として建設。設計は，同校の１期生で，初代鉄道省建築課長の久野節。玄関庇を支持する先すぼまりの円柱，階段室塔屋の縦長の連続窓と庇の構成などモダニズム色の強い造形に特色が認められる。,https://bunka.nii.ac.jp/heritage/43967/_102519/43967_102519111225011917392_300.jpg
101,00001629,日本フリーメソジスト教団大阪日本橋キリスト教会,にほんふりーめそじすときょうだんおおさかにっぽんばしきりすときょうかい,1棟,,登録有形文化財(建造物),宗教,建築物,,大正,大正14,1925,鉄筋コンクリート造2階建、建築面積342㎡,,27 － 0090,23,2000.05.17(平成12.05.17),2000.04.28(平成12.04.28),,20000428,,造形の規範となっているもの,,大阪府,大阪府大阪市中央区日本橋1-20-4,,日本フリーメソジスト大阪日本橋教会,,,34.66582000000000,135.50580000000000,堺筋の南の起点，日本橋一丁目の南西角近くに東面して建つ。玄関部の尖頭アーチの入口，３階の５連の尖頭アーチ窓などゴシックスタイルを基調とするが，堺筋沿いの街路景観に溶け込むように正面ファサードを概ね平板につくっている点に特徴がある。,https://bunka.nii.ac.jp/heritage/43967/_102619/43967_102619111225012020144_300.jpg
101,00001630,宇野薬局,うのやっきょく,1棟,,登録有形文化財(建造物),産業3次,建築物,,昭和前,昭和8,1933,木造3階建、瓦葺、建築面積58㎡,,27 － 0091,23,2000.05.17(平成12.05.17),2000.04.28(平成12.04.28),,20000428,,造形の規範となっているもの,,大阪府,大阪府大阪市中央区徳井町2-3-3,,,,,34.68411000000000,135.51180000000000,松屋町筋の角地に西面して建つ。木造３階建，タイル張の看板建築で，各階軒の水平線，３階側面の丸窓，パラペットに載せた緑色のスパニッシュ風瓦などに昭和初期の意匠傾向が認められる。設計は坂本建築事務所，施工は西成の長岡栄吉と伝える。,https://bunka.nii.ac.jp/heritage/43967/_102620/43967_102620111225012020409_300.jpg
101,00001720,山内ビル,やまうちびる,1棟,,登録有形文化財(建造物),産業3次,建築物,,昭和前,昭和初期,1926-1988,鉄筋コンクリート造地上4階地下1階建、建築面積75㎡,,27 － 0092,24,2000.05.25(平成12.05.25),2000.04.28(平成12.04.28),,20000428,,造形の規範となっているもの,,大阪府,大阪府大阪市西区土佐堀1-1-5,,,,,34.69242000000000,135.49560000000000,法律事務所として建設された事務所建築で外壁は褐色タイル貼り。一階東端の入口を花崗岩で縁取り二階の窓台装飾を垂らしてアーチの中心飾りとする。一階中央及び西にも同様なデザインの窓を設け二・三階の縦長窓の縦枠を一階から連続させて縦の線を強調する。,https://bunka.nii.ac.jp/heritage/43967/_102710/43967_102710111225012125253_300.jpg
101,00001721,御幸森天神宮本殿,みゆきもりてんじんぐうほんでん,1棟,,登録有形文化財(建造物),宗教,建築物,,昭和前,昭和5,1930,木造平屋建、銅板葺、建築面積15㎡,,27 － 0093,24,2000.05.25(平成12.05.25),2000.04.28(平成12.04.28),,20000428,,造形の規範となっているもの,,大阪府,大阪府大阪市生野区桃谷3-10-5,,宗教法人御幸森天神宮,,,34.66038000000000,135.53450000000000,三間社流造で屋根正面に千鳥破風と軒唐破風を付ける組物は身舎を軒支輪付の出組、庇を三斗組とする。身舎庇ともに実肘木に大仏様の繰形を施し、蟇股や木鼻の形態も古式である。透塀越しに望めるように床を高めている。設計は奈良の吉田種次郎と伝える。,https://bunka.nii.ac.jp/heritage/43967/_102711/43967_102711111225012125775_300.jpg
101,00001722,御幸森天神宮幣殿,みゆきもりてんじんぐうへいでん,1棟,,登録有形文化財(建造物),宗教,建築物,,昭和前,昭和5,1930,木造平屋建、銅板葺、建築面積16㎡,,27 － 0094,24,2000.05.25(平成12.05.25),2000.04.28(平成12.04.28),,20000428,,造形の規範となっているもの,,大阪府,大阪府大阪市生野区桃谷3-10-5,,宗教法人御幸森天神宮,,,34.66035000000000,135.53450000000000,本殿・拝殿間を繋ぐ桁行２間、両流造の幣殿。側面に菱格子窓を構え腰板壁とする。内部は木舞下地の化粧屋根裏とし、上下２段の虹梁を渡した架構に特色がある。本殿・拝殿同様な良質の檜を用い、素木の端正な美しさをみせる。,https://bunka.nii.ac.jp/heritage/43967/_102712/43967_102712111225012127259_300.jpg
101,00001723,御幸森天神宮拝殿,みゆきもりてんじんぐうはいでん,1棟,,登録有形文化財(建造物),宗教,建築物,,昭和前,昭和5,1930,木造平屋建、銅板葺、建築面積88㎡,,27 － 0095,24,2000.05.25(平成12.05.25),2000.04.28(平成12.04.28),,20000428,,造形の規範となっているもの,,大阪府,大阪府大阪市生野区桃谷3-10-5,,宗教法人御幸森天神宮,,,34.66030000000000,135.53450000000000,亀腹基壇上に建つ入母屋造平入り拝殿で、正面に緩やかな曲線からなる唐破風造の向拝を備える。内部は１室で背面左右の庇を「のりと座」及び「祭器庫」とする。本殿、幣殿と一連の建築であり、昭和初期における鎌倉復古様式神社建築の好例。,https://bunka.nii.ac.jp/heritage/43967/_102713/43967_102713111225012127779_300.jpg
101,00001724,御幸森天神宮透塀,みゆきもりてんじんぐうすきべい,1棟,,登録有形文化財(建造物),宗教,その他工作,,昭和前,昭和5,1930,木造、銅板葺、延長32m,,27 － 0096,24,2000.05.25(平成12.05.25),2000.04.28(平成12.04.28),,20000428,,造形の規範となっているもの,,大阪府,大阪府大阪市生野区桃谷3-10-5,,宗教法人御幸森天神宮,,,34.66043000000000,135.53450000000000,拝殿背後から延びて幣殿及び本殿を巡る塀。高さ約１ｍの切石積に建ち、折れ曲がり延長１７間で、挿肘木を用い銅板葺の屋根を架ける。各間に連子窓を設け腰板壁とする。柱・垂木などは本殿、拝殿などと同様な大面取りとして意匠を統一する。,https://bunka.nii.ac.jp/heritage/43967/_102714/43967_102714111225012128305_300.jpg
101,00001725,赤木宗成家住宅洋館,あかぎむねなりけじゅうたくようかん,1棟,,登録有形文化財(建造物),住宅,建築物,,大正,大正後期,1912-1925,木造2階建、銅板葺、建築面積100㎡,,27 － 0097,24,2000.05.25(平成12.05.25),2000.04.28(平成12.04.28),,20000428,,造形の規範となっているもの,,大阪府,大阪府高石市高師浜1-4-13,,,,,34.52802000000000,135.43700000000000,急勾配の切妻造の大屋根を正面玄関まで葺き下ろし、正面にＴ字型の棟を延ばして玄関上部の二階壁面を立ち上げる。外壁は一階を下見板張、二階をスタッコ塗とし、居間などの内部意匠も優れる。米国コテージスタイルの影響を受け、山川逸郎の設計と考えられる。,https://bunka.nii.ac.jp/heritage/43967/_102715/43967_102715111225012128570_300.jpg
101,00001726,赤木宗成家住宅和館,あかぎむねなりけじゅうたくわかん,1棟,,登録有形文化財(建造物),住宅,建築物,,大正,大正後期,1912-1925,木造平屋建、瓦葺、建築面積67㎡,,27 － 0098,24,2000.05.25(平成12.05.25),2000.04.28(平成12.04.28),,20000428,,造形の規範となっているもの,,大阪府,大阪府高石市高師浜1-4-13,,,,,34.52796000000000,135.43690000000000,大正初期から開けた郊外住宅地に建つ。欄間等の細部まで意を尽くした上質な和風建築で、屋根は入母屋造、桟瓦葺で周囲の庇を銅板葺とする。隣接する切妻造の洋館とともに、米国で学んだ山川逸郎が設計した住宅が集中していた加羅橋園住宅の面影を伝える。,https://bunka.nii.ac.jp/heritage/43967/_102716/43967_102716111225012129103_300.jpg
101,00001834,瀧安寺鳳凰閣,りゅうあんじほうおうかく,1棟,,登録有形文化財(建造物),宗教,建築物,,大正,大正6,1917,木造平屋建、瓦一部銅板葺、建築面積130㎡、塔屋付,,27 － 0099,25,2000.10.11(平成12.10.11),2000.09.26(平成12.09.26),,20000926,,国土の歴史的景観に寄与しているもの,,大阪府,大阪府箕面市箕面公園内,,宗教法人瀧安寺,,,34.84269000000000,135.47190000000000,切妻造・桟瓦葺，平屋建で，その北端に宝形造の楼閣をあげた形態で，平等院鳳凰堂翼廊の気分が表現されている。設計は武田五一，施工は高橋組。箕面山の中腹に位置し，石垣を高く築いた敷地に建ち，箕面川の渓流とともに優れた景観をつくりだしている。,https://bunka.nii.ac.jp/heritage/43967/_102824/43967_102824111225012234681_300.jpg
101,00001835,井上良尚家住宅主屋,いのうえよしなおけじゅうたくしゅおく,1棟,,登録有形文化財(建造物),住宅,建築物,,江戸,江戸後期,1751-1829,木造平屋建、瓦及び茅葺、建築面積268㎡,,27 － 0100,25,2000.10.11(平成12.10.11),2000.09.26(平成12.09.26),,20000926,,国土の歴史的景観に寄与しているもの,,大阪府,大阪府高石市綾園2-5-31,,,,,34.51980000000000,135.43820000000000,近世には代々市場村庄屋職を務めた家柄。主屋は敷地西半を占め，右の上手居室部が茅葺・平屋建，左の下手土間部が本瓦葺・つし２階建になる。古い部材もあるが，居室部が整った19世紀前期頃の完成とみられる。地域の旧家にふさわしい雄大な規模の民家。,https://bunka.nii.ac.jp/heritage/43967/_102825/43967_102825111225012236246_300.jpg
101,00001836,井上良尚家住宅長屋門,いのうえよしなおけじゅうたくながやもん,1棟,,登録有形文化財(建造物),住宅,建築物,,江戸,江戸後期,1751-1829,木造平屋建、瓦葺、建築面積34㎡,,27 － 0101,25,2000.10.11(平成12.10.11),2000.09.26(平成12.09.26),,20000926,,国土の歴史的景観に寄与しているもの,,大阪府,大阪府高石市綾園2-5-31,,,,,34.51961000000000,135.43820000000000,長屋門は主屋の南に建っている。入母屋造・本瓦葺で，背面には出桁造で庇を設ける。中央を内開き板戸とし，左右は背面に戸口をもつ室とする。外壁は鼠漆喰塗と真壁造を併用し，正面左に出格子窓を設ける。屋敷正面の構えとして，地域の景観の核となっている。,https://bunka.nii.ac.jp/heritage/43967/_102826/43967_102826111225012236517_300.jpg
101,00001837,井上良尚家住宅蔵,いのうえよしなおけじゅうたくくら,1棟,,登録有形文化財(建造物),住宅,建築物,,江戸,江戸後期,1751-1829,土蔵造平屋建、瓦葺、建築面積43㎡,,27 － 0102,25,2000.10.11(平成12.10.11),2000.09.26(平成12.09.26),,20000926,,再現することが容易でないもの,,大阪府,大阪府高石市綾園2-5-31,,,,,34.51974000000000,135.43800000000000,蔵は主屋の西，屋敷地西北面の中央に建つ。切妻造・本瓦葺で，街路に面した北西面は塀と合わせて高い縦板張，他は漆喰塗とし，東面に戸口を設ける。内部は中２階建で，道具蔵として什器などを納めた。通風等の高窓を設けるなど，用途に合わせたつくりになる。,https://bunka.nii.ac.jp/heritage/43967/_102827/43967_102827111225012237025_300.jpg
101,00001838,井上良尚家住宅油蔵,いのうえよしなおけじゅうたくあぶらぐら,1棟,,登録有形文化財(建造物),住宅,建築物,,江戸,江戸後期,1751-1829,土蔵造平屋建、瓦葺、建築面積42㎡,,27 － 0103,25,2000.10.11(平成12.10.11),2000.09.26(平成12.09.26),,20000926,,再現することが容易でないもの,,大阪府,大阪府高石市綾園2-5-31,,,,,34.51978000000000,135.43850000000000,井上家の屋敷地の北東と南東には濠が廻っている。油蔵は屋敷地東隅の角地に建ち，米や油等の貯蔵に用いられていた。切妻造・本瓦葺で，腰を縦板張，上部を漆喰塗りとし，濠に面した平側にも荷揚げ用の戸口を設ける。小規模だが，しっかりとしたつくりの土蔵。,https://bunka.nii.ac.jp/heritage/43967/_102828/43967_102828111225012237288_300.jpg
101,00001839,井上良尚家住宅茶室,いのうえよしなおけじゅうたくちゃしつ,1棟,,登録有形文化財(建造物),住宅,建築物,,江戸,江戸後期,1751-1829,木造平屋建、瓦葺、建築面積41㎡,,27 － 0104,25,2000.10.11(平成12.10.11),2000.09.26(平成12.09.26),,20000926,,造形の規範となっているもの,,大阪府,大阪府高石市綾園2-5-31,,,,,34.51980000000000,135.43840000000000,茶室は主屋居室部の東に玄関を挟んで連続している。平屋建，切妻造・桟瓦葺で，平面はともに床・棚付の４畳半間と６畳間の２室からなり，縁や控え室を巧みに配している。床柱に面皮柱を用いるなど，全体を数寄屋風の意匠でよくまとめた茶室建築である。,https://bunka.nii.ac.jp/heritage/43967/_102829/43967_102829111225012237558_300.jpg
101,00001840,谷岡記念館,たにおかきねんかん,1棟,,登録有形文化財(建造物),学校,建築物,,昭和前,昭和10,1935,鉄筋コンクリート造4階建、建築面積807㎡、塔屋付,,27 － 0105,25,2000.10.11(平成12.10.11),2000.09.26(平成12.09.26),,20000926,,造形の規範となっているもの,,大阪府,大阪府東大阪市御厨栄町4-1-10,,学校法人谷岡学園,,,34.66684000000000,135.58410000000000,昭和９年室戸台風後に復興された城東商業学校（現大阪商業大学）校舎で，現在は資料の展示施設として活用。南北に長いＲＣ造４階建で，正面に時計台，内部に３・４階吹抜けの講堂を設ける。平滑な壁面とアーチや丸窓などの意匠に時代の特色がよく表れている。,https://bunka.nii.ac.jp/heritage/43967/_102830/43967_102830111225012238076_300.jpg
101,00001925,片桐棲龍堂主屋,かたぎりせいりゅうどうしゅおく,1棟,,登録有形文化財(建造物),住宅,建築物,,江戸,文化年間,1804-1817,木造2階建、瓦葺、建築面積127㎡,,27 － 0106,26,2000.11.06(平成12.11.06),2000.10.18(平成12.10.18),,20001018,,再現することが容易でないもの,,大阪府,大阪府堺市堺区西湊町3-1-16,,,,,34.56746000000000,135.46420000000000,紀州街道より一本東側の中筋と阪堺電気軌道阪堺線に挟まれた敷地に位置する老舗の漢方薬局。主屋は，入母屋造，平入，つし２階の塗屋で，北寄り下手を土間とし，上手に７畳半と４畳半茶室，茶室の東奥に仏間と１０畳座敷を配し，土間の北方に旧店舗を繋げる。,https://bunka.nii.ac.jp/heritage/43967/_102915/43967_102915111225012349061_300.jpg
101,00001926,片桐棲龍堂東ノ蔵,かたぎりせいりゅうどうひがしのくら,1棟,,登録有形文化財(建造物),住宅,建築物,,江戸,嘉永年間,1848-1853,土蔵造平屋建、瓦葺、建築面積17㎡,,27 － 0107,26,2000.11.06(平成12.11.06),2000.10.18(平成12.10.18),,20001018,,造形の規範となっているもの,,大阪府,大阪府堺市堺区西湊町3-1-16,,,,,34.56741000000000,135.46430000000000,主屋の東方，薬草園に連なる藪内流庭園の中央北辺の境界をなす位置に建つ。桁行２間，梁行２間半規模の切妻造，本瓦葺，妻入の平屋建土蔵で，嘉永年間の建造と伝える。主屋に向けた西面に入口を設け，のちに蔵前を煉瓦敷に整えている。,https://bunka.nii.ac.jp/heritage/43967/_102916/43967_102916111225012349569_300.jpg
101,00001927,片桐棲龍堂中ノ蔵,かたぎりせいりゅうどうなかのくら,1棟,,登録有形文化財(建造物),住宅,建築物,,江戸,嘉永年間,1848-1853,土蔵造2階建、瓦葺、建築面積12㎡,,27 － 0108,26,2000.11.06(平成12.11.06),2000.10.18(平成12.10.18),,20001018,,造形の規範となっているもの,,大阪府,大阪府堺市堺区西湊町3-1-16,,,,,34.56743000000000,135.46420000000000,主屋の東北方，東ノ蔵の西方に建つ。東ノ蔵と同様に嘉永年間の建造と伝える。桁行２間，梁行１間半規模のややたちの高い標準的造りの２階建土蔵で，東西棟の切妻造，本瓦葺，平入とし，南面に観音扉を付けて蔵前をつくる。,https://bunka.nii.ac.jp/heritage/43967/_102917/43967_102917111225012350086_300.jpg
101,00001928,片桐棲龍堂摩利支尊天神社廟,かたぎりせいりゅうどうまりしそんてんじんしゃびょう,1棟,,登録有形文化財(建造物),住宅,建築物,,江戸,文化11頃,1814頃,木造平屋建、瓦葺、建築面積2.3㎡,,27 － 0109,26,2000.11.06(平成12.11.06),2000.10.18(平成12.10.18),,20001018,,再現することが容易でないもの,,大阪府,大阪府堺市堺区西湊町3-1-16,,,,,34.56737000000000,135.46440000000000,敷地の東方，藪内流庭園の東北隅の一画に位置する。切妻造，桟瓦葺，妻入の土台建，真壁造小祠で，西面して建つ。内部に，一間社流造，千鳥破風・唐破風付き，板葺の本殿を納める。片桐棲龍堂の歴史の一端を窺い知ることのできる建造物。,https://bunka.nii.ac.jp/heritage/43967/_102918/43967_102918111225012350598_300.jpg
101,00001929,片桐棲龍堂西ノ蔵,かたぎりせいりゅうどうにしのくら,1棟,,登録有形文化財(建造物),産業3次,建築物,,江戸,江戸後期／明治6移築,1751-1829／1873移築,土蔵造2階建、瓦葺、建築面積47㎡,,27 － 0110,26,2000.11.06(平成12.11.06),2000.10.18(平成12.10.18),,20001018,,再現することが容易でないもの,,大阪府,大阪府堺市堺区西湊町3-1-16,,,,,34.56754000000000,135.46400000000000,大阪市街日本橋から明治６年に移築された土蔵で，主屋の西方，アプローチ通路を隔てた位置に建つ。桁行３間，梁行４間，東西棟，切妻造，本瓦葺，妻入の比較的規模の大きな２階建土蔵で，現在は漢方資料館として活用されている。,https://bunka.nii.ac.jp/heritage/43967/_102919/43967_102919111225012353422_300.jpg
101,00001930,片桐棲龍堂洗い場,かたぎりせいりゅうどうあらいば,1棟,,登録有形文化財(建造物),住宅,建築物,,明治,明治初期,1868-1911,木造平屋建、瓦葺、建築面積51㎡,,27 － 0111,26,2000.11.06(平成12.11.06),2000.10.18(平成12.10.18),,20001018,,再現することが容易でないもの,,大阪府,大阪府堺市堺区西湊町3-1-16,,,,,34.56746000000000,135.46430000000000,中ノ蔵東妻面から東ノ蔵西妻面にかけて架けられた木造，平家建，真壁造の上屋的建造物で，南面を吹放ちとし，煉瓦塀を建てて庭園との境界とする。内部は化粧小屋裏を表し，床は地元産の赤煉瓦を矢筈状に敷いて特徴ある空間をつくる。,https://bunka.nii.ac.jp/heritage/43967/_102920/43967_102920111225012353934_300.jpg
101,00001931,片桐棲龍堂煉瓦塀,かたぎりせいりゅうどうれんがべい,1棟,,登録有形文化財(建造物),住宅,その他工作,,明治,明治初期,1868-1911,煉瓦造、延長6.4m,,27 － 0112,26,2000.11.06(平成12.11.06),2000.10.18(平成12.10.18),,20001018,,再現することが容易でないもの,,大阪府,大阪府堺市堺区西湊町3-1-16,,,,,34.56742000000000,135.46430000000000,洗い場の南辺の境界をなす塀で，東ノ蔵南西隅から発し，ほぼ真西に向けて築造。煉瓦１枚厚，イギリス積で，煉瓦２２段に積み，上部を二五分迫り出して桟瓦葺，両流の小屋根を載せる。洗い場煉瓦敷とともに赤煉瓦発祥地のひとつとされる堺に相応しい工作物。,https://bunka.nii.ac.jp/heritage/43967/_102921/43967_102921111225012354453_300.jpg
101,00001932,樟徳館主屋,しょうとくかんしゅおく,1棟,,登録有形文化財(建造物),住宅,建築物,,昭和前,昭和14,1939,木造2階建、瓦葺、建築面積1169㎡,,27 － 0113,26,2000.11.06(平成12.11.06),2000.10.18(平成12.10.18),,20001018,,造形の規範となっているもの,,大阪府,大阪府東大阪市菱屋西2-4-12,,学校法人樟蔭学園,,,34.65361000000000,135.57810000000000,樟蔭学園の創立者で，大阪・長堀で材木商を営んだ森平蔵の私邸。入母屋造の玄関車寄を中央にし，左手に平屋建の応接間棟，右手に２階建の居室棟をバランスよく配す。自ら木取りした良材をふんだんに用い，和洋折衷の室内意匠でまとめられた近代和風邸宅建築。,https://bunka.nii.ac.jp/heritage/43967/_102922/43967_102922111225012354713_300.jpg
101,00001933,樟徳館土蔵,しょうとくかんどぞう,1棟,,登録有形文化財(建造物),住宅,建築物,,昭和前,昭和14,1939,土蔵造2階建、瓦葺、建築面積133㎡,,27 － 0114,26,2000.11.06(平成12.11.06),2000.10.18(平成12.10.18),,20001018,,造形の規範となっているもの,,大阪府,大阪府東大阪市菱屋西2-4-12,,学校法人樟蔭学園,,,34.65389000000000,135.57800000000000,敷地の西北方隅に建つ。桁行５間，梁行２間半規模の東西棟，切妻造，本瓦葺の２階建土蔵を東西に配置し，その間を棟を落とした桟瓦葺屋根で繋ぎ，南面に下屋を差し掛けて蔵前をとる。取合いを含めて桁行方向１３間と屋敷構えに相応しい規模を有する。,https://bunka.nii.ac.jp/heritage/43967/_102923/43967_102923111225012355252_300.jpg
101,00001934,樟徳館鎮守社,しょうとくかんちんじゅしゃ,1棟,,登録有形文化財(建造物),住宅,建築物,,昭和前,昭和14,1939,木造平屋建、銅板葺、建築面積3.3㎡,,27 － 0115,26,2000.11.06(平成12.11.06),2000.10.18(平成12.10.18),,20001018,,造形の規範となっているもの,,大阪府,大阪府東大阪市菱屋西2-4-12,,学校法人樟蔭学園,,,34.65383000000000,135.57790000000000,敷地の西北方の奥，蔵の南側に位置する。屋敷神として設置され，縁石で間口６．７ｍ，奥行４．７ｍの区画をなし，その中央部に花崗石で見かけ３段の基壇を造り，木造，銅板葺，八幡造の社殿を置く。宇佐神宮本殿を模したもので，「八幡さん」と呼ばれる。,https://bunka.nii.ac.jp/heritage/43967/_102924/43967_102924111225012355819_300.jpg
101,00001935,樟徳館門,しょうとくかんもん,1棟,,登録有形文化財(建造物),住宅,その他工作,,昭和前,昭和14,1939,木造薬医門、瓦葺、間口3.2m,,27 － 0116,26,2000.11.06(平成12.11.06),2000.10.18(平成12.10.18),,20001018,,造形の規範となっているもの,,大阪府,大阪府東大阪市菱屋西2-4-12,,学校法人樟蔭学園,,,34.65337000000000,135.57840000000000,長瀬川沿いの敷地東辺の南寄りの位置に，道路からやや奥にひいて建つ。間口約３．１５ｍの一間薬医門で，左右にコの字型に袖塀を従え，両脇に潜戸を開ける。屋根に緩やかなムクリをつけ，門扉を１枚板とするなど上質な造りになる。,https://bunka.nii.ac.jp/heritage/43967/_102925/43967_102925111225012356918_300.jpg
101,00001936,樟徳館東塀,しょうとくかんひがしべい,1棟,,登録有形文化財(建造物),住宅,その他工作,,昭和前,昭和14,1939,木造、瓦葺、延長24m,,27 － 0117,26,2000.11.06(平成12.11.06),2000.10.18(平成12.10.18),,20001018,,造形の規範となっているもの,,大阪府,大阪府東大阪市菱屋西2-4-12,,学校法人樟蔭学園,,,34.65348000000000,135.57840000000000,門北端から長瀬川沿いに北方に向かう延長約２４ｍの屋根塀。土台建の真壁造で，腰を板張，上部を土壁とし，頂部に桟瓦葺の小屋根を載せる。長瀬川沿いの道路との間に植込みをなし，門と相まってのびやかな表構えをつくりあげている。,https://bunka.nii.ac.jp/heritage/43967/_102926/43967_102926111225012357431_300.jpg
101,00001937,樟徳館南塀,しょうとくかんみなみべい,1棟,,登録有形文化財(建造物),住宅,その他工作,,昭和前,昭和14,1939,木造、瓦葺、延長70m,,27 － 0118,26,2000.11.06(平成12.11.06),2000.10.18(平成12.10.18),,20001018,,造形の規範となっているもの,,大阪府,大阪府東大阪市菱屋西2-4-12,,学校法人樟蔭学園,,,34.65332000000000,135.57810000000000,門南端から敷地東南隅で折れ曲がり，敷地南辺を西に向かう延長約７０ｍの屋根塀。東塀と同様な造りで，土台建の真壁造，腰部を板張，上部を土壁とし頂部に桟瓦葺の小屋根を頂く。前面には木製の矢来柵を効果的に置いて趣ある横道空間をつくりだしている。,https://bunka.nii.ac.jp/heritage/43967/_102927/43967_102927111225012357697_300.jpg
101,00002058,少彦名神社本殿,すくなひこなじんじゃほんでん,1棟,,登録有形文化財(建造物),宗教,建築物,,明治,明治43,1910,木造平屋建、銅板葺、建築面積3.4㎡,,27 － 0119,27,2000.12.20(平成12.12.20),2000.12.04(平成12.12.04),,20001204,,造形の規範となっているもの,,大阪府,大阪府大阪市中央区道修町2-1-8,,宗教法人少彦名神社,,,34.68881000000000,135.50600000000000,道修町は江戸時代以来，薬問屋が集中する地で，当社は薬の神である少彦名命を祀る。本殿は桁行一間，梁間二間，切妻造，銅板葺，平入りの小規模な社殿で，妻梁を虹梁形に造るほか装飾のない簡素な造りだが，全体の比例が良く，良材による質の高い建物である。,https://bunka.nii.ac.jp/heritage/43967/_103048/43967_103048111225012512029_300.jpg
101,00002059,少彦名神社幣殿,すくなひこなじんじゃへいでん,1棟,,登録有形文化財(建造物),宗教,建築物,,明治,明治43,1910,木造平屋建、銅板葺、建築面積2.2㎡,,27 － 0120,27,2000.12.20(平成12.12.20),2000.12.04(平成12.12.04),,20001204,,造形の規範となっているもの,,大阪府,大阪府大阪市中央区道修町2-1-8,,宗教法人少彦名神社,,,34.68879000000000,135.50590000000000,正面一間，側面二間，両下造，銅板葺で，本殿正面に取り付く。角柱に虹梁形頭貫を通し台輪を載せ，絵様肘木及び中備の蟇股を置いて桁を受け，正面では笈形付太瓶束を立て棟木を支える。本殿と対照的に彫刻を多用した建物で，一体となって特徴ある構成を造る。,https://bunka.nii.ac.jp/heritage/43967/_103049/43967_103049111225012512295_300.jpg
101,00002060,少彦名神社拝殿,すくなひこなじんじゃはいでん,1棟,,登録有形文化財(建造物),宗教,建築物,,明治,明治43,1910,木造平屋建、銅板葺、建築面積26㎡,,27 － 0121,27,2000.12.20(平成12.12.20),2000.12.04(平成12.12.04),,20001204,,造形の規範となっているもの,,大阪府,大阪府大阪市中央区道修町2-1-8,,宗教法人少彦名神社,,,34.68875000000000,135.50590000000000,桁行３間，梁間２間，入母屋造，銅板葺で，正面に千鳥破風，軒唐破風を付ける。中央１間通りはもと土間で割拝殿形式であった。全体に簡素な造りだが正面は装飾的な構えとなり，虹梁上に太瓶束を立て菖蒲桁を受ける唐破風の構成など，巧みな処理が見られる。,https://bunka.nii.ac.jp/heritage/43967/_103050/43967_103050111225012513776_300.jpg
101,00002061,免山篤家住宅主屋,めざんあつしけじゅうたくしゅおく,1棟,,登録有形文化財(建造物),住宅,建築物,,大正,大正1,1912,木造平屋建、茅葺、建築面積154㎡,,27 － 0122,27,2000.12.20(平成12.12.20),2000.12.04(平成12.12.04),,20001204,,再現することが容易でないもの,,大阪府,大阪府茨木市佐保1161,,,,,34.87284000000000,135.52530000000000,主屋は当地方における伝統的な農家の形式を踏襲するが，座敷廻りには床，棚，付書院を完備し，高い技術による瀟洒な意匠になる。集落の中心にあって歴史的景観の核となるとともに，土間，勝手廻りに至るまで建築当初の形式がそのまま保存され価値が高い。,https://bunka.nii.ac.jp/heritage/43967/_103051/43967_103051111225012514043_300.jpg
101,00002062,免山篤家住宅土蔵一,めざんあつしけじゅうたくどぞういち,1棟,,登録有形文化財(建造物),住宅,建築物,,大正,大正1,1912,土蔵造平屋建、瓦葺、建築面積23㎡,,27 － 0123,27,2000.12.20(平成12.12.20),2000.12.04(平成12.12.04),,20001204,,国土の歴史的景観に寄与しているもの,,大阪府,大阪府茨木市佐保1161,,,,,34.87288000000000,135.52520000000000,屋敷北西隅に北及び西面を道路に面して建つ。切妻造，桟瓦葺，土蔵造で，上方約三分の一を漆喰塗，その下を杉焼板張りとする。平屋だが立ちの高い特徴ある外観をもち，敷地北西隅を限る目立つ位置にあり，屋敷構えを構成する重要な建物となっている。,https://bunka.nii.ac.jp/heritage/43967/_103052/43967_103052111225012514576_300.jpg
101,00002063,免山篤家住宅土蔵二,めざんあつしけじゅうたくどぞうに,1棟,,登録有形文化財(建造物),住宅,建築物,,大正,大正1,1912,土蔵造平屋建、瓦葺、建築面積16㎡,,27 － 0124,27,2000.12.20(平成12.12.20),2000.12.04(平成12.12.04),,20001204,,国土の歴史的景観に寄与しているもの,,大阪府,大阪府茨木市佐保1161,,,,,34.87289000000000,135.52530000000000,敷地北西隅の土蔵の東に接続して北側の道路に面して建つ。西の土蔵と同形式だが，桁行が短く棟高，軒高もやや低い。小規模だが軒蛇腹を造るなど本格的な造りで，西の土蔵と一体となって屋敷北面西半の景観を整える主要な要素となっている。,https://bunka.nii.ac.jp/heritage/43967/_103053/43967_103053111225012514846_300.jpg
101,00002064,免山篤家住宅勝手,めざんあつしけじゅうたくかって,1棟,,登録有形文化財(建造物),住宅,建築物,,大正,大正1,1912,木造平屋建、瓦葺、建築面積12㎡,,27 － 0125,27,2000.12.20(平成12.12.20),2000.12.04(平成12.12.04),,20001204,,国土の歴史的景観に寄与しているもの,,大阪府,大阪府茨木市佐保1161,,,,,34.87291000000000,135.52530000000000,主屋土間部分の背後に位置する水廻り施設で，内部に井戸と流しを備え，床は全面石敷きとする。丸太の柱を半間毎に立て周囲中塗仕上げの壁を造り，屋根は切妻造，桟瓦葺である。小規模で簡素な建物であるが，屋敷の勝手廻りを構成する重要な施設である。,https://bunka.nii.ac.jp/heritage/43967/_103054/43967_103054111225012515373_300.jpg
101,00002065,免山篤家住宅納屋,めざんあつしけじゅうたくなや,1棟,,登録有形文化財(建造物),住宅,建築物,,明治,明治38,1905,木造平屋建、瓦葺、建築面積41㎡,,27 － 0126,27,2000.12.20(平成12.12.20),2000.12.04(平成12.12.04),,20001204,,国土の歴史的景観に寄与しているもの,,大阪府,大阪府茨木市佐保1161,,,,,34.87273000000000,135.52550000000000,敷地南東隅に建つ。正面南半に下屋を付属し，これより北に下屋の屋根と一連の庇を持ち送りで支えて付ける。切妻造，桟瓦葺，外壁は大壁で，軒も垂木，母屋形を見せて塗り込める。作業用の施設だが，屋敷への露地の正面にあり，外観の意匠に配慮している。,https://bunka.nii.ac.jp/heritage/43967/_103055/43967_103055111225012515902_300.jpg
101,00002066,免山篤家住宅北及び東塀,めざんあつしけじゅうたくきたおよびひがしべい,1棟,,登録有形文化財(建造物),住宅,その他工作,,大正,大正1,1912,木造、瓦葺、延長25m,,27 － 0127,27,2000.12.20(平成12.12.20),2000.12.04(平成12.12.04),,20001204,,国土の歴史的景観に寄与しているもの,,大阪府,大阪府茨木市佐保1161,,,,,34.87293000000000,135.52540000000000,敷地北面の道路及び主屋東の露地境に築く。半間毎に柱を立て桟瓦葺屋根をのせ，外側上半を黒漆喰塗，下半を竪板張とする。木部を赤く塗り，棟の屈曲部に留蓋風の役瓦を載せるなど意匠を凝らし，勝手，便所の壁も一連の仕上げとして屋敷表側の構えを整える。,https://bunka.nii.ac.jp/heritage/43967/_103056/43967_103056111225012516908_300.jpg
101,00002067,免山篤家住宅西塀,めざんあつしけじゅうたくにしべい,1棟,,登録有形文化財(建造物),住宅,その他工作,,大正,大正1,1912,木造、瓦葺、延長11m,,27 － 0128,27,2000.12.20(平成12.12.20),2000.12.04(平成12.12.04),,20001204,,国土の歴史的景観に寄与しているもの,,大阪府,大阪府茨木市佐保1161,,,,,34.87280000000000,135.52520000000000,屋敷地の西側道路に面した石垣上に築いた塀。急峻な坂に面する西側では，道路との段差が小さい北半部分は高く，それより南の高い石垣上は低く築く。半間毎に柱を立て桟瓦葺屋根をのせ，西面では石垣とともに屋敷構えの重要な構成要素となる。,https://bunka.nii.ac.jp/heritage/43967/_103057/43967_103057111225012517442_300.jpg
101,00002068,免山篤家住宅石垣,めざんあつしけじゅうたくいしがき,1基,,登録有形文化財(建造物),住宅,その他工作,,大正,大正1,1912,石造、延長19m,,27 － 0129,27,2000.12.20(平成12.12.20),2000.12.04(平成12.12.04),,20001204,,国土の歴史的景観に寄与しているもの,,大阪府,大阪府茨木市佐保1161,,,,,34.87281000000000,135.52520000000000,屋敷西側の急峻な坂に面して築く。玉石状の自然石を用い坂に沿って緩やかに曲面を造る巧みな野面積みで，南端部では高さ５メートルに及ぶ。保存状態の良さは石積み技術の高さを示し，屋敷のみでなく集落を代表する景観を特徴付けるものとして価値が高い。,https://bunka.nii.ac.jp/heritage/43967/_103058/43967_103058111225012517713_300.jpg
101,00002069,杉田家住宅主屋,すぎたけじゅうたくしゅおく,1棟,,登録有形文化財(建造物),住宅,建築物,,昭和前,昭和4,1929,木造2階建、瓦葺、建築面積183㎡,,27 － 0130,27,2000.12.20(平成12.12.20),2000.12.04(平成12.12.04),,20001204,,造形の規範となっているもの,,大阪府,大阪府富田林市本町5-13,,,,,34.50273000000000,135.59900000000000,木造，一部コンクリート造，２階建，寄棟造，瓦葺で，洋風の外観で玄関ポーチやその脇に洋室を配すが，その奥や二階には和室を造る。アールデコ風の玄関ポーチや室内各室など洗練された意匠になり，和洋の意匠を巧みに融合した特徴ある住宅建築である。,https://bunka.nii.ac.jp/heritage/43967/_103059/43967_103059111225012518244_300.jpg
101,00002070,杉田家住宅蔵,すぎたけじゅうたくくら,1棟,,登録有形文化財(建造物),住宅,建築物,,昭和前,昭和4,1929,土蔵造2階建、瓦葺、建築面積29㎡,,27 － 0131,27,2000.12.20(平成12.12.20),2000.12.04(平成12.12.04),,20001204,,再現することが容易でないもの,,大阪府,大阪府富田林市本町5-13,,,,,34.50261000000000,135.59900000000000,木造，２階建，切妻造，桟瓦葺の建物で，敷地の南端部に位置し，主屋の奥に蔵前を介して接続する。白壁で大きな軒蛇腹を持つ丁寧な仕事になる伝統的な土蔵造で，立ちの高い外観は洋風の主屋と好対照をなし，屋敷構えを整える重要な要素となる。,https://bunka.nii.ac.jp/heritage/43967/_103060/43967_103060111225012518764_300.jpg
101,00002153,中内眼科医院,なかうちがんかいいん,1棟,,登録有形文化財(建造物),産業3次,建築物,,大正,大正13頃,1924頃,鉄筋コンクリート造3階建、建築面積286㎡,,27 － 0134,28,2001.05.15(平成13.05.15),2001.04.24(平成13.04.24),,20010424,,国土の歴史的景観に寄与しているもの,,大阪府,大阪府富田林市富田林町146,,,,,34.50038000000000,135.60330000000000,富田林重伝建地区に近い堺町筋の角地に建つ。当初，国分銀行の本社屋として建設。ＲＣ造３階建で，隅部に玄関を設ける。１階壁面に大型の半円アーチ窓，２階に半円錐窓台付の上げ下げ窓を配す。町屋建築が多いこの地域で，近代的景観を際だたせている。,https://bunka.nii.ac.jp/heritage/43967/_103143/43967_103143111225012611781_300.jpg
101,00002154,佐竹ガラス主屋,さたけがらすしゅおく,1棟,,登録有形文化財(建造物),住宅,建築物,,昭和前,昭和16,1941,木造2階建、瓦葺、建築面積275㎡,,27 － 0135,28,2001.05.15(平成13.05.15),2001.04.24(平成13.04.24),,20010424,,造形の規範となっているもの,,大阪府,大阪府和泉市幸2-11-30,,,,,34.50250000000000,135.43830000000000,市中心部に位置する。敷地内に住居建築と工場が混在し，木造２階建，入母屋造の主屋は，敷地南端の角地に位置する。白漆喰と繊細な縦格子からなる１階正面と，平側に文様をあしらった虫籠窓を穿つ黒漆喰壁面からなる２階部で，外観を形成する。,https://bunka.nii.ac.jp/heritage/43967/_103144/43967_103144111225012612324_300.jpg
101,00002155,佐竹ガラス事務所,さたけがらすじむしょ,1棟,,登録有形文化財(建造物),産業2次,建築物,,昭和前,昭和初期,1926-1988,木造平屋建、瓦葺、建築面積31㎡,,27 － 0136,28,2001.05.15(平成13.05.15),2001.04.24(平成13.04.24),,20010424,,国土の歴史的景観に寄与しているもの,,大阪府,大阪府和泉市幸2-11-30,,,,,34.50255000000000,135.43820000000000,主屋の北西面に接続する。木造平屋建，寄棟造，桟瓦葺で，主屋と棟方向を合わせる。通り側に庇を出し，反対側の増築部分との間に約３ｍ幅の通路を設ける。街路に面した屋敷の景観構成要素として欠かせない存在となっている。,https://bunka.nii.ac.jp/heritage/43967/_103145/43967_103145111225012612860_300.jpg
101,00002156,佐竹ガラス溶解場,さたけがらすようかいじょう,1棟,,登録有形文化財(建造物),産業2次,建築物,,昭和前,昭和初期,1926-1988,木造平屋建、瓦葺、建築面積295㎡,,27 － 0137,28,2001.05.15(平成13.05.15),2001.04.24(平成13.04.24),,20010424,,国土の歴史的景観に寄与しているもの,,大阪府,大阪府和泉市幸2-11-30,,,,,34.50267000000000,135.43800000000000,事務所の北西に位置する木造平屋建，入母屋造，桟瓦葺の工場。内部にガラス溶解炉が備えつけられる。棟のほぼ中央部に気抜用の越屋根を載せ，通り側に下見板を貼った大きな妻面を見せる。町工場らしい外観で市民に親しまれている。,https://bunka.nii.ac.jp/heritage/43967/_103146/43967_103146111225012613126_300.jpg
101,00002157,佐竹ガラス作業場,さたけがらすさぎょうば,1棟,,登録有形文化財(建造物),産業2次,建築物,,昭和前,昭和初期,1926-1988,木造平屋建、瓦葺、建築面積495㎡,,27 － 0138,28,2001.05.15(平成13.05.15),2001.04.24(平成13.04.24),,20010424,,国土の歴史的景観に寄与しているもの,,大阪府,大阪府和泉市幸2-11-30,,,,,34.50271000000000,135.43820000000000,敷地奥，溶解場の東面と接する。木造平屋建，桟瓦葺でＬ字形平面を持つ。棒ガラスを製造する作業棟として使われる。内部では，他の工場同様，四方に方杖を付ける柱がキングポストトラス形式の小屋組を受ける。全体と調和した外観で屋敷構の内向部を占める。,https://bunka.nii.ac.jp/heritage/43967/_103147/43967_103147111225012613645_300.jpg
101,00002158,佐竹ガラス調合場,さたけがらすちょうごうじょう,1棟,,登録有形文化財(建造物),産業2次,建築物,,昭和前,昭和初期,1926-1988,木造平屋一部2階建、瓦葺、建築面積39㎡,,27 － 0139,28,2001.05.15(平成13.05.15),2001.04.24(平成13.04.24),,20010424,,国土の歴史的景観に寄与しているもの,,大阪府,大阪府和泉市幸2-11-30,,,,,34.50279000000000,135.43800000000000,溶解場の北面と接し，ほぼ東西方向に棟を通す。木造平屋建，切妻造，桟瓦葺で，棟の東側に越屋根を載せる。腰を竪板貼，上部を白漆喰とし下庇を廻した西棟と，外装下見板貼とした東棟から成る。材料の調合棟として用いられ，当初従業員の宿舎棟も兼ねていた。,https://bunka.nii.ac.jp/heritage/43967/_103148/43967_103148111225012614901_300.jpg
101,00002159,佐竹ガラス鎮守社,さたけがらすちんじゅしゃ,1棟,,登録有形文化財(建造物),住宅,建築物,,昭和前,昭和初期,1926-1988,木造平屋建、銅板葺、建築面積2㎡,,27 － 0140,28,2001.05.15(平成13.05.15),2001.04.24(平成13.04.24),,20010424,,国土の歴史的景観に寄与しているもの,,大阪府,大阪府和泉市幸2-11-30,,,,,34.50272000000000,135.43790000000000,切石積基壇上に建つ銅板葺の一間社流造社殿。身舎・向拝とも角柱を用い，組物は入れずに桁を直接柱で受ける。軒は一軒疎垂木で，向拝に弓状の虹梁を入れ，中備蟇股とする。小規模な社殿で簡素なつくりだが，屋敷角地を占める構成要素として欠かせない存在。,https://bunka.nii.ac.jp/heritage/43967/_103149/43967_103149111225012615173_300.jpg
101,00002297,旧天王貯水池,きゅうてんのうちょすいち,1基,,登録有形文化財(建造物),生活関連,土木構造物,,明治,明治43,1910,煉瓦及びコンクリート造、面積886㎡,,27 － 0141,29,2001.09.14(平成13.09.14),2001.08.28(平成13.08.28),,20010828,,国土の歴史的景観に寄与しているもの,,大阪府,大阪府堺市堺区中三国ヶ丘町3-78-1、2,,堺市,,,34.57398000000000,135.48980000000000,市北部にある煉瓦及びコンクリート造貯水池。総面積６６２㎡の２つの貯水槽が，スパン約３．６ｍの煉瓦造ヴォールトで覆われる。上部を曲線状にした出入口と，帯・笠石に花崗岩を用い楔石をダイヤモンド状山切とした出入口を構える。設計は野口広衛。,https://bunka.nii.ac.jp/heritage/43967/_103287/43967_103287188777650956435_300.jpg
101,00002417,築留二番樋,つきどめにばんひ,1基,,登録有形文化財(建造物),産業1次,土木構造物,,明治,明治末期,1868-1911,煉瓦造単アーチ樋門、長さ55m、幅2m,,27 － 0142,30,2001.10.29(平成13.10.29),2001.10.12(平成13.10.12),,20011012,,国土の歴史的景観に寄与しているもの,,大阪府,大阪府柏原市上市2-320,,築留土地改良区,,,34.58289000000000,135.62500000000000,市中心部，長瀬川が大和川から分派する地点に築かれる。坑口は，直径約１．６ｍの３枚厚の半円アーチからなる馬蹄形断面で，坑門とそこから斜めに張り出す翼壁上部に花崗岩の笠石を載せる。小規模ながら，明治の近代河川景観の様を今に伝える貴重な構造物。,https://bunka.nii.ac.jp/heritage/43967/_103407/43967_103407111225012902026_300.jpg
101,00002418,玉手橋,たまてばし,1基,,登録有形文化財(建造物),交通,土木構造物,,昭和前,昭和3,1928,鉄筋コンクリート造主塔、鉄製トラス補剛桁5径間吊橋、橋長151m、幅員3.3m,,27 － 0143,30,2001.10.29(平成13.10.29),2001.10.12(平成13.10.12),,20011012,,国土の歴史的景観に寄与しているもの,,大阪府,大阪府柏原市石川町・玉手町～藤井寺市道明寺3,,柏原市,,,34.56659000000000,135.62150000000000,旧玉手山遊園地に通じ，石川に架かる橋長151mの鉄製5径間吊橋。補剛桁をハウトラス，下部構造をＲＣ造とする。隣接する主塔を開腹アーチで結び，主塔頭部にケーブル定置を兼ねたバトルメントを設ける。地域のランドマークとして広く親しまれている。,https://bunka.nii.ac.jp/heritage/43967/_103408/43967_103408111225012902537_300.jpg
101,00002419,成子家住宅主屋,なるこけじゅうたくしゅおく,1棟,,登録有形文化財(建造物),住宅,建築物,,大正,大正5,1916,木造2階建、瓦葺、建築面積224㎡,,27 － 0144,30,2001.10.29(平成13.10.29),2001.10.12(平成13.10.12),,20011012,,国土の歴史的景観に寄与しているもの,,大阪府,大阪府阪南市尾崎3-13-6,,,,,34.36378000000000,135.24120000000000,浪速酒造の店舗兼住宅。木造総２階建入母屋本瓦葺で，間口１１間にも及ぶ大型町屋。３列６間取りの平面で，書院化された座敷や２階の居室化等に近代の町屋の特質がみえる一方，２階の階高を低くし，開口部を全て虫駕窓とする等，伝統的な外観も保持している。,https://bunka.nii.ac.jp/heritage/43967/_103409/43967_103409111225012903950_300.jpg
101,00002420,成子家住宅離れ,なるこけじゅうたくはなれ,1棟,,登録有形文化財(建造物),住宅,建築物,,大正,大正年間,1912-1925,木造平屋建、瓦葺、建築面積167㎡,,27 － 0145,30,2001.10.29(平成13.10.29),2001.10.12(平成13.10.12),,20011012,,国土の歴史的景観に寄与しているもの,,大阪府,大阪府阪南市尾崎3-13-6,,,,,34.36364000000000,135.24140000000000,主屋東南部から矩折に連なる木造平屋建，桟瓦葺の離れ。玄関，座敷，離座敷，次の間，洋館等を配し，接客空間として充実した施設をもつ。座敷飾りを完備した座敷は随所に良質の材を用い，洋間も背の高い窓，蛇腹付の漆喰天井や中心飾りを備える本格的なもの。,https://bunka.nii.ac.jp/heritage/43967/_103410/43967_103410111225012904477_300.jpg
101,00002421,成子家住宅土蔵一,なるこけじゅうたくどぞういち,1棟,,登録有形文化財(建造物),住宅,建築物,,大正,大正年間,1912-1925,土蔵造平屋建、瓦葺、建築面積28㎡,,27 － 0146,30,2001.10.29(平成13.10.29),2001.10.12(平成13.10.12),,20011012,,国土の歴史的景観に寄与しているもの,,大阪府,大阪府阪南市尾崎3-13-6,,,,,34.36383000000000,135.24140000000000,中庭を介して主屋と相対し，離れに隣接して建つ木造切妻，平屋建の土蔵。桁行３間半，梁間２間半の小規模な土蔵ながら，腰を下見板風の左官仕上げとし，屋根には本瓦を葺く丁寧な造り。内向きに配された主要な室から望む，中庭の重要な点景要素となっている。,https://bunka.nii.ac.jp/heritage/43967/_103411/43967_103411160215100421036_300.jpg
101,00002422,成子家住宅土蔵二,なるこけじゅうたくどぞうに,1棟,,登録有形文化財(建造物),住宅,建築物,,大正,大正年間,1912-1925,土蔵造平屋建、瓦葺、建築面積68㎡,,27 － 0147,30,2001.10.29(平成13.10.29),2001.10.12(平成13.10.12),,20011012,,国土の歴史的景観に寄与しているもの,,大阪府,大阪府阪南市尾崎3-13-6,,,,,34.36374000000000,135.24160000000000,敷地北東，離れと棟通りを揃えて建つ，桁行６間，梁間３間半規模の木造平屋建，切妻本瓦葺の土蔵。腰は，側面は土蔵一と同じく下見板風の左官仕上げとするが，観音扉を配する妻側正面には，開口部脇に額縁をまわして海鼠壁をはめるなど，特徴ある外観をもつ。,https://bunka.nii.ac.jp/heritage/43967/_103412/43967_103412111225012904813_300.jpg
101,00002423,成子家住宅酒蔵一,なるこけじゅうたくさかぐらいち,1棟,,登録有形文化財(建造物),産業2次,建築物,,大正,大正年間,1912-1925,土蔵造2階建、瓦葺、建築面積148㎡,,27 － 0148,30,2001.10.29(平成13.10.29),2001.10.12(平成13.10.12),,20011012,,国土の歴史的景観に寄与しているもの,,大阪府,大阪府阪南市尾崎3-13-6,,,,,34.36384000000000,135.24150000000000,敷地北東，土蔵二と棟を直行させ，北西にはしる裏通りに並行して建つ酒蔵。桁行８間，梁間５間半規模の木造，切妻２階建で，焼板を縦に軒まで貼上げ本瓦を葺く。主屋や離れといった居室部分を取り囲むようにして建つ４つの酒蔵のうち規模としては最も小さい。,https://bunka.nii.ac.jp/heritage/43967/_103413/43967_103413111225012905087_300.jpg
101,00002424,成子家住宅酒蔵二,なるこけじゅうたくさかぐらに,1棟,,登録有形文化財(建造物),産業2次,建築物,,大正,大正年間,1912-1925,土蔵造2階建、瓦葺、建築面積193㎡,,27 － 0149,30,2001.10.29(平成13.10.29),2001.10.12(平成13.10.12),,20011012,,国土の歴史的景観に寄与しているもの,,大阪府,大阪府阪南市尾崎3-13-6,,,,,34.36399000000000,135.24160000000000,敷地北，酒蔵一と同じく北西にはしる裏通りに並行して建つ酒蔵。桁行９間，梁間６間半規模の木造，切妻造２階建で，焼板を縦に軒まで貼り上げ本瓦を葺く。酒蔵一と軒を連ねて建ち，その偉容は尾崎の歴史的町並みの景観形成上重要な要素のひとつとなっている。,https://bunka.nii.ac.jp/heritage/43967/_103414/43967_103414111225012905358_300.jpg
101,00002425,成子家住宅酒蔵三,なるこけじゅうたくさかぐらさん,1棟,,登録有形文化財(建造物),産業2次,建築物,,大正,大正年間,1912-1925,土蔵造2階建、瓦葺、建築面積257㎡,,27 － 0150,30,2001.10.29(平成13.10.29),2001.10.12(平成13.10.12),,20011012,,国土の歴史的景観に寄与しているもの,,大阪府,大阪府阪南市尾崎3-13-6,,,,,34.36414000000000,135.24140000000000,敷地の北西を区切る，木造２階建切妻本瓦葺の酒蔵。桁行１２間，梁間６間半規模の身舎部分に，現状では北面に附属蔵を連ね，下屋を張り出す。小屋組は，側から２間通りに柱をたて，桁を渡し，側柱から登り梁，中央部に水平梁を架け，長大な内部空間をつくる。,https://bunka.nii.ac.jp/heritage/43967/_103415/43967_103415111225012905623_300.jpg
101,00002426,成子家住宅酒蔵四,なるこけじゅうたくさかぐらよん,1棟,,登録有形文化財(建造物),産業2次,建築物,,大正,大正年間,1912-1925,土蔵造2階建、瓦葺、建築面積227㎡,,27 － 0151,30,2001.10.29(平成13.10.29),2001.10.12(平成13.10.12),,20011012,,国土の歴史的景観に寄与しているもの,,大阪府,大阪府阪南市尾崎3-13-6,,,,,34.36396000000000,135.24110000000000,妻面を表通りに面し，敷地南西を区切って建つ，木造切妻２階建の酒蔵。桁行１６間，梁間４間半の大規模な構えで，焼板を縦に軒まで貼り上げ桟瓦を葺く。西側面は軒下を漆喰仕上げとする。小屋組は，水平梁，投げかけ梁を２間ごとに架ける豪壮なつくりになる。,https://bunka.nii.ac.jp/heritage/43967/_103416/43967_103416111225012906836_300.jpg
101,00002427,成子家住宅表門,なるこけじゅうたくおもてもん,1棟,,登録有形文化財(建造物),住宅,その他工作,,大正,大正年間,1912-1925,木造、間口2.3m、西塀付,,27 － 0152,30,2001.10.29(平成13.10.29),2001.10.12(平成13.10.12),,20011012,,国土の歴史的景観に寄与しているもの,,大阪府,大阪府阪南市尾崎3-13-6,,,,,34.36360000000000,135.24130000000000,敷地の東南，表通りに面して主屋右手から連なる塀を従えて建ち，前庭を介して離れに開く門。一間棟門形式の簡素な造りとし，左右の塀より一間分控え，桟瓦葺の屋根を載せる。老舗の造り酒屋の接客空間への出入口として，控えめながらも重みのある意匠をもつ。,https://bunka.nii.ac.jp/heritage/43967/_103417/43967_103417111225012907336_300.jpg
101,00002428,成子家住宅塀,なるこけじゅうたくへい,1棟,,登録有形文化財(建造物),住宅,その他工作,,大正,大正年間,1912-1925,煉瓦造、瓦葺、延長11m,,27 － 0153,30,2001.10.29(平成13.10.29),2001.10.12(平成13.10.12),,20011012,,国土の歴史的景観に寄与しているもの,,大阪府,大阪府阪南市尾崎3-13-6,,,,,34.36362000000000,135.24130000000000,敷地東南，主屋から表門をはさんで延べ１０．５ｍにわたって表通りを区切る。基礎石に土壁風の仕上げとし桟瓦葺の屋根を載せる。酒蔵４から連なる主屋の本瓦葺の庇は，塀の瓦屋根と視覚的に一体化し，表通りの景観の連続性を保つ上で貴重な存在となっている。,https://bunka.nii.ac.jp/heritage/43967/_103418/43967_103418111225012907604_300.jpg
101,00002429,山本家住宅主屋,やまもとけじゅうたくしゅおく,1棟,,登録有形文化財(建造物),住宅,建築物,,大正,大正3,1914,木造2階建、瓦葺、建築面積244㎡,,27 － 0154,30,2001.10.29(平成13.10.29),2001.10.12(平成13.10.12),,20011012,,国土の歴史的景観に寄与しているもの,,大阪府,大阪府南河内郡太子町太子1773,,,,,34.51776000000000,135.63930000000000,山本家住宅は聖徳太子の廟所叡福寺門前にあり，竹の内街道に面して長大な間口を構える。主屋は間口１０間半，奥行き４間半の大規模な２階建で，緩やかに起る大屋根が叡福寺境内や街道からのアイストップになっている。絵様付きの方杖など細部も優秀。,https://bunka.nii.ac.jp/heritage/43967/_103419/43967_103419111225012907875_300.jpg
101,00002430,山本家住宅西蔵,やまもとけじゅうたくにしぐら,1棟,,登録有形文化財(建造物),住宅,建築物,,大正,大正3,1914,土蔵造平屋建、瓦葺、建築面積47㎡,,27 － 0155,30,2001.10.29(平成13.10.29),2001.10.12(平成13.10.12),,20011012,,国土の歴史的景観に寄与しているもの,,大阪府,大阪府南河内郡太子町太子1773,,,,,34.51766000000000,135.63910000000000,敷地西南隅にある置屋根形式の蔵で，北側に戸前の庇，それ以外の三方には水切りの腕木庇をつける。他の建物が桟瓦葺であるとは異なり本瓦葺で，置屋根の登梁や母屋，垂木なども漆喰で塗籠める本格的な土蔵である。屋敷の構成要素として欠かせない存在。,https://bunka.nii.ac.jp/heritage/43967/_103420/43967_103420111225012908398_300.jpg
101,00002431,山本家住宅東蔵,やまもとけじゅうたくひがしぐら,1棟,,登録有形文化財(建造物),住宅,建築物,,大正,大正3,1914,土蔵造2階建、瓦葺、建築面積34㎡,,27 － 0156,30,2001.10.29(平成13.10.29),2001.10.12(平成13.10.12),,20011012,,国土の歴史的景観に寄与しているもの,,大阪府,大阪府南河内郡太子町太子1773,,,,,34.51776000000000,135.63950000000000,主屋東方にあり，街道に面して建つ土蔵。南，西面に庇を設け南庇を濡縁とし，内部は東西２室に分かれ，西側は蔵座敷とする。主屋とは木戸を介して接続し，河内地方の街道筋の変化に富んだ町家景観を構成する。,https://bunka.nii.ac.jp/heritage/43967/_103421/43967_103421111225012908667_300.jpg
101,00002432,山本家住宅高塀,やまもとけじゅうたくたかべい,1棟,,登録有形文化財(建造物),住宅,その他工作,,大正,大正3,1914,木造、瓦葺、延長34m,,27 － 0157,30,2001.10.29(平成13.10.29),2001.10.12(平成13.10.12),,20011012,,国土の歴史的景観に寄与しているもの,,大阪府,大阪府南河内郡太子町太子1773,,,,,34.51784000000000,135.63910000000000,北面の竹の内街道沿い西寄りから西面の蔵一北西隅にかけて矩の手に敷地を限る真壁の高塀。北面東端から南方の主屋上手に接続する腕木門を設ける。蔵二，主屋とともに街道側の伝統的なファサードを構成する。,https://bunka.nii.ac.jp/heritage/43967/_103422/43967_103422111225012909195_300.jpg
101,00002556,池永家住宅主屋,いけながけじゅうたくしゅおく,1棟,,登録有形文化財(建造物),住宅,建築物,,江戸,江戸中期／明治中期改造,1661-1750／1868-1911改造,木造2階建、瓦葺、建築面積161㎡,,27 － 0158,31,2001.12.04(平成13.12.04),2001.11.20(平成13.11.20),,20011120,,国土の歴史的景観に寄与しているもの,,大阪府,大阪府大阪市西淀川区野里1-26-8,,,,,34.71188000000000,135.46280000000000,大阪市北西部，淀川河口付近にある豪農の家柄で，主屋は１８世紀中期頃を骨格とし，文化年間の増改築を経て明治中期に現在の形となった。柱や土間の梁組など古民家の要素をよく残し，桟瓦葺・２階建の雄大な外観は，今なおかつての農村景観を彷彿とさせる。,https://bunka.nii.ac.jp/heritage/43967/_103546/43967_103546111225013019419_300.jpg
101,00002557,池永家住宅長屋門,いけながけじゅうたくながやもん,1棟,,登録有形文化財(建造物),住宅,建築物,,江戸,弘化3,1846,木造平屋建、瓦葺、建築面積22㎡,,27 － 0159,31,2001.12.04(平成13.12.04),2001.11.20(平成13.11.20),,20011120,,国土の歴史的景観に寄与しているもの,,大阪府,大阪府大阪市西淀川区野里1-26-8,,,,,34.71171000000000,135.46280000000000,長方形の屋敷地南面に建つ東西に細長い建物で，桟瓦葺屋根は東側が入母屋造，西側が切妻造になり，中央は通路土間，その左右をそれぞれ部屋とする。切石積基礎で，腰を縦板張，上部を砂漆喰壁とし，東西に連続する高塀とともに屋敷の表構えを構成している。,https://bunka.nii.ac.jp/heritage/43967/_103547/43967_103547111225013019892_300.jpg
101,00002558,池永家住宅離れ,いけながけじゅうたくはなれ,1棟,,登録有形文化財(建造物),住宅,建築物,,昭和前,昭和初期,1926-1988,木造平屋建、瓦葺、建築面積16㎡,,27 － 0160,31,2001.12.04(平成13.12.04),2001.11.20(平成13.11.20),,20011120,,造形の規範となっているもの,,大阪府,大阪府大阪市西淀川区野里1-26-8,,,,,34.71181000000000,135.46270000000000,屋敷地の西，主屋西側に並立して建ち，通路で連続する。切妻造，桟瓦葺，平入で，内部は床・床脇を備えた数寄屋風意匠でまとめられ，小壁の板欄間など繊細である。現在は旧野里村に伝わる歴史資料を展示した郷土資料館として活用されている。,https://bunka.nii.ac.jp/heritage/43967/_103548/43967_103548111225013020418_300.jpg
101,00002559,池永家住宅内蔵,いけながけじゅうたくうちぐら,1棟,,登録有形文化財(建造物),住宅,建築物,,江戸,江戸末期,1830-1867,土蔵造2階建、瓦葺、建築面積20㎡,,27 － 0161,31,2001.12.04(平成13.12.04),2001.11.20(平成13.11.20),,20011120,,国土の歴史的景観に寄与しているもの,,大阪府,大阪府大阪市西淀川区野里1-26-8,,,,,34.71179000000000,135.46270000000000,主屋の北東部に建つ土蔵で，現在は主屋増築部とつながり，現在も家財等の収納に用いられている。切妻造・妻入の２階建で，南妻面に観音扉を設け，屋根は東西棟・桟瓦葺，外壁は白漆喰塗と縦板張を併用する。屋敷の構成要素として欠かせない存在である。,https://bunka.nii.ac.jp/heritage/43967/_103549/43967_103549111225013020944_300.jpg
101,00002560,池永家住宅米蔵・道具蔵,いけながけじゅうたくこめぐら・どうぐぐら,1棟,,登録有形文化財(建造物),住宅,建築物,,昭和前,昭和初期,1926-1988,土蔵造2階建、瓦葺、建築面積24㎡,,27 － 0162,31,2001.12.04(平成13.12.04),2001.11.20(平成13.11.20),,20011120,,国土の歴史的景観に寄与しているもの,,大阪府,大阪府大阪市西淀川区野里1-26-8,,,,,34.71188000000000,135.46270000000000,離れとほぼ同時の建築で，その北側に独立して建つ。切妻造・平入の２階建で，屋根は南北棟・本瓦葺である。内部は北１間半分が米蔵，南２間分が道具蔵にそれぞれ用いられ，これに応じて東面に２つの観音扉を設ける。豪農の屋敷構成上，欠かせない附属施設。,https://bunka.nii.ac.jp/heritage/43967/_103550/43967_103550111225013021479_300.jpg
101,00002561,大阪セルロイド会館,おおさかせるろいどかいかん,1棟,,登録有形文化財(建造物),産業2次,建築物,,昭和前,昭和6／昭和12移築,1931／1937移築,鉄筋コンクリート造3階建、建築面積313㎡,,27 － 0163,31,2001.12.04(平成13.12.04),2001.11.20(平成13.11.20),,20011120,,造形の規範となっているもの,,大阪府,大阪府大阪市東成区大今里西2-5-12,,財団法人大阪セルロイド会館,,,34.66970000000000,135.54000000000000,Ｌ型平面の北半部に南側を増築。表現派風の卵頭形断面の列柱を配した北東面と，町家風の窓と庇の意匠をとる南東面は時代差を反映して対照的であるが，１階の庇，２階のアーチ窓，３階の軒のスペイン瓦とが統一的な一体感ある表情をつくりだしている。,https://bunka.nii.ac.jp/heritage/43967/_103551/43967_103551111225013022831_300.jpg
101,00002562,富田林市立川西小学校教育歴史資料室（旧川西尋常小学校）,とんだばやしりつたちかわにししょうがっこうきょういくれきししりょうしつ（きゅうかわにしじんじょうしょうがっこう）,1棟,,登録有形文化財(建造物),学校,建築物,,昭和前,昭和10,1935,木造平屋建、瓦葺、建築面積161㎡,,27 － 0164,31,2001.12.04(平成13.12.04),2001.11.20(平成13.11.20),,20011120,,造形の規範となっているもの,,大阪府,大阪府富田林市新家1-3-1,,富田林市,,,34.49308000000000,135.58830000000000,昭和９年の室戸台風後の復興校舎で，玄関・職員室と高等科教室１室を残す。教室の天井を船底天井とし，室内天井下に挟み方杖を見せるなどの構造的な特徴のほか，東妻面に玄関ポーチを配して半切妻の２重構成とするなどの意匠的な見所もあわせもつ。,https://bunka.nii.ac.jp/heritage/43967/_103552/43967_103552111225013023365_300.jpg
101,00002644,大阪市立大学本館（一号館）,おおさかいちりつだいがくほんかん（いちごうかん）,1棟,,登録有形文化財(建造物),学校,建築物,,昭和前,昭和9,1934,鉄筋コンクリート造3階一部地下1階建、建築面積2522㎡、塔屋付,,27 － 0165,32,2002.03.12(平成14.03.12),2002.02.14(平成14.02.14),,20020214,,造形の規範となっているもの,,大阪府,大阪府大阪市住吉区杉本三丁目４５９－１５他,,公立大学法人大阪,,,34.59060000000000,135.50500000000000,大阪商科大学本館として建設された鉄筋コンクリート造の建物。南面し，東西に長く伸ばした翼部，背面に講堂を接続し，正面中央玄関上部に塔を高く聳える。全体にクラシックな構成だが，簡略化した柱型や庇による水平線の強調などによる新たな造形志向が顕著。,https://bunka.nii.ac.jp/heritage/43967/_103634/43967_103634501037551390011_300.jpg
101,00002645,旧是枝近有邸,きゅうこれえだちかありてい,1棟,,登録有形文化財(建造物),住宅,建築物,,昭和前,昭和6頃,1931頃,木造4階建、セメント瓦葺、建築面積52㎡,,27 － 0166,32,2002.03.12(平成14.03.12),2002.02.14(平成14.02.14),,20020214,,再現することが容易でないもの,,大阪府,大阪府堺市北区百舌鳥梅北町4丁185,,,,,34.55871000000000,135.49710000000000,木造モルタル塗４階建で，四方に急傾斜の袴腰の妻をみせ四方対称とし，中央に塔屋を載せたひときわ目立つ洋風意匠の外観が特徴。２層分のコリント式の柱で支えたベランダや角を丸く処理した壁面を用いる点も特異である。施工は村田元蔵。,https://bunka.nii.ac.jp/heritage/43967/_103635/43967_103635111225013118763_300.jpg
101,00002646,兒山家住宅主屋,こやまけじゅうたくしゅおく,1棟,,登録有形文化財(建造物),住宅,建築物,,江戸,江戸後期,1751-1829,木造2階建、瓦葺、建築面積254㎡,,27 － 0167,32,2002.03.12(平成14.03.12),2002.02.14(平成14.02.14),,20020214,,国土の歴史的景観に寄与しているもの,,大阪府,大阪府堺市中区陶器北1404,,,,,34.51498000000000,135.52240000000000,市内村邑部にある豪農の屋敷。敷地中央に南面して建つ主屋は，２階建，入母屋造，本瓦葺で，西半を土間，東半を６間取りの居室部とする。正面に虫籠窓をあけつし２階風に見せるが，登梁による小屋組で本２階とする。入母屋を重ねた屋根等，重厚な外観を造る。,https://bunka.nii.ac.jp/heritage/43967/_103636/43967_103636111225013119156_300.jpg
101,00002647,兒山家住宅座敷,こやまけじゅうたくざしき,1棟,,登録有形文化財(建造物),住宅,建築物,,江戸,江戸後期,1751-1829,木造平屋建、瓦葺、建築面積89㎡,,27 － 0168,32,2002.03.12(平成14.03.12),2002.02.14(平成14.02.14),,20020214,,造形の規範となっているもの,,大阪府,大阪府堺市中区陶器北1404,,,,,34.51497000000000,135.52250000000000,主屋の東に接続。入母屋造，本瓦葺で，南・東に矩折れに廻る縁部分は錣葺とする。表側は主室，次の間を並べ，背後に茶室，仏間，化粧の間を配す。角柱で長押を廻し，主室に床，違棚，付書院を設け格式を備えるが，木割が細く天井高も押さえ瀟洒な意匠となる。,https://bunka.nii.ac.jp/heritage/43967/_103637/43967_103637111225013119681_300.jpg
101,00002648,兒山家住宅離れ,こやまけじゅうたくはなれ,1棟,,登録有形文化財(建造物),住宅,建築物,,昭和前,昭和初期,1926-1988,木造平屋建、瓦葺、建築面積17㎡,,27 － 0169,32,2002.03.12(平成14.03.12),2002.02.14(平成14.02.14),,20020214,,造形の規範となっているもの,,大阪府,大阪府堺市中区陶器北1404,,,,,34.51503000000000,135.52260000000000,座敷の東面北端に突出した寄棟造，桟瓦葺の付属棟で，座敷の一部改造にともなって増築された。３畳大の小室の３方に縁を廻し，北東には湯殿と便所を張り出して設ける。小規模で簡素な建物だが，座敷に不可欠な施設であり，南の庭園に面して瀟洒な外観を造る,https://bunka.nii.ac.jp/heritage/43967/_103638/43967_103638111225013120200_300.jpg
101,00002649,兒山家住宅取り合い,こやまけじゅうたくとりあい,1棟,,登録有形文化財(建造物),住宅,建築物,,江戸,江戸後期,1751-1829,木造2階建、瓦葺、建築面積47㎡,,27 － 0170,32,2002.03.12(平成14.03.12),2002.02.14(平成14.02.14),,20020214,,造形の規範となっているもの,,大阪府,大阪府堺市中区陶器北1404,,,,,34.51506000000000,135.52240000000000,主屋の背後，北方の内蔵との間の接続部分。南半を２階建，北半を平屋とし，屋根は２階建部分が切妻造で下屋を付し，平屋部分は両下で，いずれも本瓦葺とする。平屋部分の西に湯殿・便所を張り出す。簡素な付属施設だが，主屋と一連の堅固で上質な造りとなる。,https://bunka.nii.ac.jp/heritage/43967/_103639/43967_103639111225013120477_300.jpg
101,00002650,兒山家住宅内蔵,こやまけじゅうたくうちぐら,1棟,,登録有形文化財(建造物),住宅,建築物,,江戸,江戸後期,1751-1829,土蔵造2階建、瓦葺、建築面積39㎡,,27 － 0171,32,2002.03.12(平成14.03.12),2002.02.14(平成14.02.14),,20020214,,国土の歴史的景観に寄与しているもの,,大阪府,大阪府堺市中区陶器北1404,,,,,34.51512000000000,135.52240000000000,家財を収容する施設で，主屋の背後に取り合いを介して接続する。２階建，切妻造，本瓦葺の土蔵で，外部は漆喰仕上，腰を竪板張とする。装飾要素は一切用いず簡素な造りだが，破風，垂木等を塗込めた丁寧な仕事になり，立ちの高い平明な姿は目立つ存在である。,https://bunka.nii.ac.jp/heritage/43967/_103640/43967_103640111225013120743_300.jpg
101,00002651,兒山家住宅納屋,こやまけじゅうたくなや,1棟,,登録有形文化財(建造物),住宅,建築物,,江戸,江戸後期,1751-1829,木造平屋建、瓦葺、建築面積68㎡,,27 － 0172,32,2002.03.12(平成14.03.12),2002.02.14(平成14.02.14),,20020214,,国土の歴史的景観に寄与しているもの,,大阪府,大阪府堺市中区陶器北1404,,,,,34.51512000000000,135.52230000000000,主屋の北，内蔵の西に隣接して建つ。平屋建，切妻造，桟瓦葺で，前面に腕木で持ち出した出の大きい庇を一段下げて付ける。外部は漆喰塗，腰竪板張で，内部は桁行きに３室に仕切り，漬物や柴，農耕具を収納していた。屋敷構えの構成要素として欠かせない施設。,https://bunka.nii.ac.jp/heritage/43967/_103641/43967_103641111225013121013_300.jpg
101,00002652,兒山家住宅外蔵,こやまけじゅうたくそとぐら,1棟,,登録有形文化財(建造物),住宅,建築物,,江戸,江戸後期,1751-1829,土蔵造平屋建、瓦葺、建築面積21㎡,,27 － 0173,32,2002.03.12(平成14.03.12),2002.02.14(平成14.02.14),,20020214,,国土の歴史的景観に寄与しているもの,,大阪府,大阪府堺市中区陶器北1404,,,,,34.51513000000000,135.52210000000000,納屋の西方，敷地の北西隅に建つ。平屋建，切妻造，本瓦葺の土蔵で，外部は漆喰塗，腰を竪板張とする。小規模ながら内蔵とは異なり軒廻り，螻蛄羽を一連に塗り込めた本格的な造りで，敷地北西隅の目立つ位置に建ち，屋敷構えの構成要素として欠かせない施設。,https://bunka.nii.ac.jp/heritage/43967/_103642/43967_103642111225013123375_300.jpg
101,00002653,兒山家住宅門長屋,こやまけじゅうたくもんながや,1棟,,登録有形文化財(建造物),住宅,建築物,,江戸,江戸後期,1751-1829,木造平屋建、瓦葺、建築面積112㎡,,27 － 0174,32,2002.03.12(平成14.03.12),2002.02.14(平成14.02.14),,20020214,,国土の歴史的景観に寄与しているもの,,大阪府,大阪府堺市中区陶器北1404,,,,,34.51485000000000,135.52230000000000,屋敷正面やや西寄りに建つ。平屋建，入母屋造，本瓦葺で，正面を黒漆喰塗，他を白漆喰塗とし，腰を竪板張とする。ほぼ中央に門を開き，その東西を現在は納屋とする。桁行きに長く表側に横連子窓を並べた長屋門形式で，屋敷の正面構えの中心となる建物である。,https://bunka.nii.ac.jp/heritage/43967/_103643/43967_103643111225013123646_300.jpg
101,00002654,兒山家住宅隠居所,こやまけじゅうたくいんきょじょ,1棟,,登録有形文化財(建造物),住宅,建築物,,江戸,江戸後期,1751-1829,木造平屋建、瓦葺、建築面積73㎡,,27 － 0175,32,2002.03.12(平成14.03.12),2002.02.14(平成14.02.14),,20020214,,国土の歴史的景観に寄与しているもの,,大阪府,大阪府堺市中区陶器北1404,,,,,34.51499000000000,135.52220000000000,主屋の西，屋敷西側の通りに面して建つ。平屋建，南妻入母屋造，北妻切妻造(庇付)，本瓦葺で，中央に通用門を開き，その北を隠居所，南を馬小屋としていた。簡素な造りだが，隠居所表側に出格子窓を設けて長屋門風とするなど，屋敷の西面にあって目立つ施設。,https://bunka.nii.ac.jp/heritage/43967/_103644/43967_103644111225013123912_300.jpg
101,00002655,兒山家住宅土塀,こやまけじゅうたくどべい,1棟,,登録有形文化財(建造物),住宅,その他工作,,江戸,江戸後期,1751-1829,木造、瓦葺、延長105m,,27 － 0176,32,2002.03.12(平成14.03.12),2002.02.14(平成14.02.14),,20020214,,国土の歴史的景観に寄与しているもの,,大阪府,大阪府堺市中区陶器北1404,,,,,34.51511000000000,135.52270000000000,屋敷東部の庭園の南・東・北及び内蔵・納屋間は内外とも塗り込めた土塀の形式で，屋敷南西隅，門長屋・隠居所間に矩折れに廻る塀は，柱・腕木・出桁を表し上半漆喰塗・下半竪板張とする。外面する隣接建物とともに，屋敷構えの構成要素として欠かせない施設。,https://bunka.nii.ac.jp/heritage/43967/_103645/43967_103645111225013124178_300.jpg
101,00002656,千里寺本堂,せんりじほんどう,1棟,,登録有形文化財(建造物),その他,建築物,,昭和前,昭和3／昭和7移築,1928／1932移築,木造平屋建、瓦葺、建築面積502㎡,,27 － 0177,32,2002.03.12(平成14.03.12),2002.02.14(平成14.02.14),,20020214,,造形の規範となっているもの,,大阪府,大阪府吹田市千里山西1-37-42,,宗教法人千里寺,,,34.77736000000000,135.50500000000000,昭和天皇即位大礼の饗宴場の一部を転用したもの。桁行約３０ｍ，梁間約１７ｍ，入母屋造，本瓦葺，妻入で，東正面に４間の向拝を付す。移築・転用で改造も多いが，角柱を長押で固めた軸部，内部の二重折上格天井，照明器具等，近代宮殿建築の姿を良く留める。,https://bunka.nii.ac.jp/heritage/43967/_103646/43967_103646111225013124493_300.jpg
101,00002798,伏見ビル,ふしみびる,1棟,,登録有形文化財(建造物),産業3次,建築物,,大正,大正13頃,1924頃,鉄筋コンクリート造3階一部4階建、建築面積198㎡,,27 － 0178,33,2002.07.16(平成14.07.16),2002.06.25(平成14.06.25),,20020625,,造形の規範となっているもの,,大阪府,大阪府大阪市中央区伏見町2-21-1,,,,,34.68898000000000,135.50570000000000,大阪船場の中心部にある鉄筋コンクリート造３階建のビル。設計は辰野片岡事務所出身の長田岩次郎。角地に建ち，外観はコーナーを隅丸とし，３階の窓上に飾り丸窓，交差点に面する北西隅の２，３階に水平リブ状の飾り線を付けるなど変化に富んだ外観を見せる。,https://bunka.nii.ac.jp/heritage/43967/_103788/43967_103788111225013253671_300.jpg
101,00002799,大光寺太子館,だいこうじたいしかん,1棟,,登録有形文化財(建造物),宗教,建築物,,昭和前,昭和11,1936,木造2階建、瓦葺、建築面積83㎡,,27 － 0179,33,2002.07.16(平成14.07.16),2002.06.25(平成14.06.25),,20020625,,造形の規範となっているもの,,大阪府,大阪府吹田市岸部中5-10-10,,宗教法人大光寺,,,34.78051000000000,135.53910000000000,真宗寺院にある聖徳太子を祀る木造２階建の仏堂。地元の工匠の手になると考えられるが，１階を大壁で縦長窓の洋風意匠，２階を真壁で柱頭に舟肘木を置き軒を反らせる和風意匠とする新機軸で，洋風意匠の在郷への浸透を物語る。,https://bunka.nii.ac.jp/heritage/43967/_103789/43967_103789111225013253933_300.jpg
101,00002800,山田家住宅主屋,やまだけじゅうたくしゅおく,1棟,,登録有形文化財(建造物),住宅,建築物,,江戸,文久3,1863,木造平屋一部2階建、瓦葺、建築面積119㎡、南面土庇及び塀付,,27 － 0180,33,2002.07.16(平成14.07.16),2002.06.25(平成14.06.25),,20020625,,造形の規範となっているもの,,大阪府,大阪府泉南市新家3148-1,,,,,34.37310000000000,135.29620000000000,山田家は小栗街道(熊野古道)近くの新家中村集落にあって，代々庄屋を勤めた豪農である。本瓦葺，２階建の主屋は文久３年の再建であるが，２階に前身主屋のものと見られる古材を残し，間取りも主体部は喰違い３間取系の古式な形式を残す点に特徴がある。,https://bunka.nii.ac.jp/heritage/43967/_103790/43967_103790160125160233602_300.jpg
101,00002801,山田家住宅玄関棟,やまだけじゅうたくげんかんとう,1棟,,登録有形文化財(建造物),住宅,建築物,,江戸,文久3頃,1863頃,木造平屋建、瓦葺、建築面積45㎡,,27 － 0181,33,2002.07.16(平成14.07.16),2002.06.25(平成14.06.25),,20020625,,国土の歴史的景観に寄与しているもの,,大阪府,大阪府泉南市新家3148-1,,,,,34.37305000000000,135.29610000000000,主屋下手西側に接続し，主屋上手西側にある角座敷に至る正式な入口。式台付きの玄関と主屋接続部にある小玄関からなり，玄関背後に４畳半の茶室を設ける。南側正面に入母屋の破風を突き出し，庄屋の格式をあらわす。,https://bunka.nii.ac.jp/heritage/43967/_103791/43967_103791160125160233937_300.jpg
101,00002802,山田家住宅台所棟,やまだけじゅうたくだいどころとう,1棟,,登録有形文化財(建造物),住宅,建築物,,江戸,江戸末期／大正10改築,1830-1867／1921改築,木造平屋建、瓦葺、建築面積90㎡,,27 － 0182,33,2002.07.16(平成14.07.16),2002.06.25(平成14.06.25),,20020625,,国土の歴史的景観に寄与しているもの,,大阪府,大阪府泉南市新家3148-1,,,,,34.37299000000000,135.29640000000000,主屋下手東側に接続する本瓦葺の炊事場。内部は土間床で井戸と竈があり，棟上には煙出しがある。現在のものは大正１０年に改築されたものであるが，台所廻りの設備が良く残り，上層農家の炊事場の様子を今に伝える。,https://bunka.nii.ac.jp/heritage/43967/_103792/43967_103792160125160234234_300.jpg
101,00002803,山田家住宅米蔵,やまだけじゅうたくこめぐら,1棟,,登録有形文化財(建造物),住宅,建築物,,江戸,嘉永7,1854,土蔵造平屋建、瓦葺、建築面積39㎡、西面及び北面土庇付,,27 － 0183,33,2002.07.16(平成14.07.16),2002.06.25(平成14.06.25),,20020625,,国土の歴史的景観に寄与しているもの,,大阪府,大阪府泉南市新家3148-1,,,,,34.37282000000000,135.29630000000000,桁行９．８ｍ，梁間３．９ｍ，切妻造，平屋建，本瓦葺の土蔵で，西正面に腕木庇，北面に土庇を設ける。内部は３室に分かれ，それぞれの部屋に正面からの戸を開く。主屋前庭東側の敷地外からアクセスしやすい場所にあり，年貢の米を収納したことが窺われる。,https://bunka.nii.ac.jp/heritage/43967/_103793/43967_103793160125160234983_300.jpg
101,00002804,山田家住宅土蔵,やまだけじゅうたくどぞう,1棟,,登録有形文化財(建造物),住宅,建築物,,江戸,寛政6,1794,土蔵造2階建、瓦葺、建築面積27㎡、東面庇付,,27 － 0184,33,2002.07.16(平成14.07.16),2002.06.25(平成14.06.25),,20020625,,国土の歴史的景観に寄与しているもの,,大阪府,大阪府泉南市新家3148-1,,,,,34.37329000000000,135.29620000000000,桁行５．９ｍ，梁間４．６ｍ規模，２階建，本瓦葺の平入土蔵で，東正面中央に庇を持ち，屋根は置屋根形式である。米蔵と対照的に主屋北側の奥まった位置にあり，内向きの家財などを納めたと見られる。山田家の建物の中ではもっとも建築年代が古い。,https://bunka.nii.ac.jp/heritage/43967/_103794/43967_103794160125160235139_300.jpg
101,00002805,山田家住宅表門,やまだけじゅうたくおもてもん,1棟,,登録有形文化財(建造物),住宅,その他工作物,,江戸,江戸末期,1830-1867,木造、瓦葺、間口5m,,27 － 0185,33,2002.07.16(平成14.07.16),2002.06.25(平成14.06.25),,20020625,,国土の歴史的景観に寄与しているもの,,大阪府,大阪府泉南市新家3148-1,,,,,34.37269000000000,135.29620000000000,山田家は南側の前面道路から主屋前庭に至るまで２つの門をくぐる厳重な配置を採る。表門はこのうち敷地外に直接開く桁行１０ｍ，梁間３ｍ規模，切妻造，本瓦葺の長屋門。門部分は東端に取り，部屋部分には外面の各柱間に与力窓を付ける。,https://bunka.nii.ac.jp/heritage/43967/_103795/43967_103795160125160235451_300.jpg
101,00002806,山田家住宅長屋門,,1棟,,登録有形文化財(建造物),住宅,建築物,,江戸,江戸末期,1830-1867,木造平屋建、瓦葺、建築面積148㎡,,27 － 0186,33,2002.07.16(平成14.07.16),2002.06.25(平成14.06.25),,20020625,,国土の歴史的景観に寄与しているもの,,大阪府,大阪府泉南市新家3148-1,,,,,34.37280000000000,135.29610000000000,山田家住宅の２つの門のうち内側の門で表門とともに２重の構えをなす。敷地幅ほぼ一杯の間口約３０ｍに達する切妻造，本瓦葺の長屋門で，門部分は表門に対応して東寄りに開ける。長大な屋根が庄屋の屋敷の景観を特徴づける。,https://bunka.nii.ac.jp/heritage/43967/_103796/43967_103796160125160235620_300.jpg
101,00002807,山田家住宅土塀,やまだけじゅうたくどべい,1棟,,登録有形文化財(建造物),住宅,その他工作物,,江戸,江戸末期,1830-1867,土塀、瓦葺、総延長82m,,27 － 0187,33,2002.07.16(平成14.07.16),2002.06.25(平成14.06.25),,20020625,,国土の歴史的景観に寄与しているもの,,大阪府,大阪府泉南市新家3148-1,,,,,34.37332000000000,135.29630000000000,敷地南側の表門両側，敷地北側，及び主屋北側の土蔵から矩の手に西側に延びる位置にある４個所のそれぞれ版築造，本瓦葺の土塀。敷地北側の土塀には中央の門が含まれる。強固な構造で，道なりの高低差を石積で処理し，屋敷の外構をよく整えている。,https://bunka.nii.ac.jp/heritage/43967/_103797/43967_103797160125160235934_300.jpg
101,00002950,清学院不動堂,せいがくいんふどうどう,1棟,,登録有形文化財(建造物),宗教,建築物,,江戸,江戸末期,1830-1867,木造平屋建、瓦葺、建築面積24㎡,,27 － 0188,34,2002.09.03(平成14.09.03),2002.08.21(平成14.08.21),,20020821,,再現することが容易でないもの,,大阪府,大阪府堺市堺区北旅龍町西1丁3-13,,亀井靖夫,,,34.59118000000000,135.48270000000000,桁行・梁間とも２間半の小仏堂で，通りに西面して建つ。切妻造・本瓦葺，平入，軸部は角柱とし，内部は８畳間で後方半間に通仏壇を構え，中央に軒唐破風付きの宮殿形厨子を置く。虹梁や木鼻の細部様式から江戸末期と考えられる。類例の少ない修験道場の建築。,https://bunka.nii.ac.jp/heritage/43967/_103940/43967_103940111225013420583_300.jpg
101,00002951,清学院庫裏,せいがくいんくり,1棟,,登録有形文化財(建造物),宗教,建築物,,江戸,江戸末期,1830-1867,木造平屋建、瓦葺、建築面積75㎡,,27 － 0189,34,2002.09.03(平成14.09.03),2002.08.21(平成14.08.21),,20020821,,再現することが容易でないもの,,大阪府,大阪府堺市堺区北旅龍町西1丁3-13,,堺市,,,34.59111000000000,135.48280000000000,不動堂の南面と東面に接続した鍵形平面の住居建築で，不動堂側面にあたる南面に式台玄関を設け，奥に八畳間２室を配し，玄関南側を土間とする。切妻造で，不動堂南面から延びた部分は，つし２階で虫籠窓を設けた町家の外観とし，市街地の寺院の特色が伺える。,https://bunka.nii.ac.jp/heritage/43967/_103941/43967_103941111225013421110_300.jpg
101,00002952,清学院門,せいがくいんもん,1棟,,登録有形文化財(建造物),宗教,その他工作,,江戸,江戸末期,1830-1867,木造、瓦葺、間口1.7m、左右塀付,,27 － 0190,34,2002.09.03(平成14.09.03),2002.08.21(平成14.08.21),,20020821,,造形の規範となっているもの,,大阪府,大阪府堺市堺区北旅龍町西1丁3-13,,亀井靖夫,,,34.59113000000000,135.48270000000000,元禄２年（１６８９）の堺大絵図に「山伏清学院」とあり，江戸時代を通じての修験道場で，建物は江戸末期のものと考えられる。門は１間１戸の薬医門で，垂木に反りがある軽快な意匠とする。庫裏玄関前の前庭を囲うように建ち，市街地の街路景観を整えている。,https://bunka.nii.ac.jp/heritage/43967/_103942/43967_103942111225013423141_300.jpg
101,00002953,和田家住宅主屋,わだけじゅうたくしゅおく,1棟,,登録有形文化財(建造物),住宅,建築物,,昭和前,昭和5,1930,木造2階建、瓦葺一部銅板葺、建築面積390㎡,,27 － 0191,34,2002.09.03(平成14.09.03),2002.08.21(平成14.08.21),,20020821,,再現することが容易でないもの,,大阪府,大阪府岸和田市宮本町29-4,,,,,34.46104000000000,135.37430000000000,南西を正面とする総２階建，入母屋造，本瓦葺の豪壮な建物。Ｌ字形平面で，突出部は重厚な漆喰塗とし，入母屋造の玄関を設ける。良材をふんだんに用い，趣向を凝らした洋室，洗練された座敷飾を備えた客間，吹き抜けの内玄関など，昭和初期の和風住宅の優作。,https://bunka.nii.ac.jp/heritage/43967/_103943/43967_103943111225013423407_300.jpg
101,00002954,和田家住宅内蔵,わだけじゅうたくうちぐら,1棟,,登録有形文化財(建造物),住宅,建築物,,昭和前,昭和5,1930,土蔵造2階建、瓦葺、建築面積22㎡,,27 － 0192,34,2002.09.03(平成14.09.03),2002.08.21(平成14.08.21),,20020821,,造形の規範となっているもの,,大阪府,大阪府岸和田市宮本町29-4,,,,,34.46109000000000,135.37440000000000,主屋背面に平行して建つ。木造，２階建，平入で，屋根は切妻造，本瓦葺，外壁は漆喰塗とし，背面と側面の腰を縦板で覆う。主屋側１階に戸口，２階両妻に窓をそれぞれ設ける。窓庇の持送り板の繰形，妻面まで廻した軒蛇腹など，丁寧なつくりの土蔵。,https://bunka.nii.ac.jp/heritage/43967/_103944/43967_103944111225013424210_300.jpg
101,00002955,和田家住宅外蔵,わだけじゅうたくそとぐら,1棟,,登録有形文化財(建造物),住宅,建築物,,昭和前,昭和5,1930,土蔵造2階建、瓦葺、建築面積115㎡,,27 － 0193,34,2002.09.03(平成14.09.03),2002.08.21(平成14.08.21),,20020821,,造形の規範となっているもの,,大阪府,大阪府岸和田市宮本町29-4,,,,,34.46085000000000,135.37420000000000,屋敷地の北隅に独立してあり，家具や建具等を収納した。木造，２階建，平入で，屋根は切妻造，本瓦葺，荒塗の外壁は背面と両側面の腰を縦板で覆う。主屋側に戸口３カ所を設け，戸前庇を架ける。１階は３室に仕切るが，２階は１室とした土蔵。,https://bunka.nii.ac.jp/heritage/43967/_103945/43967_103945111225013424484_300.jpg
101,00002956,和田家住宅離れ,わだけじゅうたくはなれ,1棟,,登録有形文化財(建造物),住宅,建築物,,大正,大正期／昭和5移築,1912-1925／1930移築,木造平屋建、瓦葺、建築面積31㎡,,27 － 0194,34,2002.09.03(平成14.09.03),2002.08.21(平成14.08.21),,20020821,,造形の規範となっているもの,,大阪府,大阪府岸和田市宮本町29-4,,,,,34.46119000000000,135.37430000000000,主屋の西方に独立して建つ。入母屋造，桟瓦葺で，内部は各８畳の座敷と次の間及び台所からなる。高欄付の縁を２面に廻し，また段差のある地形を懸造風に処理している。床・棚・付書院は派手さを押さえた上質なつくりになり，全体に繊細な比例の書院造である。,https://bunka.nii.ac.jp/heritage/43967/_103946/43967_103946111225013425015_300.jpg
101,00002957,和田家住宅長屋門,わだけじゅうたくながやもん,1棟,,登録有形文化財(建造物),住宅,建築物,,昭和前,昭和5,1930,木造平屋建、瓦葺、建築面積36㎡,,27 － 0195,34,2002.09.03(平成14.09.03),2002.08.21(平成14.08.21),,20020821,,国土の歴史的景観に寄与しているもの,,大阪府,大阪府岸和田市宮本町29-4,,,,,34.46096000000000,135.37440000000000,主屋の玄関正面，屋敷の南隅に建つ。重厚な入母屋造，本瓦葺で，通例の形式を簡略して正面右半分に門口を設け，左半分は床張の伴部屋とする。真壁造で，腰を簓子下見板張，壁中央に出格子窓を付け，門口には欅を多用する。大邸宅の正面景観を形成している。,https://bunka.nii.ac.jp/heritage/43967/_103947/43967_103947111225013425552_300.jpg
101,00002958,和田家住宅待合,わだけじゅうたくまちあい,1棟,,登録有形文化財(建造物),住宅,その他工作,,昭和前,昭和5,1930,木造平屋建、瓦葺、建築面積3㎡,,27 － 0196,34,2002.09.03(平成14.09.03),2002.08.21(平成14.08.21),,20020821,,造形の規範となっているもの,,大阪府,大阪府岸和田市宮本町29-4,,,,,34.46100000000000,135.37450000000000,主屋の東側にあり，屋敷の東辺に設けられた勝手口門に接して建っている。桁行２間程度の大きさになり，切妻造，本瓦葺で北面側を開放とする。荒壁風で，腰掛を設け，主屋側には下地窓をつくる。大邸宅の生活の様相を示す施設で，茶室待合と同様の意匠をもつ。,https://bunka.nii.ac.jp/heritage/43967/_103948/43967_103948111225013426617_300.jpg
101,00002959,和田家住宅内塀,わだけじゅうたくうちべい,1棟,,登録有形文化財(建造物),住宅,その他工作,,昭和前,昭和5,1930,土塀、瓦葺、延長21m、門付,,27 － 0197,34,2002.09.03(平成14.09.03),2002.08.21(平成14.08.21),,20020821,,国土の歴史的景観に寄与しているもの,,大阪府,大阪府岸和田市宮本町29-4,,,,,34.46095000000000,135.37420000000000,Ｌ字形平面で玄関のある主屋突出部から，屋敷正面の外塀まで延びる延長約２５ｍの内塀。主屋側に１間棟門をつくり，他は真壁造で壁上部に横長窓を開ける。主屋前面の庭園空間と玄関前のアプローチ空間を適切に分節しており，大邸宅に欠かせない附属施設。,https://bunka.nii.ac.jp/heritage/43967/_103949/43967_103949111225013427134_300.jpg
101,00002960,和田家住宅外塀,わだけじゅうたくそとべい,1基,,登録有形文化財(建造物),住宅,その他工作,,昭和前,昭和5,1930,煉瓦造、瓦葺、延長45m,,27 － 0198,34,2002.09.03(平成14.09.03),2002.08.21(平成14.08.21),,20020821,,国土の歴史的景観に寄与しているもの,,大阪府,大阪府岸和田市宮本町29-4,,,,,34.46106000000000,135.37400000000000,主屋の正面，屋敷南辺を区切る延長約４６ｍの塀。屋敷南には小城川（現在は暗渠）が流れ，高い谷積の石垣を築いた上に，煉瓦造・モルタル塗でつくり，桟瓦の屋根を架ける。屋敷の外構をかたちづくるとともに，川沿いであったかつての景観を今に伝えている。,https://bunka.nii.ac.jp/heritage/43967/_103950/43967_103950111225013427668_300.jpg
101,00002961,和田家住宅東塀,わだけじゅうたくひがしべい,1基,,登録有形文化財(建造物),住宅,その他工作,,昭和前,昭和5,1930,土塀、瓦葺、延長25m,,27 － 0199,34,2002.09.03(平成14.09.03),2002.08.21(平成14.08.21),,20020821,,国土の歴史的景観に寄与しているもの,,大阪府,大阪府岸和田市宮本町29-4,,,,,34.46085000000000,135.37430000000000,屋敷の東辺を区切る延長約２５ｍの塀。南は長屋門東妻に接し，緩やかな起伏があるので中途で段違いとし，北端で勝手口門の脇塀に接する。布積の石垣を築いた上に，土塀をつくり，本瓦の屋根を架ける。高低差を巧みに処理し，屋敷の外構をかたちづくる。,https://bunka.nii.ac.jp/heritage/43967/_103951/43967_103951111225013427944_300.jpg
101,00002962,和田家住宅勝手口門,わだけじゅうたくかってぐちもん,1棟,,登録有形文化財(建造物),住宅,その他工作,,昭和前,昭和5,1930,木造、瓦葺、間口1.8m、両側板塀7m付,,27 － 0200,34,2002.09.03(平成14.09.03),2002.08.21(平成14.08.21),,20020821,,造形の規範となっているもの,,大阪府,大阪府岸和田市宮本町29-4,,,,,34.46096000000000,135.37440000000000,屋敷東辺を区切る東塀の北端にあり，主屋の台所側に通じる門。形式は１間棟門で，切妻造・本瓦葺屋根を架け，左右に折曲がりで本瓦葺の袖塀が附属する。屋根には起りがあり，袖塀は腰を縦板で覆うなど，屋敷の脇門ながら数寄屋風の瀟洒な造形である。,https://bunka.nii.ac.jp/heritage/43967/_103952/43967_103952111225013428477_300.jpg
101,00002963,大道旧山本家住宅主屋,だいどうきゅうやまもとけじゅうたくしゅおく,1棟,,登録有形文化財(建造物),住宅,建築物,,江戸,江戸末期,1830-1867,木造平屋建、茅葺一部瓦葺、建築面積135㎡,,27 － 0201,34,2002.09.03(平成14.09.03),2002.08.21(平成14.08.21),,20020821,,国土の歴史的景観に寄与しているもの,,大阪府,大阪府南河内郡太子町山田1797,,太子町,,,34.51652000000000,135.65520000000000,堺と大和を結ぶ竹内街道に面して屋敷を構える旧家。主屋は桁行７間梁間５間で北西を正面とし，差鴨居を用いた構造手法などから江戸末期の建築と推定される。切妻造で中央茅葺，両側を本瓦葺としたいわゆる大和棟で，旧街道に相応しい景観を構成している。,https://bunka.nii.ac.jp/heritage/43967/_103953/43967_103953111225013428743_300.jpg
101,00002964,大道旧山本家住宅離れ,だいどうきゅうやまもとけじゅうたくはなれ,1棟,,登録有形文化財(建造物),住宅,建築物,,大正,大正1,1912,木造平屋建、瓦葺、建築面積52㎡、渡廊下付,,27 － 0202,34,2002.09.03(平成14.09.03),2002.08.21(平成14.08.21),,20020821,,造形の規範となっているもの,,大阪府,大阪府南河内郡太子町山田1797,,太子町,,,34.51658000000000,135.65500000000000,堺と大和を結ぶ竹内街道に面して屋敷を構える旧家。離れは主屋前方にあって，渡り廊下で結ばれ，棟札より大正元年の建立と判明する。入母屋造，四周庇付の桟瓦葺で，８畳の座敷には床・棚・付書院を備えており，規模は小さいが丁寧なつくりの書院造である。,https://bunka.nii.ac.jp/heritage/43967/_103954/43967_103954111225013430073_300.jpg
101,00003114,源正寺楼門,げんしょうじろうもん,1棟,,登録有形文化財(建造物),宗教,建築物,,明治,明治22／大正12移築,1889／1923移築,木造楼門、瓦葺、建築面積13㎡,,27 － 0203,35,2003.02.26(平成15.02.26),2003.01.31(平成15.01.31),,20030131,,国土の歴史的景観に寄与しているもの,,大阪府,大阪府大阪市阿倍野区阿倍野元町18-34,,宗教法人源正寺,,,34.62909000000000,135.50690000000000,知恩院末で，鉄道敷設等により中央区上本町より現地に移築。初重袴腰を塗込める竜宮造の楼門で，上層は出組，二軒繁垂木，入母屋造，本瓦葺とする。蟇股や肘木の形式・絵様に近代らしい意匠が充溢するとともに，旧熊野街道に面し竜宮門として親しまれている。,https://bunka.nii.ac.jp/heritage/43967/_104104/43967_104104140626215940788_300.jpg
101,00003115,堺市茶室黄梅庵,さかいしちゃしつこうばいあん,1棟,,登録有形文化財(建造物),住宅,建築物,,江戸,江戸中期／昭和23・55移築,1661-1750／1948・1980移築,木造平屋建、銅板葺、建築面積80㎡,,27 － 0204,35,2003.02.26(平成15.02.26),2003.01.31(平成15.01.31),,20030131,,造形の規範となっているもの,,大阪府,大阪府堺市堺区百舌鳥夕雲町2丁大仙公園内,,堺市,,,34.55956000000000,135.48420000000000,橿原市今井町の豊田家から小田原の松永耳庵邸に移され，再度現在地に移築保存された。８畳の広間に３畳下座床の茶室が接続し，裏側に勝手・水屋等が付属する。広間・茶室とも正当な草庵の意匠・技法を踏襲しつつ，平面構成や細部に独特の創意と造形をみせる。,https://bunka.nii.ac.jp/heritage/43967/_104105/43967_104105111225013604041_300.jpg
101,00003116,堺市茶室伸庵,さかいしちゃしつしんあん,1棟,,登録有形文化財(建造物),住宅,建築物,,昭和前,昭和4／昭和55移築,1929／1980移築,木造2階建、瓦葺、建築面積288㎡,,27 － 0205,35,2003.02.26(平成15.02.26),2003.01.31(平成15.01.31),,20030131,,造形の規範となっているもの,,大阪府,大阪府堺市堺区百舌鳥夕雲町2丁大仙公園内,,堺市,,,34.55972000000000,135.48410000000000,東京芝にあった仰木魯堂設計になる建築。玄関棟，広間・茶室棟，２階建座敷棟が中央の中庭を囲んで建ち並ぶ。面皮材，丸太材，栂角材等多様な材を用い，柱間も田舎間，中京間，京間を使い分けるなど，古典的手法に依りながら随所に近代らしい特徴がみられる。,https://bunka.nii.ac.jp/heritage/43967/_104106/43967_104106111225013604598_300.jpg
101,00003117,山野家住宅主屋,やまのけじゅうたくしゅおく,1棟,,登録有形文化財(建造物),住宅,建築物,,江戸,江戸末期／大正末期移築,1830-1867／1912-1925移築,木造平屋建、瓦葺、建築面積366㎡,,27 － 0206,35,2003.02.26(平成15.02.26),2003.01.31(平成15.01.31),,20030131,,国土の歴史的景観に寄与しているもの,,大阪府,大阪府交野市私部7-11-2,,,,,34.78878000000000,135.68430000000000,造り酒屋の住宅の主屋で敷地中央西寄りに建つ。寝屋川市にあった江戸末期の民家が移築されたもので，一部改造があるものの土間，６間取りの居室部，これに続く落屋根の座敷部全体が旧状を良く残す。大規模で重厚な造りになり，屋敷構えの中心を構成する建物。,https://bunka.nii.ac.jp/heritage/43967/_104107/43967_104107325483601693175_300.jpg
101,00003118,山野家住宅長屋門,やまのけじゅうたくながやもん,1棟,,登録有形文化財(建造物),住宅,建築物,,明治,明治期／昭和初期移築,1868-1911／1926-1988移築,木造平屋建、瓦葺、建築面積123㎡,,27 － 0207,35,2003.02.26(平成15.02.26),2003.01.31(平成15.01.31),,20030131,,国土の歴史的景観に寄与しているもの,,大阪府,大阪府交野市私部7-11-2,,,,,34.78857000000000,135.68430000000000,敷地南西部に南面して建つ。入母屋造，桟瓦葺，桁行１８間の長大な建物で，正面側の軒を出桁造とし，垂木とともに漆喰で塗り込める。堅牢で上質な造りであるとともに，表には高く下見板を張り，２箇所の出格子窓，虫籠窓などが配され変化に富んだ外観を造る。,https://bunka.nii.ac.jp/heritage/43967/_104108/43967_104108111225013606428_300.jpg
101,00003119,山野家住宅酒蔵一,やまのけじゅうたくさかぐらいち,1棟,,登録有形文化財(建造物),産業2次,建築物,,明治,明治期,1868-1911,土蔵造2階建、瓦葺、建築面積194㎡,,27 － 0208,35,2003.02.26(平成15.02.26),2003.01.31(平成15.01.31),,20030131,,国土の歴史的景観に寄与しているもの,,大阪府,大阪府交野市私部7-11-2,,,,,34.78905000000000,135.68420000000000,主屋の背後に並ぶ酒造用の蔵の１つで屋敷北西隅に建つ。土蔵造，２階建，切妻造，桟瓦葺で，外部は漆喰塗とし高く腰板を張る。建築年代が最も遡る蔵で，小屋組は和小屋を組む。すぐ南の酒蔵，主屋北の住宅蔵とともに大小の妻面を通りに見せ独特の景観を造る。,https://bunka.nii.ac.jp/heritage/43967/_104109/43967_104109111225013606951_300.jpg
101,00003120,山野家住宅酒蔵四,やまのけじゅうたくさかぐらよん,1棟,,登録有形文化財(建造物),産業2次,建築物,,昭和前,昭和初期,1926-1988,土蔵造2階建、瓦葺、建築面積128㎡,,27 － 0209,35,2003.02.26(平成15.02.26),2003.01.31(平成15.01.31),,20030131,,国土の歴史的景観に寄与しているもの,,大阪府,大阪府交野市私部7-11-2,,,,,34.78891000000000,135.68420000000000,北西隅の酒蔵一の南に接して建つ。２階建，切妻造，桟瓦葺で，梁間に比して桁行に長い平面を持つ。麹をつくるための施設で，東妻に出入口，小窓を開ける以外は開口部を設けず，内部は全面板張りとする。酒蔵一，南の住宅蔵と並び屋敷北西部の構えを構成する。,https://bunka.nii.ac.jp/heritage/43967/_104110/43967_104110111225013607213_300.jpg
101,00003121,山野家住宅蔵,やまのけじゅうたくくら,1棟,,登録有形文化財(建造物),住宅,建築物,,大正,大正期,1912-1925,土蔵造2階建、瓦葺、建築面積39㎡,,27 － 0210,35,2003.02.26(平成15.02.26),2003.01.31(平成15.01.31),,20030131,,国土の歴史的景観に寄与しているもの,,大阪府,大阪府交野市私部7-11-2,,,,,34.78889000000000,135.68410000000000,主屋奥座敷裏の縁に接続する蔵。土蔵造，３階建，切妻造で，本瓦葺の置屋根とする。什物を保管する道具蔵として主屋移築時に新築されたといい，外部は漆喰で塗り込め堅牢な造りとする。酒蔵一，四と並んで通り側の特徴ある屋敷構えに欠くことのできない建物。,https://bunka.nii.ac.jp/heritage/43967/_104111/43967_104111111225013607478_300.jpg
101,00003122,山野家住宅土塀,やまのけじゅうたくどべい,1棟,,登録有形文化財(建造物),住宅,その他工作,,大正,大正期,1912-1925,土塀、瓦葺、延長47m,,27 － 0211,35,2003.02.26(平成15.02.26),2003.01.31(平成15.01.31),,20030131,,国土の歴史的景観に寄与しているもの,,大阪府,大阪府交野市私部7-11-2,,,,,34.78865000000000,135.68400000000000,長屋門西脇から住宅蔵の南に至る敷地境界を折れ曲がりに仕切る。側溝際の切石積基壇上に築かれた土塀で，頂部に蛇腹を回し本瓦葺の屋根をかける。基礎石を置き，北端部も蛇腹を回し込むなど全体に丁寧な仕事になり，中塗仕上げにより独特の風致を造っている。,https://bunka.nii.ac.jp/heritage/43967/_104112/43967_104112111225013608004_300.jpg
101,00003123,天野川砂防堰堤,あまのがわさぼうえんてい,1基,,登録有形文化財(建造物),治山治水,土木構造物,,明治,明治30頃,1897頃,石造堰堤、堤長7.1m、堤高1.7m、堰堤左右護岸及び上流側左護岸付,,27 － 0212,35,2003.02.26(平成15.02.26),2003.01.31(平成15.01.31),,20030131,,国土の歴史的景観に寄与しているもの,,大阪府,大阪府交野市私市・私市9丁目,,大阪府,,,34.76543000000000,135.68390000000000,淀川水系天野川に建設された砂防堰堤。川の狭窄部を利用して築かれた間知石谷積の石造建造物。下流側に向けて７．１ｍから９．６ｍに広がる水通し部が法勾配３割５分で築かれる。緩やかに落ちる白濁流と広い石積堤体がなす景観が，市民に広く親しまれている。,https://bunka.nii.ac.jp/heritage/43967/_104113/43967_104113111225013609291_300.jpg
101,00003124,尺治川砂防堰堤,しゃくじがわさぼうえんてい,1基,,登録有形文化財(建造物),治山治水,土木構造物,,明治,明治後期,1868-1911,石造堰堤、堤長9.2m、堤高2.2m、下流側左右護岸付,,27 － 0213,35,2003.02.26(平成15.02.26),2003.01.31(平成15.01.31),,20030131,,再現することが容易でないもの,,大阪府,大阪府交野市私市7丁目・9丁目,,大阪府,,,34.76599000000000,135.68330000000000,天野川右支尺治川が天野川と合流する地点にある。堤長９．２ｍ，堤高２．２ｍの規模を有し石１つ分の水通高をつけた堤体を布積で築く。下流側に約１９ｍ長の石張水叩部と両側護岸を設けコ字形平面とし，壁面全体に約１ｍ高の段をつける特異な構造形式を有す。,https://bunka.nii.ac.jp/heritage/43967/_104114/43967_104114111225013610210_300.jpg
101,00003125,尺治川床固工,しゃくじがわとこがためこう,1基,,登録有形文化財(建造物),治山治水,土木構造物,,明治,明治後期,1868-1911,石造堰堤、堤長9.5m、堤高1.8m,,27 － 0214,35,2003.02.26(平成15.02.26),2003.01.31(平成15.01.31),,20030131,,再現することが容易でないもの,,大阪府,大阪府交野市私市8丁目・9丁目,,大阪府,,,34.76552000000000,135.68800000000000,尺治川砂防堰堤の上流側約４００ｍ地点の急傾斜地の谷筋に位置する。幅９．５ｍの上流部水通し部から下流部まで凹型曲面状の縦断面を有し，側壁を含めた横断面も凹曲面状に築く。地形に合わせ，多様な構造形式が駆使された天野川砂防施設の好例。,https://bunka.nii.ac.jp/heritage/43967/_104115/43967_104115111225013611159_300.jpg
101,00003270,大阪ガスビルディング,おおさかがすびるでぃんぐ,1棟,,登録有形文化財(建造物),産業3次,建築物,,昭和前,昭和8,1933,鉄骨鉄筋コンクリート造地上8階地下2階建、建築面積2253㎡,,27 － 0215,36,2003.04.08(平成15.04.08),2003.03.18(平成15.03.18),,20030318,,造形の規範となっているもの,,大阪府,大阪府大阪市中央区平野町4-1、4-2-1、4-3-1,,株式会社アーバネックス,,,34.68795000000000,135.50000000000000,御堂筋に面して建つ本社社屋。設計は安井武雄，施工は大林組。ＳＲＣ造，地上８階地下２階建で，外壁は１・２階を石材で黒くまとめ，上部は白色のタイル張。水平垂直の要素を取り混ぜた外観や内部にも質の高い意匠を持つ，過渡期的近代建築の好例。,https://bunka.nii.ac.jp/heritage/43967/_104260/43967_104260111225013742535_300.jpg
101,00003271,並河家住宅主屋,なみかわけじゅうたくしゅおく,1棟,,登録有形文化財(建造物),住宅,建築物,,江戸,天保3,1832,木造平屋建、瓦葺、建築面積192㎡,,27 － 0216,36,2003.04.08(平成15.04.08),2003.03.18(平成15.03.18),,20030318,,国土の歴史的景観に寄与しているもの,,大阪府,大阪府貝塚市北町8-1,,,,,34.44873000000000,135.35830000000000,願泉寺住職で貝塚町を治めたト半家の重臣を勤めた家柄。主屋は切妻造本瓦葺で間口８間半の敷地幅一杯に建ち，街路に面する町家形式であるが，１階正面は比較的閉鎖的で，内部の店の間の上がり端に当たる場所に式台構を持つなど，商家の町家とは趣を異にする。,https://bunka.nii.ac.jp/heritage/43967/_104261/43967_104261111225013742801_300.jpg
101,00003272,並河家住宅土蔵,なみかわけじゅうたくどぞう,1棟,,登録有形文化財(建造物),住宅,建築物,,江戸,江戸後期,1751-1829,土蔵造2階建、瓦葺、建築面積21㎡,,27 － 0217,36,2003.04.08(平成15.04.08),2003.03.18(平成15.03.18),,20030318,,国土の歴史的景観に寄与しているもの,,大阪府,大阪府貝塚市北町8-1,,,,,34.44865000000000,135.35840000000000,並河家の敷地は願泉寺前面の街路に面し，間口８間半，奥行２１間の短冊形を呈する。土蔵は敷地のほぼ中央，主屋の背後にあり，敷地の間口方向に棟を置く切妻造本瓦葺，２階建てで，主屋側の西面に入り口を開く。敷地の構成要素として評価できる。,https://bunka.nii.ac.jp/heritage/43967/_104262/43967_104262111225013743323_300.jpg
101,00003273,山田家住宅主屋,やまだけじゅうたくしゅおく,1棟,,登録有形文化財(建造物),住宅,建築物,,江戸,江戸末期,1830-1867,木造平屋建、瓦葺、建築面積183㎡,,27 － 0218,36,2003.04.08(平成15.04.08),2003.03.18(平成15.03.18),,20030318,,国土の歴史的景観に寄与しているもの,,大阪府,大阪府貝塚市北町10-5,,,,,34.44931000000000,135.35810000000000,願泉寺北側の堀之町筋北側にある町家。主屋は間口８間奥行１２間の敷地一杯に建つ切妻造桟瓦葺（前面庇本瓦葺）で，２階壁面を銅板張とするが，以前は本瓦葺，漆喰塗りであった。玄関に摺上げ大戸を残し，建物全体も良好に維持されている。,https://bunka.nii.ac.jp/heritage/43967/_104263/43967_104263111225013743592_300.jpg
101,00003274,宇野家住宅主屋,うのけじゅうたくしゅおく,1棟,,登録有形文化財(建造物),住宅,建築物,,江戸,江戸末期,1830-1867,木造平屋建、瓦葺、建築面積374㎡、土塀付,,27 － 0219,36,2003.04.08(平成15.04.08),2003.03.18(平成15.03.18),,20030318,,国土の歴史的景観に寄与しているもの,,大阪府,大阪府貝塚市北町17-17,,,,,34.45077000000000,135.35790000000000,宇野家は江戸時代以来代々鋳物業を営んだ家柄である。紀州街道に面した広大な敷地の西北部に主屋他の居住部があり，他は鋳物工場を構える。主屋は安政の地震後に建築されたと伝える大規模な町家で，土間の豪壮な梁組や北側の座敷など内部も良く残る。,https://bunka.nii.ac.jp/heritage/43967/_104264/43967_104264111225013744137_300.jpg
101,00003275,宇野家住宅茶室,うのけじゅうたくちゃしつ,1棟,,登録有形文化財(建造物),住宅,建築物,,大正,大正期,1912-1925,木造平屋建、瓦葺、建築面積23㎡,,27 － 0220,36,2003.04.08(平成15.04.08),2003.03.18(平成15.03.18),,20030318,,国土の歴史的景観に寄与しているもの,,大阪府,大阪府貝塚市北町17-17,,,,,34.45078000000000,135.35820000000000,主屋東北の座敷に渡り廊下を介して接続する独立棟の茶室。住宅内にはこのほかに主屋北側の仏間北側に角屋で出る茶室がある。４畳半の茶室，水屋，勝手，待合，雪隠からなる。意匠も本格的で，良好な状態で維持されている。,https://bunka.nii.ac.jp/heritage/43967/_104265/43967_104265111225013745989_300.jpg
101,00003276,宇野家住宅東土蔵,うのけじゅうたくひがしどぞう,1棟,,登録有形文化財(建造物),住宅,建築物,,江戸,江戸末期,1830-1867,土蔵造2階建、瓦葺、建築面積26㎡,,27 － 0221,36,2003.04.08(平成15.04.08),2003.03.18(平成15.03.18),,20030318,,国土の歴史的景観に寄与しているもの,,大阪府,大阪府貝塚市北町17-17,,,,,34.45071000000000,135.35810000000000,主屋後方の庭内，南東隅にある２階建，本瓦葺の土蔵。宇野家は願泉寺の狂言方に属し，薪能に使用する狂言衣装をこの蔵に預かっていた。２間に３間の標準規模で，小屋は地棟に登梁を両側から掛け渡す形式。主屋と同時期頃のものと思われる。,https://bunka.nii.ac.jp/heritage/43967/_104266/43967_104266111225013746256_300.jpg
101,00003277,宇野家住宅西土蔵,うのけじゅうたくにしどぞう,1棟,,登録有形文化財(建造物),住宅,建築物,,明治,明治期,1868-1911,土蔵造2階建、瓦葺、建築面積30㎡,,27 － 0222,36,2003.04.08(平成15.04.08),2003.03.18(平成15.03.18),,20030318,,国土の歴史的景観に寄与しているもの,,大阪府,大阪府貝塚市北町17-17,,,,,34.45091000000000,135.35800000000000,主屋から北側の前庭を隔てた敷地西北隅にある２階建，本瓦葺の土蔵。自家の衣装等を収めた衣装蔵である。東土蔵に比べると材料の様子が新しい。構造は桁行の地棟がなく，梁間方向の側柱頂部を繋ぐ水平梁で棟木を支える方式で東土蔵とは相違がある。,https://bunka.nii.ac.jp/heritage/43967/_104267/43967_104267111225013746526_300.jpg
101,00003279,宇野家住宅高塀,うのけじゅうたくたかべい,1棟,,登録有形文化財(建造物),住宅,その他工作,,明治,明治期,1868-1911,木造、瓦葺、延長7.3m,,27 － 0224,36,2003.04.08(平成15.04.08),2003.03.18(平成15.03.18),,20030318,,国土の歴史的景観に寄与しているもの,,大阪府,大阪府貝塚市北町17-17,,,,,34.45089000000000,135.35790000000000,敷地の西側正面にあって主屋と西土蔵を繋ぐ高塀。延長７．３ｍを６間に割り，腰下を竪板壁，腰上を土壁とし，桟瓦葺の屋根を上げる。北から３間目は腰板壁の取り外しが可能で，内側に片引戸があり，内部の庭園への入口となる。町家のファサードを整える要素。,https://bunka.nii.ac.jp/heritage/43967/_104269/43967_104269111225013747064_300.jpg
101,00003280,竹本家住宅西主屋,たけもとけじゅうたくにししゅおく,1棟,,登録有形文化財(建造物),住宅,建築物,,昭和前,昭和7頃,1932頃,木造2階建、瓦葺、建築面積161㎡,,27 － 0225,36,2003.04.08(平成15.04.08),2003.03.18(平成15.03.18),,20030318,,国土の歴史的景観に寄与しているもの,,大阪府,大阪府貝塚市北町18-1,,,,,34.44974000000000,135.35750000000000,堀之町筋北側にある町家で，昭和初期まで当地特産の黄楊櫛を製作していた。間口３間半で東側を通り土間とし，奥行きに３部屋を並べる伝統的な平面であるが，塗籠めた前面の建ちが高く総２階であるなど，新しい要素が見える。貝塚における近代町家の一例。,https://bunka.nii.ac.jp/heritage/43967/_104270/43967_104270111225013747340_300.jpg
101,00003281,竹本家住宅東主屋,たけもとけじゅうたくひがししゅおく,1棟,,登録有形文化財(建造物),住宅,建築物,,江戸,江戸末期,1830-1867,木造平屋建、瓦葺、建築面積49㎡,,27 － 0226,36,2003.04.08(平成15.04.08),2003.03.18(平成15.03.18),,20030318,,国土の歴史的景観に寄与しているもの,,大阪府,大阪府貝塚市北町18-1,,,,,34.44972000000000,135.35760000000000,西主屋東側に接して建つ桁行２間半の小規模な町家で，西主屋と続きで使われる。地盤は約６０センチ高いが，建物の建ちが低く，屋根は西主屋よりも低く納まる。２階中央に洋室を造るなど改造も多いが，なお小規模な江戸期の町家の様子を偲ぶことができる。,https://bunka.nii.ac.jp/heritage/43967/_104271/43967_104271111225013747866_300.jpg
101,00003282,利齋家住宅主屋,りさいけじゅうたくしゅおく,1棟,,登録有形文化財(建造物),産業3次,建築物,,江戸,江戸中期,1661-1750,木造平屋建、瓦葺、建築面積253㎡,,27 － 0227,36,2003.04.08(平成15.04.08),2003.03.18(平成15.03.18),,20030318,,国土の歴史的景観に寄与しているもの,,大阪府,大阪府貝塚市北町18-3,,,,,34.44984000000000,135.35740000000000,利齋家はト半役所北側の角地で薬種を商った貝塚寺内町の有力町人である。主屋は比較的梁間が狭く，切妻造の屋根は棟を挟んだ３間を一段高く綴葺とするが小屋は一連の登梁で段差とは関係がない。１７世紀まで遡る可能性があるが，それだけに後の改造も大きい。,https://bunka.nii.ac.jp/heritage/43967/_104272/43967_104272111225013748170_300.jpg
101,00003283,利齋家住宅離れ,りさいけじゅうたくはなれ,1棟,,登録有形文化財(建造物),住宅,建築物,,大正,大正13頃,1924頃,木造平屋一部2階建、瓦葺、建築面積91㎡,,27 － 0228,36,2003.04.08(平成15.04.08),2003.03.18(平成15.03.18),,20030318,,国土の歴史的景観に寄与しているもの,,大阪府,大阪府貝塚市北町18-3,,,,,34.44992000000000,135.35750000000000,主屋北側に中庭を隔てて建つ。１階を８畳と６畳の続き座敷とし，２階は西側に寄せて建て，一室の洋間とする。兵庫県南部地震後外壁や洋間のクロスを張り替えるなど改変があるが，暖炉のタイルや窓のステンドグラス，照明器具等本格的な装飾意匠が現存する。,https://bunka.nii.ac.jp/heritage/43967/_104273/43967_104273111225013750128_300.jpg
101,00003284,利齋家住宅土蔵,りさいけじゅうたくどぞう,1棟,,登録有形文化財(建造物),産業3次,建築物,,江戸,江戸後期,1751-1829,土蔵造2階建、瓦葺、建築面積127㎡,,27 － 0229,36,2003.04.08(平成15.04.08),2003.03.18(平成15.03.18),,20030318,,国土の歴史的景観に寄与しているもの,,大阪府,大阪府貝塚市北町18-3,,,,,34.44997000000000,135.35740000000000,主屋西側に接して建てられた２階建の袖蔵。梁間は２間と標準的であるが，桁行は１０間の長大な蔵で，内部は南北５間の２室に区切られ，南半を薬種，北半を衣装や道具の倉庫に使われていた。主屋と同様，兵庫県南部地震後本瓦から桟瓦に葺き替えられている。,https://bunka.nii.ac.jp/heritage/43967/_104274/43967_104274111225013750653_300.jpg
101,00003285,岡本家住宅主屋,おかもとけじゅうたくしゅおく,1棟,,登録有形文化財(建造物),産業3次,建築物,,江戸,江戸中期／天保12増築,1661-1750／1841増築,木造平屋建、瓦葺、建築面積228㎡,,27 － 0230,36,2003.04.08(平成15.04.08),2003.03.18(平成15.03.18),,20030318,,国土の歴史的景観に寄与しているもの,,大阪府,大阪府貝塚市北町18-11,,,,,34.45029000000000,135.35770000000000,岡本家はト半役所西面の御下筋北端東側で醤油醸造業を営んだ有力町人。主屋は間口６間の平入り町家で，利齋家と同様綴葺の屋根を持つ。増築の角屋座敷に天保１２年の棟札があり，本体は１８世紀中期頃まで上ると見られる。,https://bunka.nii.ac.jp/heritage/43967/_104275/43967_104275111225013750916_300.jpg
101,00003286,岡本家住宅座敷,おかもとけじゅうたくざしき,1棟,,登録有形文化財(建造物),住宅,建築物,,明治,明治期,1868-1911,木造2階建、瓦葺、建築面積67㎡,,27 － 0231,36,2003.04.08(平成15.04.08),2003.03.18(平成15.03.18),,20030318,,国土の歴史的景観に寄与しているもの,,大阪府,大阪府貝塚市北町18-11,,,,,34.45030000000000,135.35790000000000,敷地の東北隅に建つ離れ座敷。１階の東半をダイニングキッチン等に改造し，昭和４０年代につし２階も改造しているが，なお，１階西半に端正な８畳の座敷（茶室）を残す。１階東半は南に角屋を出し，通り土間のほか茶室の待合いがあったという。,https://bunka.nii.ac.jp/heritage/43967/_104276/43967_104276111225013751190_300.jpg
101,00003287,岡本家住宅新蔵,おかもとけじゅうたくしんぐら,1棟,,登録有形文化財(建造物),住宅,建築物,,江戸,安政4,1857,土蔵造2階建、瓦葺、建築面積57㎡,,27 － 0232,36,2003.04.08(平成15.04.08),2003.03.18(平成15.03.18),,20030318,,国土の歴史的景観に寄与しているもの,,大阪府,大阪府貝塚市北町18-11,,,,,34.45041000000000,135.35770000000000,岡本家の敷地北側に３棟並ぶ土蔵のうち西側の通り沿いにある２間に３間の規模を持つ本瓦葺の２階蔵。土蔵３棟はいずれも醸造用のものではなく道具等を治めた内蔵の性格を持つ。新蔵は南側妻中央の柱に打たれた棟札により安政４年の建築が明らか。,https://bunka.nii.ac.jp/heritage/43967/_104277/43967_104277111225013751461_300.jpg
101,00003288,岡本家住宅中蔵,おかもとけじゅうたくなかぐら,1棟,,登録有形文化財(建造物),住宅,建築物,,江戸,江戸中期,1661-1750,土蔵造2階建、スレート葺、建築面積62㎡,,27 － 0233,36,2003.04.08(平成15.04.08),2003.03.18(平成15.03.18),,20030318,,国土の歴史的景観に寄与しているもの,,大阪府,大阪府貝塚市北町18-11,,,,,34.45038000000000,135.35780000000000,岡本家の敷地北側に３棟並ぶ土蔵のうち中央の蔵で，２間に３間の規模を持つ２階建。享保年間建築の伝えがあるが，安政期の新蔵よりも明らかに材料が古く，天保期の仏間がこの蔵を避けて建てられていることから，この伝えはほぼ妥当と思われる。,https://bunka.nii.ac.jp/heritage/43967/_104278/43967_104278111225013751993_300.jpg
101,00003289,岡本家住宅北蔵,おかもとけじゅうたくきたぐら,1棟,,登録有形文化財(建造物),住宅,建築物,,江戸,江戸後期,1751-1829,土蔵造2階建、スレート葺、建築面積99㎡,,27 － 0234,36,2003.04.08(平成15.04.08),2003.03.18(平成15.03.18),,20030318,,国土の歴史的景観に寄与しているもの,,大阪府,大阪府貝塚市北町18-11,,,,,34.45034000000000,135.35790000000000,岡本家の敷地北側に３棟並ぶ土蔵のうち東端の蔵で，東側は座敷に接続する。６間に２間の長い２階蔵であるが内部は一室で，南北面の２個所に出入口を持つ。中蔵とともに震災後やむなく本瓦から人造スレート葺に変更されたが，敷地の構成要素として評価できる。,https://bunka.nii.ac.jp/heritage/43967/_104279/43967_104279111225013752261_300.jpg
101,00003290,尾食家住宅主屋,おめしけじゅうたくしゅおく,1棟,,登録有形文化財(建造物),産業3次,建築物,,江戸,天保10,1839,木造2階建、瓦葺、建築面積290㎡,,27 － 0235,36,2003.04.08(平成15.04.08),2003.03.18(平成15.03.18),,20030318,,国土の歴史的景観に寄与しているもの,,大阪府,大阪府貝塚市北町38-19,,,,,34.45169000000000,135.35840000000000,貝塚寺内町北側の入口に当たる上方口の西側に建つ。川沿いにあるためもともと台形平面で，町外からの見付となる北側は段違いに破風を構えた入母屋造とし，且つ昭和１６年の道路拡幅で前面南側を３角に切り取られているため複雑な外観を見せる。,https://bunka.nii.ac.jp/heritage/43967/_104280/43967_104280194082925337391_300.jpg
101,00003291,尾食家住宅離れ,おめしけじゅうたくはなれ,1棟,,登録有形文化財(建造物),住宅,建築物,,江戸,江戸末期,1830-1867,木造平屋建、瓦葺、建築面積20㎡,,27 － 0236,36,2003.04.08(平成15.04.08),2003.03.18(平成15.03.18),,20030318,,国土の歴史的景観に寄与しているもの,,大阪府,大阪府貝塚市北町38-19,,,,,34.45178000000000,135.35830000000000,尾食家は江戸時代貝塚寺内町で旅籠や干鰯商を営んだ有力商人である。離れは主屋西側の川沿いに接続し，西側は現在は撤去された土蔵に達する蔵前座敷であった。取り付きから主屋とほぼ同時代に建築されたと考えられる。,https://bunka.nii.ac.jp/heritage/43967/_104281/43967_104281958457749273012_300.jpg
101,00003444,中西家住宅主屋,なかにしけじゅうたくしゅおく,1棟,,登録有形文化財(建造物),住宅,建築物,,江戸,文政9,1826,木造平屋建、瓦葺、建築面積436㎡,,27 － 0237,37,2003.07.17(平成15.07.17),2003.07.01(平成15.07.01),,20030701,,造形の規範となっているもの,,大阪府,大阪府吹田市岸部中４丁目８２３－１　他,,,,,34.78040000000000,135.53780000000000,中西家は島下郡１４か村の大庄屋を勤めた家柄。主屋は１０間半に５間のつし２階の主体部とその上手妻に接続する座敷棟，上手前方の玄関棟からなる大規模なもの。建築年代が明らかで襖など内装も良く残る。摂津地方における江戸後期の上層農家主屋の好事例。,https://bunka.nii.ac.jp/heritage/43967/_104434/43967_104434512841496493804_300.jpg
101,00003445,中西家住宅長屋門,なかにしけじゅうたくながやもん,1棟,,登録有形文化財(建造物),住宅,建築物,,江戸,江戸後期,1751-1829,木造平屋建、瓦葺、建築面積159㎡,,27 － 0238,37,2003.07.17(平成15.07.17),2003.07.01(平成15.07.01),,20030701,,国土の歴史的景観に寄与しているもの,,大阪府,大阪府吹田市岸部中四丁目８２３－１　他,,,,,34.78018000000000,135.53810000000000,旧吉志部郷東村の西北に広大な敷地を占める中西家敷地の南正面中央にある１０間に２間半の長大な門。通り沿いに３ｍほどの空堀状前庭を設け，門前を広く取る点に特色がある。東妻を北側に折り曲げて内蔵に接続し，この部分に普段の通用門である勝手口を開く。,https://bunka.nii.ac.jp/heritage/43967/_104435/43967_104435841790415658587_300.jpg
101,00003446,中西家住宅勘定部屋,なかにしけじゅうたくかんじょうべや,1棟,,登録有形文化財(建造物),住宅,建築物,,明治,明治前期,1868-1911,木造平屋建、瓦葺、建築面積129㎡,,27 － 0239,37,2003.07.17(平成15.07.17),2003.07.01(平成15.07.01),,20030701,,国土の歴史的景観に寄与しているもの,,大阪府,大阪府吹田市岸部中四丁目８２３－１　他,,,,,34.78043000000000,135.53810000000000,敷地中央北寄りにある主屋の下手東側にある。南北棟の入母屋造，桟瓦葺で，８畳２間の続座敷と４畳の納戸（当初は竈のある土間）からなる。天保６年の屋敷絵図には描かれておらず，建築年代は明治期に下ると見られる。,https://bunka.nii.ac.jp/heritage/43967/_104436/43967_104436387556598063812_300.jpg
101,00003447,中西家住宅内蔵,なかにしけじゅうたくうちぐら,1棟,,登録有形文化財(建造物),住宅,建築物,,江戸,江戸後期,1751-1829,土蔵造2階建、瓦葺、建築面積40㎡,,27 － 0240,37,2003.07.17(平成15.07.17),2003.07.01(平成15.07.01),,20030701,,国土の歴史的景観に寄与しているもの,,大阪府,大阪府吹田市岸部中四丁目８２３－１　他,,,,,34.78035000000000,135.53810000000000,長屋門勝手口の北側に接続する切妻造，本瓦葺の２階建土蔵。４間に２間半の規模で，西面北寄りに入口を設ける。小屋は桁行き中央に起った梁を架け渡し，束立てで太い棟木と母屋を受ける。キザラ小屋，長屋門とともに屋敷正面の景観を形成する。,https://bunka.nii.ac.jp/heritage/43967/_104437/43967_104437629816983248268_300.jpg
101,00003448,中西家住宅土蔵一,なかにしけじゅうたくどぞういち,1棟,,登録有形文化財(建造物),住宅,建築物,,江戸,江戸後期,1751-1829,土蔵造2階建、瓦葺、建築面積58㎡,,27 － 0241,37,2003.07.17(平成15.07.17),2003.07.01(平成15.07.01),,20030701,,国土の歴史的景観に寄与しているもの,,大阪府,大阪府吹田市岸部中四丁目８２３－１　他,,,,,34.78044000000000,135.53760000000000,主屋の背面北側に位置する２棟の土蔵のうち西側の２階建土蔵。天保の屋敷図では主屋に接続しているが，明治期に北側へ曳家し西側に増築している。現在は主屋との間に住居を新築し，これと一体として座敷に使っている。,https://bunka.nii.ac.jp/heritage/43967/_104438/43967_104438371253951276103_300.jpg
101,00003449,中西家住宅土蔵二,なかにしけじゅうたくどぞうに,1棟,,登録有形文化財(建造物),住宅,建築物,,江戸,江戸後期,1751-1829,土蔵造2階建、瓦葺、建築面積47㎡,,27 － 0242,37,2003.07.17(平成15.07.17),2003.07.01(平成15.07.01),,20030701,,国土の歴史的景観に寄与しているもの,,大阪府,大阪府吹田市岸部中四丁目８２３－１　他,,,,,34.78051000000000,135.53770000000000,主屋の背面北側に位置する２棟の土蔵のうち東側の２階建土蔵。土蔵一同様屋敷図では主屋に接続しているが，明治期に北側に曳き家している。内部は東西２室に仕切られ，西側の部屋は２階床を撤去して住居の納戸に活用している。,https://bunka.nii.ac.jp/heritage/43967/_104439/43967_104439880016301529239_300.jpg
101,00003450,中西家住宅キザラ小屋（納屋）,なかにしけじゅうたくきざらごや（なや）,1棟,,登録有形文化財(建造物),住宅,建築物,,明治,明治中期,1868-1911,木造平屋建、瓦葺、建築面積40㎡,,27 － 0243,37,2003.07.17(平成15.07.17),2003.07.01(平成15.07.01),,20030701,,国土の歴史的景観に寄与しているもの,,大阪府,大阪府吹田市岸部中四丁目８２３－１　他,,,,,34.78006000000000,135.53800000000000,敷地南面の長屋門西側に土塀を兼ねて東西に細長く建つ桟瓦葺の小屋。敷地内側になる北面は吹き放しで，農作業等で使う丸太等の長尺部材を収納するため，長屋門前庭に面する東妻に両開きの扉口を構える。長屋門，内蔵とともに屋敷正面の景観を形成する。,https://bunka.nii.ac.jp/heritage/43967/_104440/43967_104440535992889983278_300.jpg
101,00003451,大阪医科大学看護専門学校校舎（旧大阪高等医学専門学校別館）,おおさかいかだいがくかいごせんもんがっこうこうしゃ（きゅうおおさかこうとういがくせんもんがっこうべっかん）,1棟,,登録有形文化財(建造物),学校,建築物,,昭和前,昭和5,1930,鉄筋コンクリート造3階建、建築面積325㎡,,27 － 0244,37,2003.07.17(平成15.07.17),2003.07.01(平成15.07.01),,20030701,,国土の歴史的景観に寄与しているもの,,大阪府,大阪府高槻市大学町2-7,,学校法人大阪医科薬科大学,,,34.85157000000000,135.62590000000000,ヴォーリズ建築事務所の設計による医学専門学校の別館。鉄筋コンクリート造３階建で，玄関部にロンバルディア帯，バトルメント状の装飾を施すほか，窓部のオジーアーチや葱花ドームなどイスラム様式を採り入れている。地域の歴史的建築として親しまれている。,https://bunka.nii.ac.jp/heritage/43967/_104441/43967_104441613187044709705_300.jpg
101,00003452,竹本家住宅主屋,たけもとけじゅうたくしゅおく,1棟,,登録有形文化財(建造物),住宅,建築物,,江戸,江戸末期,1830-1867,木造平屋一部2階建、瓦葺、建築面積169㎡,,27 － 0245,37,2003.07.17(平成15.07.17),2003.07.01(平成15.07.01),,20030701,,国土の歴史的景観に寄与しているもの,,大阪府,大阪府貝塚市西町17-11,,,,,34.44976000000000,135.35580000000000,紀州街道から西に１本入った筋にある食い違いの交差点に面する住宅。間口７間規模で，正面に出格子や与力窓などを配し，東側面の木太い無双窓から貝塚御坊願泉寺を望むつくりとする。前面が比較的閉鎖的で，商家ではなく，武家か寺役人の住宅と見られる。,https://bunka.nii.ac.jp/heritage/43967/_104442/43967_104442111225013934774_300.jpg
101,00003453,吉村家住宅主屋,よしむらけじゅうたくしゅおく,1棟,,登録有形文化財(建造物),産業3次,建築物,,江戸,江戸中期／江戸末期増築,1661-1750／1830-1867増築,木造平屋建、瓦葺、建築面積460㎡,,27 － 0246,37,2003.07.17(平成15.07.17),2003.07.01(平成15.07.01),,20030701,,国土の歴史的景観に寄与しているもの,,大阪府,大阪府貝塚市西町12-7,,,,,34.44886000000000,135.35520000000000,江戸時代油屋，金融業を営んだ商家。主屋の北側主要部は古く，１８世紀中頃まで遡ると見られる。貝塚では町家の座敷は上手側背後に増築されるのが通例であるが，ここでは幕末期に下手側（南側）に増築されているのが珍しい。増築座敷の意匠も優秀。,https://bunka.nii.ac.jp/heritage/43967/_104443/43967_104443093280350765511_300.jpg
101,00003454,吉村家住宅道具蔵,よしむらけじゅうたくどうぐぐら,1棟,,登録有形文化財(建造物),住宅,建築物,,江戸,江戸末期,1830-1867,土蔵造2階建、瓦葺、建築面積39㎡,,27 － 0247,37,2003.07.17(平成15.07.17),2003.07.01(平成15.07.01),,20030701,,国土の歴史的景観に寄与しているもの,,大阪府,大阪府貝塚市西町12-7,,,,,34.44873000000000,135.35530000000000,主屋下手の背後にある２階建，切妻造，本瓦葺の土蔵。増築された主屋の座敷に接するが，入口は西側妻の中庭側にとり，腕木庇を取り付ける。桁行４間，梁間２間の規模で，床下を石積で高く上げ，地下に穴蔵を設ける。,https://bunka.nii.ac.jp/heritage/43967/_104444/43967_104444662247569087266_300.jpg
101,00003455,吉村家住宅衣装蔵,よしむらけじゅうたくいしょうぐら,1棟,,登録有形文化財(建造物),住宅,建築物,,江戸,江戸末期,1830-1867,土蔵造2階建、瓦葺、建築面積44㎡,,27 － 0248,37,2003.07.17(平成15.07.17),2003.07.01(平成15.07.01),,20030701,,国土の歴史的景観に寄与しているもの,,大阪府,大阪府貝塚市西町12-7,,,,,34.44871000000000,135.35510000000000,主屋下手に増築された座敷部の南に接続する２階建，切妻造，本瓦葺の土蔵。入口は北側の妻に取り，茶室南側の廊下に開く。桁行４間，梁間２間半の比較的大規模な蔵で，西側には座敷用の便所を庇で掛け出す。,https://bunka.nii.ac.jp/heritage/43967/_104445/43967_104445784908765773400_300.jpg
101,00003456,廣海家住宅主屋,ひろうみけじゅうたくしゅおく,1棟,,登録有形文化財(建造物),産業3次,建築物,,江戸,文久元,1861,木造平屋建、瓦葺、建築面積641㎡,,27 － 0249,37,2003.07.17(平成15.07.17),2003.07.01(平成15.07.01),,20030701,,再現することが容易でないもの,,大阪府,大阪府貝塚市西町５６９他,,,,,34.44891000000000,135.35450000000000,回船問屋の本宅。旧海岸沿いに広大な敷地を構える。主屋は間口１８間半の長大な町家で，桁行９間，梁間６間の中央部の両側にそれぞれ梁間４間の店(桁行５間)と座敷部(桁行４間半)を並べた平面。店部分を除き改造は少ない。ニワの梁組は豪壮で見応えがある。,https://bunka.nii.ac.jp/heritage/43967/_104446/43967_104446940461575103684_300.jpg
101,00003457,廣海家住宅居間蔵,ひろうみけじゅうたくいまぐら,1棟,,登録有形文化財(建造物),住宅,建築物,,江戸,江戸末期,1830-1867,土蔵造2階建、スレート葺、建築面積23㎡,,27 － 0250,37,2003.07.17(平成15.07.17),2003.07.01(平成15.07.01),,20030701,,国土の歴史的景観に寄与しているもの,,大阪府,大阪府貝塚市西町５６９他,,,,,34.44897000000000,135.35430000000000,主屋の上手（西）南側に位置し，座敷と渡り廊下で接続する桁行３間，梁間２間，切妻造の２階建土蔵。現在は人造スレート葺（もと本瓦葺）で，茶器等の道具を収納している。入口は東妻にあり，南側に１，２階各１個所の窓を開ける。,https://bunka.nii.ac.jp/heritage/43967/_104447/43967_104447837873021541910_300.jpg
101,00003458,廣海家住宅中蔵,ひろうみけじゅうたくなかぐら,1棟,,登録有形文化財(建造物),住宅,建築物,,江戸,江戸末期,1830-1867,土蔵造2階建、瓦葺、建築面積15㎡,,27 － 0251,37,2003.07.17(平成15.07.17),2003.07.01(平成15.07.01),,20030701,,国土の歴史的景観に寄与しているもの,,大阪府,大阪府貝塚市西町５６９他,,,,,34.44900000000000,135.35420000000000,居間蔵西側に僅かに離れて建つ，桁行２間，梁間２間の比較的小規模な土蔵。北側に入口を開き，居間蔵と同様道具類を納めている。当家で最も古い蔵との言い伝えがあり，材料の様子や痕跡から主屋よりやや先立つ時期のものと見られる。,https://bunka.nii.ac.jp/heritage/43967/_104448/43967_104448459041751791815_300.jpg
101,00003459,廣海家住宅下蔵,ひろうみけじゅうたくしもぐら,1棟,,登録有形文化財(建造物),住宅,建築物,,江戸,江戸末期,1830-1867,土蔵造2階建、瓦葺、建築面積45㎡,,27 － 0252,37,2003.07.17(平成15.07.17),2003.07.01(平成15.07.01),,20030701,,国土の歴史的景観に寄与しているもの,,大阪府,大阪府貝塚市西町５６９他,,,,,34.44897000000000,135.35420000000000,中蔵と東妻を揃え，南側に半間ほど離れて建つ桁行５間，梁間２間半の２階建土蔵。内部は桁行き中央で２分割され，東西に入口を設ける。現在は仕切壁に開口を設けているが，当初は内部では行き来できない構造。小屋は地棟に登梁を投げかける形式。,https://bunka.nii.ac.jp/heritage/43967/_104449/43967_104449199886289344536_300.jpg
