台帳ID,管理対象ID,名称,ふりがな,員数,棟名,文化財種類,種別1,種別2,国,時代,年代,西暦,構造及び形式等,その他参考となるべき事項,登録番号,登録回,登録告示年月日,登録年月日,追加年月日,重文指定年月日,国宝指定年月日,登録基準1,登録基準2,都道府県,所在地,保管施設の名称,所有者名,所有者種別,管理団体又は責任者,緯度,経度,解説文,画像URL
101,00000037,高岡商工会議所伏木支所（旧伏木銀行）,たかおかしょうこうかいぎしょふしきししょ（きゅうふしきぎんこう）,1棟,,登録有形文化財(建造物),産業3次,建築物,,明治,明治43,1910,木造2階建、瓦葺、建築面積261㎡,,16 － 0001,1,1996.12.26(平成8.12.26),1996.12.20(平成8.12.20),,19961220,,造形の規範となっているもの,,富山県,富山県高岡市伏木湊町7-1,,高岡商工会議所,,,36.79558000000000,137.06260000000000,土蔵造の町家の意匠を基調に，スクラッチタイルの壁，玄関ポーチの柱，上げ下げ窓，軒蛇腹，天井，階段等に洋風の意匠を取り入れた建物。土蔵造の町家が数多く残る高岡の町並みの中で，洋風の意匠をふんだんに取り入れた先駆的な建物である。,https://bunka.nii.ac.jp/heritage/43967/_101027/43967_101027111225010311697_300.jpg
101,00000038,清水町配水塔資料館旧配水塔,しみずまちはいすいとうしりょうかんきゅうはいすいとう,1棟,,登録有形文化財(建造物),生活関連,その他工作,,昭和前,昭和6,1931,鉄筋コンクリート造、高さ29.7m、直径11.4m,,16 － 0002,1,1996.12.26(平成8.12.26),1996.12.20(平成8.12.20),,19961220,,国土の歴史的景観に寄与しているもの,,富山県,富山県高岡市清水町1-7-30,,高岡市水道局,,,36.74106000000000,137.00350000000000,昭和６年に完成した高岡市の水道施設の一部。当時の最新科学の粋を集めた水源施設のシンボル的存在である。鉄筋コンクリート造の４層の上に銅板張りの貯水槽が乗る。平成５年より資料館として活用され，通水当時の工具などを展示している。,https://bunka.nii.ac.jp/heritage/43967/_101028/43967_101028111225010311952_300.jpg
101,00000039,入善町下山芸術の森アートスペース（旧下山発電所）,にゅうぜんまちにざやまげいじゅつのもりあーとすぺーす（きゅうにざやまはつでんしょ）,1棟,,登録有形文化財(建造物),生活関連,建築物,,大正,大正15,1926,鉄筋コンクリート造2階建、鉄板葺、建築面積558㎡,,16 － 0003,1,1996.12.26(平成8.12.26),1996.12.20(平成8.12.20),,19961220,,国土の歴史的景観に寄与しているもの,,富山県,富山県下新川郡入善町下山364-1,,入善町,,,36.90714000000000,137.53140000000000,発電所の建屋を町が払い下げを受け美術館とした建物。富山平野特有の低落差の河岸段丘を利用した小型の水力発電所で，その立地と赤煉瓦を用いた外観の意匠に特徴がある。富山平野の地形やそれを利用した近代の景観を知る上で特に必要な存在である。,https://bunka.nii.ac.jp/heritage/43967/_101029/43967_101029111225010312199_300.jpg
101,00000040,井波町物産展示館（旧井波駅舎）,いなみまちぶっさんてんじかん（きゅういなみえきしゃ）,1棟,,登録有形文化財(建造物),交通,建築物,,昭和前,昭和9,1934,木造平屋建望楼付、瓦葺、建築面積253㎡,,16 － 0004,1,1996.12.26(平成8.12.26),1996.12.20(平成8.12.20),,19961220,,造形の規範となっているもの,,富山県,富山県南砺市北川86,,南砺市,,,36.56892000000000,136.96920000000000,瑞泉寺への参詣道につくられた加越線の駅舎。設計施工は地元で社寺建築を多く手がけた松井角平で，中央に楼閣及び千鳥破風をもつ複雑な屋根，欄間彫刻や蟇股を用いた細部等の仏閣風の意匠に特徴があり，彫刻の町井波の窓口にふさわしい建物である。,https://bunka.nii.ac.jp/heritage/43967/_101030/43967_101030111225010312932_300.jpg
101,00000127,清水町配水塔資料館旧第３源井上屋,しみずまちはいすいとうしりょうかんきゅうだいさんげんせいうわや,1棟,,登録有形文化財(建造物),生活関連,建築物,,昭和前,昭和6,1931,鉄筋コンクリート造平屋建，銅板葺，建築面積6.6㎡,,16 － 0005,2,1997.05.29(平成9.05.29),1997.05.07(平成9.05.07),,19970507,,国土の歴史的景観に寄与しているもの,,富山県,富山県高岡市清水町1-7-30,,高岡市水道局,,,36.74048000000000,137.00320000000000,地下水を汲み上げる源井の上屋である。鉄筋コンクリート造ではあるが，煉瓦の外壁を持ち，八角形の平面とあいまって愛らしい外観を見せている。配水塔とともに当時の科学技術の粋を集めた施設のシンボルとして広く親しまれている。,https://bunka.nii.ac.jp/heritage/43967/_101117/43967_101117111225010412066_300.jpg
101,00000128,清水町配水塔資料館水源地水槽,しみずまちはいすいとうしりょうかんすいげんちすいそう,1基,,登録有形文化財(建造物),生活関連,その他工作,,昭和前,昭和6,1931,鉄筋コンクリート造，長さ30.3m，幅22.7m，高さ3.0m,,16 － 0006,2,1997.05.29(平成9.05.29),1997.05.07(平成9.05.07),,19970507,,国土の歴史的景観に寄与しているもの,,富山県,富山県高岡市清水町1-7-30,,高岡市水道局阿,,,36.74074000000000,137.00380000000000,鉄筋コンクリート造で，長さ30.3ｍ，幅22.7ｍ，高さ3.0ｍの大規模な半地下式の構造物。現在も予備の水槽としての機能をもつが，上部が公園化され市民の憩いの場になっており，高岡の市民生活を支える施設として広く親しまれている。,https://bunka.nii.ac.jp/heritage/43967/_101118/43967_101118111225010412571_300.jpg
101,00000197,棚田家住宅主屋,たなだけじゅうたくしゅおく,1棟,,登録有形文化財(建造物),住宅,建築物,,明治,明治23頃,1890頃,木造2階建，瓦葺，建築面積408㎡,,16 － 0007,3,1997.06.24(平成9.06.24),1997.06.12(平成9.06.12),,19970612,,国土の歴史的景観に寄与しているもの,,富山県,富山県高岡市伏木錦町14-26,,,,,36.79323000000000,137.05940000000000,７間×９間、茶室附属の木造２階建の商家で、小屋裏の隠し物置、２階の隠れ通路、廻船問屋としての広い土間など、平面に特徴がある。主柱が秋田杉の四方柾であるなど、部材の質も高く、北前船で栄えた時代の高岡の町並みを今に伝えて広く親しまれている。,https://bunka.nii.ac.jp/heritage/43967/_101187/43967_101187111225010454813_300.jpg
101,00000198,棚田家住宅衣装蔵,たなだけじゅうたくいしょうぐら,1棟,,登録有形文化財(建造物),住宅,建築物,,明治,明治23頃,1890頃,土蔵造平屋建，瓦葺，建築面積47㎡,,16 － 0008,3,1997.06.24(平成9.06.24),1997.06.12(平成9.06.12),,19970612,,国土の歴史的景観に寄与しているもの,,富山県,富山県高岡市伏木錦町14-26,,,,,36.79330000000000,137.05930000000000,主屋の背面にあって道具蔵と並んで建ち屋敷構えを構成する。主屋から縁続きの広縁を張って蔵前とする。漆喰仕上げの中規模の土蔵で、切妻造、桟瓦葺になる。弓状に反らした形の扉構えの&#26979;、腰下の黒漆喰仕上げ等の各部の技法にみるべきものがある。,https://bunka.nii.ac.jp/heritage/43967/_101188/43967_101188111225010455322_300.jpg
101,00000199,棚田家住宅道具蔵,たなだけじゅうたくどうぐぐら,1棟,,登録有形文化財(建造物),住宅,建築物,,明治,明治23頃,1890頃,土蔵造平屋建，瓦葺，建築面積79㎡,,16 － 0009,3,1997.06.24(平成9.06.24),1997.06.12(平成9.06.12),,19970612,,国土の歴史的景観に寄与しているもの,,富山県,富山県高岡市伏木錦町14-26,,,,,36.79336000000000,137.05940000000000,屋敷地の北西角に位置し衣裳蔵と並び建つ屋敷構えを構成する要素となる大型の土蔵。衣裳蔵と同じ切妻造、桟瓦葺の土蔵で、正面に板敷及び畳の間をおいて蔵前とする。扉口の構えは衣裳蔵と同様であるが、扉口の位置は正面左寄りで防火戸がない点に違いがある。,https://bunka.nii.ac.jp/heritage/43967/_101189/43967_101189111225010455586_300.jpg
101,00000200,棚田家住宅味噌蔵,たなだけじゅうたくみそぐら,1棟,,登録有形文化財(建造物),住宅,建築物,,明治,明治23頃,1890頃,土蔵造平屋建，瓦葺，建築面積20㎡,,16 － 0010,3,1997.06.24(平成9.06.24),1997.06.12(平成9.06.12),,19970612,,国土の歴史的景観に寄与しているもの,,富山県,富山県高岡市伏木錦町14-26,,,,,36.79327000000000,137.05950000000000,屋敷地の東北に位置する小規模な土蔵造の蔵。東面は木造２階建の同規模の建物が棟続きとなり、南面に庇を付加して小部屋を造るなど改造はあるが、内部はよく保存されている。棚田家の内向きの生活を知る上で貴重な蔵である。,https://bunka.nii.ac.jp/heritage/43967/_101190/43967_101190111225010456100_300.jpg
101,00000201,澤田家住宅主屋,さわだけじゅうたくしゅおく,1棟,,登録有形文化財(建造物),住宅,建築物,,大正,大正初期,1912-1925,木造2階建，瓦葺，建築面積220㎡,,16 － 0011,3,1997.06.24(平成9.06.24),1997.06.12(平成9.06.12),,19970612,,国土の歴史的景観に寄与しているもの,,富山県,富山県高岡市二塚10,,,,,36.71613000000000,137.00600000000000,建物の外観は洋風で、玄関ポーチや正面の破風の意匠が特徴的。平面は接客部が洋間になるほか座敷等は和風でまとめる住宅である。井波町から昭和２６年に移築したもので、ドーム屋根をもった２階建て塔屋のある洋風建築として親しまれている。,https://bunka.nii.ac.jp/heritage/43967/_101191/43967_101191111225010456360_300.jpg
101,00000202,大楽寺本堂,だいらくじほんどう,1棟,,登録有形文化財(建造物),宗教,建築物,,明治,明治12,1879,土蔵造平屋建，瓦葺，建築面積263㎡,,16 － 0012,3,1997.06.24(平成9.06.24),1997.06.12(平成9.06.12),,19970612,,再現することが容易でないもの,,富山県,富山県射水市立町2-9,,大楽寺,,,36.78031000000000,137.08820000000000,桁行７間、梁間１１間と大規模な土蔵造の本堂。屋根は切妻造、桟瓦葺になる。平面は浄土宗本堂の伝統的な様式を踏襲しており、奥行きの深い構成になる。正面の向拝は明治２２年の改築で、獅子頭はじめ柱や虹梁を漆喰塗とする精巧な構えとなり見応えがある。,https://bunka.nii.ac.jp/heritage/43967/_101192/43967_101192111225010457920_300.jpg
101,00000203,大楽寺庫裏,だいらくじくり,1棟,,登録有形文化財(建造物),宗教,建築物,,明治,明治2,1869,木造2階建，瓦葺，建築面積399㎡,,16 － 0013,3,1997.06.24(平成9.06.24),1997.06.12(平成9.06.12),,19970612,,国土の歴史的景観に寄与しているもの,,富山県,富山県射水市立町2-9,,大楽寺,,,36.78037000000000,137.08790000000000,切妻造、妻入で、数寄屋風の大広間、梁をみせた民家風の部屋等をもつ大規模な庫裏。棟札から明治２年９月の大火直後の建築と知られる。古くからの大伽藍を偲ばせる建物であり、小学校の仮校舎に使用されたとも伝える等、その存在が広く知られた建物である。,https://bunka.nii.ac.jp/heritage/43967/_101193/43967_101193111225010459237_300.jpg
101,00000344,富山市陶芸館,とやましとうげいかん,1棟,,登録有形文化財(建造物),住宅,建築物,,明治,明治27,1894,木造平屋建，瓦葺，建築面積323㎡,,16 － 0014,6,1997.12.03(平成9.12.03),1997.11.05(平成9.11.05),,19971105,,造形の規範となっているもの,,富山県,富山県富山市安養坊50,,富山市,,,36.70948000000000,137.18990000000000,「あずまだち」と呼ばれる切妻造の大型農家。元市内大塚に建てられたが，数回の移築を経て昭和５６年に民俗民芸村の陶芸館として再生された。壮大な破風と数多くの貫や束によって直線的に構成される妻壁の意匠は独特なもので，富山の豪農の居宅の好例である。,https://bunka.nii.ac.jp/heritage/43967/_101334/43967_101334111225010624860_300.jpg
101,00000345,福岡町歴史民俗資料館（旧福岡町役場）,ふくおかまちれきしみんぞくしりょうかん（きゅうふくおかまちやくば）,1棟,,登録有形文化財(建造物),官公庁舎,建築物,,大正,大正13,1924,鉄筋コンクリート造2階建，瓦葺，建築面積265㎡,,16 － 0015,6,1997.12.03(平成9.12.03),1997.11.05(平成9.11.05),,19971105,,国土の歴史的景観に寄与しているもの,,富山県,富山県高岡市福岡町下向田15,,高岡市,,,36.71477000000000,136.90680000000000,地元の篤志家の寄贈による鉄筋コンクリート２階建の洋風建築。外観を石造風にみせ，台形状の屋根を載せる構成になる。玄関部や２階のアーチ窓周辺に細部意匠が集中する。町役場として親しまれていたが，昭和６３年に移築し歴史民俗資料館として再生された。,https://bunka.nii.ac.jp/heritage/43967/_101335/43967_101335111225010625376_300.jpg
101,00000401,佐野家住宅主屋,さのけじゅうたくしゅおく,1棟,,登録有形文化財(建造物),住宅,建築物,,明治,明治33,1900,土蔵造2階建，瓦葺，建築面積112㎡,,16 － 0016,7,1998.01.08(平成10.01.08),1997.12.12(平成9.12.12),,19971212,,造形の規範となっているもの,,富山県,富山県高岡市御馬出町68,,,,,36.74761000000000,137.00930000000000,明治３３年の高岡大火直後の再建で，屋敷全体を防火に配慮した構成とする。主屋は桁行７間半，梁間５間の大型の町家で，正面に一間の土庇が付く。２階は大壁の黒漆喰塗とし，銅板張の防火戸をつける。大型の土蔵造町家の好例で，全体的に保存も良い。,https://bunka.nii.ac.jp/heritage/43967/_101391/43967_101391111225010702919_300.jpg
101,00000402,能松家住宅主屋,よしまつけじゅうたくしゅおく,1棟,,登録有形文化財(建造物),住宅,建築物,,明治,明治末期頃,1868-1911頃,木造2階建，瓦葺，建築面積101㎡,,16 － 0017,7,1998.01.08(平成10.01.08),1997.12.12(平成9.12.12),,19971212,,造形の規範となっているもの,,富山県,富山県高岡市吉久2-3-2,,,,,36.78008000000000,137.05650000000000,回船で栄えた吉久の町並のほぼ中央部に位置する町家で，元米商を営んだ。間口４間半に比べ奥行７間半と長く，玄関及び７室が２列に整然と配される。玄関奥のオイでは，この地方独特の透き漆塗りの梁組を見せる。吉久の町家の好例であり，保存状況も良い。,https://bunka.nii.ac.jp/heritage/43967/_101392/43967_101392111225010704210_300.jpg
101,00000403,谷村家住宅主屋,たにむらけじゅうたくしゅおく,1棟,,登録有形文化財(建造物),住宅,建築物,,明治,明治1,1868,木造2階建，瓦葺，建築面積86㎡,,16 － 0018,7,1998.01.08(平成10.01.08),1997.12.12(平成9.12.12),,19971212,,造形の規範となっているもの,,富山県,富山県高岡市伏木中央町1-6,,,,,36.79688000000000,137.05910000000000,洋風建築が混在する伏木の町並みのなかにあって，伝統的な様式を保つ基準的な町家。正面２階部分は，貫みせの真壁及び細格子窓を開き，両端に袖壁を置く。庇下には霧避けを設ける。良質の材を用いた内部造作の質も高い。棟梁は地元の針山分吉。,https://bunka.nii.ac.jp/heritage/43967/_101393/43967_101393111225010704712_300.jpg
101,00000528,佐野家住宅茶室,さのけじゅうたくちゃしつ,1棟,,登録有形文化財(建造物),住宅,建築物,,明治,明治33頃,1900頃,木造平屋建，銅板葺，建築面積12㎡,,16 － 0019,9,1998.06.09(平成10.06.09),1998.04.21(平成10.04.21),,19980421,,造形の規範となっているもの,,富山県,富山県高岡市御馬出町68,,,,,36.74577000000000,137.00840000000000,明治３３年の高岡大火後，再建主屋の背後に設けられた中庭南側に建つ小規模な茶室。明治時代から大正時代にかけて豪商の居宅に付属施設として建てられた茶室の好例で，簡素な外観ながら高岡商人の文化的な生活の一面を伺い知ることが出来る。,https://bunka.nii.ac.jp/heritage/43967/_101518/43967_101518111225010827063_300.jpg
101,00000529,佐野家住宅１番の蔵,さのけじゅうたくいちばんのくら,1棟,,登録有形文化財(建造物),住宅,建築物,,明治,明治33頃,1900頃,木造２階建，瓦葺，建築面積20㎡,,16 － 0020,9,1998.06.09(平成10.06.09),1998.04.21(平成10.04.21),,19980421,,造形の規範となっているもの,,富山県,富山県高岡市御馬出町68,,,,,36.74584000000000,137.00820000000000,明治３３年の高岡大火の教訓から，屋敷地全体を防火的な構えとする居宅建物群の一つ。このうち，敷地背後には４棟の蔵を並列して建て，防火帯とする。１番の蔵は北端に建つ土蔵造，２階建の小規模な建物で，南隣の２番の蔵とも一体的な造作になる。,https://bunka.nii.ac.jp/heritage/43967/_101519/43967_101519111225010827330_300.jpg
101,00000530,佐野家住宅２番の蔵,さのけじゅうたくにばんのくら,1棟,,登録有形文化財(建造物),住宅,建築物,,明治,明治33頃,1900頃,木造２階建，瓦葺，建築面積20㎡,,16 － 0021,9,1998.06.09(平成10.06.09),1998.04.21(平成10.04.21),,19980421,,造形の規範となっているもの,,富山県,富山県高岡市御馬出町68,,,,,36.74581000000000,137.00830000000000,１番の蔵の南に並び建つほぼ同規模，同型式の土蔵で，平入の正面に防火扉付きの出入口を設け，２階には小さな防火窓を開く。１番の蔵との間の隙間は，１，２階とも正面を壁で閉塞して一体的な造作となる。正面全体に庇を設け，建具を入れて蔵前とする。,https://bunka.nii.ac.jp/heritage/43967/_101520/43967_101520111225010827851_300.jpg
101,00000531,佐野家住宅調度蔵,さのけじゅうたくちょうどぐら,1棟,,登録有形文化財(建造物),住宅,建築物,,明治,明治33頃,1900頃,木造２階建，瓦葺，建築面積32㎡,,16 － 0022,9,1998.06.09(平成10.06.09),1998.04.21(平成10.04.21),,19980421,,造形の規範となっているもの,,富山県,富山県高岡市御馬出町68,,,,,36.74577000000000,137.00830000000000,１，２番の蔵の南にあり，敷地背後へ通じる通路を挟んで建つ二階建の中規模の土蔵で，北側壁の２ヶ所に通路の前後を閉じる防火扉が付属する。正面の開口部は防火扉とし，正面に付加された庇も塗り込めた構造とする。南側の味噌蔵とは一体的な造作になる。,https://bunka.nii.ac.jp/heritage/43967/_101521/43967_101521111225010829049_300.jpg
101,00000532,佐野家住宅味噌蔵,さのけじゅうたくみそぐら,1棟,,登録有形文化財(建造物),住宅,建築物,,明治,明治33頃,1900頃,木造２階建，瓦葺，建築面積49㎡,,16 － 0023,9,1998.06.09(平成10.06.09),1998.04.21(平成10.04.21),,19980421,,造形の規範となっているもの,,富山県,富山県高岡市御馬出町68,,,,,36.74575000000000,137.00830000000000,敷地背後の南端に建つ木造２階建の中規模の土蔵で，南側面に敷地の南側を区切る巨大な防火壁が接続する。４棟の蔵のうち最も大きく，南側は敷地の形状に沿って変則的な平面となる。正面北寄りに開口部を開くが，防火戸を引き戸とする点は特異である。,https://bunka.nii.ac.jp/heritage/43967/_101522/43967_101522111225010829302_300.jpg
101,00000533,佐野家住宅防火壁,さのけじゅうたくぼうかへき,1基,,登録有形文化財(建造物),住宅,その他工作,,明治,明治33頃,1900頃,煉瓦造，長さ25m，高さ5.6m,,16 － 0024,9,1998.06.09(平成10.06.09),1998.04.21(平成10.04.21),,19980421,,造形の規範となっているもの,,富山県,富山県高岡市御馬出町68,,,,,36.74586000000000,137.00840000000000,敷地の南側を区切る高さ５．６ｍ，延長２５ｍの巨大な防火壁。北側の防火壁が主屋の北側面と一体的な構成になるのに対し，独立して建つ。正面の親柱や壁上部の屋根も一体的に煉瓦で造作する。防火対策に腐心した居宅の好例としても知られている。,https://bunka.nii.ac.jp/heritage/43967/_132560/43967_132560111225010829585_300.jpg
101,00000566,旧内山家住宅主屋,きゅううちやまけじゅうたくしゅおく,1棟,,登録有形文化財(建造物),住宅,建築物,,江戸,慶応4・明治20頃・明治末,1868・1887頃・1868-1911,木造平屋建一部２階建，瓦葺，建築面積860㎡,,16 － 0025,10,1998.08.04(平成10.08.04),1998.07.23(平成10.07.23),,19980723,,再現することが容易でないもの,,富山県,富山県富山市宮尾903,,富山県,,,36.72892000000000,137.20720000000000,江戸末期に建てられた大規模な農家で，明治２０年代末頃に南方の表座敷・書院等を，明治末年頃に東方の桜香の間等を増築して現在の姿となった。長大な部材を用いた大広間や銘木を駆使した書院等の意匠は優れ，それぞれには時代の違いがよくあらわれている。,https://bunka.nii.ac.jp/heritage/43967/_101556/43967_101556111225010852671_300.jpg
101,00000567,旧内山家住宅土蔵,きゅううちやまけじゅうたくどぞう,1棟,,登録有形文化財(建造物),住宅,建築物,,明治,明治末,1868-1911,土蔵造２階建，瓦葺，建築面積184㎡,,16 － 0026,10,1998.08.04(平成10.08.04),1998.07.23(平成10.07.23),,19980723,,国土の歴史的景観に寄与しているもの,,富山県,富山県富山市宮尾903,,富山県,,,36.72880000000000,137.20760000000000,主屋の東方，屋敷地境に接して建つ南北棟の平入の土蔵。内部は，南から上の蔵，中の蔵，下の蔵，味噌蔵に別れる。米・夜具等を納めた蔵と伝え，豪農の家の屋敷構えを知る上で欠くことのできない建物である。,https://bunka.nii.ac.jp/heritage/43967/_101557/43967_101557111225010853231_300.jpg
101,00000568,旧内山家住宅茶室夜雨廰,きゅううちやまけじゅうたくちゃしつやうちょう,1棟,,登録有形文化財(建造物),住宅,建築物,,明治,明治12,1879,木造平屋建，瓦葺，建築面積25㎡,,16 － 0027,10,1998.08.04(平成10.08.04),1998.07.23(平成10.07.23),,19980723,,再現することが容易でないもの,,富山県,富山県富山市宮尾903,,富山県,,,36.72869000000000,137.20750000000000,土蔵の南に接続して建つ。明治１２年につくられた書斎を明治末年に改修して茶室とした。接続する土蔵と対照的な広い開口部をもつ開放的なつくりは茶室としては珍しく，もと書斎であったことがうかがえる。色壁を使った室内意匠にもみどころがある。,https://bunka.nii.ac.jp/heritage/43967/_101558/43967_101558111225010853733_300.jpg
101,00000569,旧内山家住宅茶室三入庵,きゅううちやまけじゅうたくちゃしつさんにゅうあん,1棟,,登録有形文化財(建造物),住宅,建築物,,昭和前,昭和2,1927,木造平屋建，瓦葺，建築面積20㎡,,16 － 0028,10,1998.08.04(平成10.08.04),1998.07.23(平成10.07.23),,19980723,,造形の規範となっているもの,,富山県,富山県富山市宮尾903,,富山県,,,36.72848000000000,137.20730000000000,主屋の南方，敷地の南端に近い位置に建つ茶室。昭和１６年に内山家から他所に移築されたが，昭和５６年に再び内山家に戻った。藪内流家元の指導で京都の棟梁を招いてつくったと伝える。手堅くまとまった意匠になる茶室で，水屋の舟底天井等に特徴がある。,https://bunka.nii.ac.jp/heritage/43967/_101559/43967_101559111225010854933_300.jpg
101,00000570,旧内山家住宅にわとり小屋,きゅううちやまけじゅうたくにわとりごや,1棟,,登録有形文化財(建造物),住宅,建築物,,明治,明治末,1868-1911,木造平屋建，瓦葺，建築面積32㎡,,16 － 0029,10,1998.08.04(平成10.08.04),1998.07.23(平成10.07.23),,19980723,,再現することが容易でないもの,,富山県,富山県富山市宮尾903,,富山県,,,36.72902000000000,137.20780000000000,屋敷地の東北隅近くに建つ切妻造，平入，桟瓦葺の小規模な建物。意匠は簡素だが，石を並べて一段高く築いた基礎の上に建ち，壁を漆喰で仕上げるなど鶏用としては破格の扱いで，他に類例の少ない建物である。,https://bunka.nii.ac.jp/heritage/43967/_101560/43967_101560111225010855194_300.jpg
101,00000571,旧内山家住宅にわ（作業場）,きゅううちやまけじゅうたく（さぎょうば）,1棟,,登録有形文化財(建造物),住宅,建築物,,明治,明治末,1868-1911,木造平屋建一部２階建，瓦葺，建築面積92㎡,,16 － 0030,10,1998.08.04(平成10.08.04),1998.07.23(平成10.07.23),,19980723,,国土の歴史的景観に寄与しているもの,,富山県,富山県富山市宮尾903,,富山県,,,36.72909000000000,137.20750000000000,主屋の北方東よりに建つ切妻造，桟瓦葺で東西棟の平入の建物。使用人の仕事場として使われた建物で，裏側に雪囲いの材料等をしまう物置がある。東西に棟を一段低くした小部屋を設ける。この地方の豪農の暮らしぶりを知る上で役立つ建物である。,https://bunka.nii.ac.jp/heritage/43967/_101561/43967_101561111225010855451_300.jpg
101,00000572,旧内山家住宅人力車おき場・車夫小屋・炭小屋,きゅううちやまけじゅうたくじんりきしゃおきば・しゃふごや・すみごや,1棟,,登録有形文化財(建造物),住宅,建築物,,明治,明治末,1868-1911,木造平屋建，瓦葺，建築面積58㎡,,16 － 0031,10,1998.08.04(平成10.08.04),1998.07.23(平成10.07.23),,19980723,,国土の歴史的景観に寄与しているもの,,富山県,富山県富山市宮尾903,,富山県,,,36.72909000000000,137.20720000000000,主屋の北方西よりに接続して建つ細長い南北棟の平入建物。屋敷地の正面からみると，主屋の北にのびて表庭と裏の作業空間を区切り視線をさえぎる役割を果たしており，屋敷構えの主要な構成要素となっている。,https://bunka.nii.ac.jp/heritage/43967/_101562/43967_101562111225010855968_300.jpg
101,00000573,旧内山家住宅もみ倉,きゅううちやまけじゅうたくもみぐら,1棟,,登録有形文化財(建造物),住宅,建築物,,明治,明治中期,1868-1911,土蔵造平屋建，瓦葺，建築面積40㎡,,16 － 0032,10,1998.08.04(平成10.08.04),1998.07.23(平成10.07.23),,19980723,,国土の歴史的景観に寄与しているもの,,富山県,富山県富山市宮尾903,,富山県,,,36.72924000000000,137.20720000000000,炭小屋の西北方に建つ平屋建の土蔵。石積みの基礎の上に建ち，腰から下は壁の漆喰仕上げの色をかえる。屋根は置屋根形式である。長庫（ながぐら），木納屋とも呼ばれる。東方の土蔵と比較すると簡素だが，豪農の屋敷構えを示す建物のひとつである。,https://bunka.nii.ac.jp/heritage/43967/_101563/43967_101563111225010856227_300.jpg
101,00000574,旧内山家住宅表門,きゅううちやまけじゅうたくおもてもん,1棟,,登録有形文化財(建造物),住宅,その他工作,,江戸,慶応4,1868,木造薬医門，瓦葺，塀付属,,16 － 0033,10,1998.08.04(平成10.08.04),1998.07.23(平成10.07.23),,19980723,,再現することが容易でないもの,,富山県,富山県富山市宮尾903,,富山県,,,36.72904000000000,137.20680000000000,屋敷地西境のほぼ中央に建つ比較的に規模が大きな薬医門。左右に折り曲がりの屋根塀が附属する。もと茅葺で，昭和１６年に屋根を桟瓦葺にかえた。現存する江戸時代の農家に建てられた門としては珍しい事例で，往時の当家の繁栄が知られる。,https://bunka.nii.ac.jp/heritage/43967/_101564/43967_101564111225010856484_300.jpg
101,00000575,旧内山家住宅塀中門,きゅううちやまけじゅうたくへいちゅうもん,1棟,,登録有形文化財(建造物),住宅,その他工作,,明治,明治中期,1868-1911,石造，塀付属,,16 － 0034,10,1998.08.04(平成10.08.04),1998.07.23(平成10.07.23),,19980723,,再現することが容易でないもの,,富山県,富山県富山市宮尾903,,富山県,,,36.72899000000000,137.20690000000000,主屋の西にある客用便所に接続して建つ折り曲がりの塀に開かれた門。石造の柱の上部に石造の笠木をのせた簡略な形式の門口に木戸を入れた特異な意匠になる。塀は腰まで自然石を積み上部を切石積みとする形式で，座敷側の庭と前庭を区切る役割を果たしている。,https://bunka.nii.ac.jp/heritage/43967/_132563/43967_132563111225010856750_300.jpg
101,00000576,旧内山家住宅北門,きゅううちやまけじゅうたくきたもん,1棟,,登録有形文化財(建造物),住宅,その他工作,,江戸,慶応年間,1865-1868,木造棟門，瓦葺,,16 － 0035,10,1998.08.04(平成10.08.04),1998.07.23(平成10.07.23),,19980723,,国土の歴史的景観に寄与しているもの,,富山県,富山県富山市宮尾903,,富山県,,,36.72912000000000,137.20770000000000,屋敷地の北境の東よりに建つ棟門形式の門。内山家は藩主鷹狩りの際に宿所とされたと伝える家で，かつて屋敷地の北方が丘陵状になっており，その一帯が狩り場であったと推定される。この門は狩り場に通じる位置にあり，往時の様子を忍ばせる建物である。,https://bunka.nii.ac.jp/heritage/43967/_101566/43967_101566111225010857015_300.jpg
101,00000577,旧内山家住宅東門,きゅううちやまけじゅうたくひがしもん,1棟,,登録有形文化財(建造物),住宅,その他工作,,明治,明治末,1868-1911,木造棟門，瓦葺,,16 － 0036,10,1998.08.04(平成10.08.04),1998.07.23(平成10.07.23),,19980723,,国土の歴史的景観に寄与しているもの,,富山県,富山県富山市宮尾903,,富山県,,,36.72893000000000,137.20770000000000,屋敷地の東側境，にわとり小屋と土蔵の中間の位置に建つ棟門形式の門。かつては屋敷地の東方に果樹園や畑が広がっており，この門はそこに通じる門として使われていた。簡素ながら，往時の屋敷周辺の様子を示す建物として意義がある。,https://bunka.nii.ac.jp/heritage/43967/_101567/43967_101567111225010857277_300.jpg
101,00000578,旧内山家住宅背戸の門,きゅううちやまけじゅうたくせどのもん,1棟,,登録有形文化財(建造物),住宅,その他工作,,明治,明治末,1868-1911,木造棟門，瓦葺,,16 － 0037,10,1998.08.04(平成10.08.04),1998.07.23(平成10.07.23),,19980723,,国土の歴史的景観に寄与しているもの,,富山県,富山県富山市宮尾903,,富山県,,,36.72857000000000,137.20750000000000,屋敷地の東側境の南より，土蔵の南方に建つ小規模で簡素な棟門形式の門。東門とともに屋敷地東方の果樹園や畑に通じる門としてつくられたが，茶室三入庵等とともに広大な庭の点景としての役割も果たしている。,https://bunka.nii.ac.jp/heritage/43967/_132564/43967_132564111225010858464_300.jpg
101,00000579,旧内山家住宅井戸上屋,きゅううちやまけじゅうたくいどうわや,1棟,,登録有形文化財(建造物),住宅,その他工作,,明治,明治末,1868-1911,木造平屋建，瓦葺，建築面積12㎡,,16 － 0038,10,1998.08.04(平成10.08.04),1998.07.23(平成10.07.23),,19980723,,再現することが容易でないもの,,富山県,富山県富山市宮尾903,,富山県,,,36.72908000000000,137.20740000000000,主屋の北方，人力車おき場等とにわ（作業場）の間にある井戸に屋根をかけたあずまや風の建物。４隅にそれぞれ３本の柱を立て，柱の頭を大斗のような形につくり出し，屋根頂部の装飾にも工夫を凝らす等，珍しい意匠・形態をもった建物である。,https://bunka.nii.ac.jp/heritage/43967/_101569/43967_101569111225010858725_300.jpg
101,00000580,旧金岡家住宅主屋,きゅうかなおかけじゅうたくしゅおく,1棟,,登録有形文化財(建造物),住宅,建築物,,明治,明治初期／大正期増築,1868-1911／1912-1925増築,木造平屋建一部２階建，瓦葺，建築面積437㎡,,16 － 0039,10,1998.08.04(平成10.08.04),1998.07.23(平成10.07.23),,19980723,,再現することが容易でないもの,,富山県,富山県富山市新庄町1-5-24,,富山県,,,36.70186000000000,137.25420000000000,薬種業を営んだ家の主屋で，道路に東面する大規模町家。北西に隣接して新屋が建てられた時に接続部等の一部を増築したが，概ね建築当初の様子をよくとどめている。通りに面した広いミセや銘木・色付き壁等を駆使した座敷の室内意匠等に見るべきものがある。,https://bunka.nii.ac.jp/heritage/43967/_101570/43967_101570111225010858980_300.jpg
101,00000581,旧金岡家住宅新屋,きゅうかなおかけじゅうたくしんや,1棟,,登録有形文化財(建造物),住宅,建築物,,大正,大正期,1912-1925,木造平屋建，瓦葺，建築面積246㎡,,16 － 0040,10,1998.08.04(平成10.08.04),1998.07.23(平成10.07.23),,19980723,,再現することが容易でないもの,,富山県,富山県富山市新庄町1-5-24,,富山県,,,36.70203000000000,137.25410000000000,主屋の北西方に接続して建つ接客用の建物。切妻造，妻入の奥行の長い建物で正面に玄関が取り付いた意匠に特徴がある。良質の檜や欅，各種の銘木，趣向を凝らした壁や襖等を用いた室内の意匠にもみどころがある。設計は，清水組の西原兵治と伝える。,https://bunka.nii.ac.jp/heritage/43967/_101571/43967_101571111225010859489_300.jpg
101,00000582,旧金岡家住宅土蔵,きゅうかなおかけじゅうたくどぞう,1棟,,登録有形文化財(建造物),住宅,建築物,,明治,明治期,1868-1911,土蔵造２階建，瓦葺，建築面積35㎡,,16 － 0041,10,1998.08.04(平成10.08.04),1998.07.23(平成10.07.23),,19980723,,国土の歴史的景観に寄与しているもの,,富山県,富山県富山市新庄町1-5-24,,富山県,,,36.70175000000000,137.25400000000000,主屋の東南方に建つ比較的に小規模な切妻造２階建，平入の土蔵。妻に母屋桁と棟木をみせ，隣接する土蔵と意匠をかえている。薬種業関連の物品を納めた建物で，屋敷構えの主要な構成要素のひとつとなっている。,https://bunka.nii.ac.jp/heritage/43967/_101572/43967_101572111225010859997_300.jpg
101,00000583,旧金岡家住宅門,きゅうかなおかけじゅうたくもん,1棟,,登録有形文化財(建造物),住宅,その他工作,,大正,大正期,1912-1925,木造薬医門，瓦葺,,16 － 0042,10,1998.08.04(平成10.08.04),1998.07.23(平成10.07.23),,19980723,,国土の歴史的景観に寄与しているもの,,富山県,富山県富山市新庄町1-5-24,,富山県,,,36.70197000000000,137.25440000000000,道路に東面して主屋の北に建つ瓦葺の薬医門。賓客用に開かれた門で，道からわずかに後退して建ち，新屋へと通じる。屋根にむくりを付けるなど意匠は新屋と類似する。薬種業を営んだ家の往時の繁栄の様子をよく示す建物である。,https://bunka.nii.ac.jp/heritage/43967/_101573/43967_101573111225010900252_300.jpg
101,00000584,旧金岡家住宅塀,きゅうかなおかけじゅうたくへい,1棟,,登録有形文化財(建造物),住宅,その他工作,,大正,大正期,1912-1925,木造，瓦葺，延長77.1m,,16 － 0043,10,1998.08.04(平成10.08.04),1998.07.23(平成10.07.23),,19980723,,国土の歴史的景観に寄与しているもの,,富山県,富山県富山市新庄町1-5-24,,富山県,,,36.70196000000000,137.25430000000000,屋敷地の北面境から西面境にかけて庭を囲うようにめぐらされた瓦葺の屋根塀。西面は，門に接続して左右にのびた形で，南端は主屋に接続する。石製の基礎の上に建ち腰に板を張る丁寧なつくりで，門とともに往時の繁栄の様子を示している。,https://bunka.nii.ac.jp/heritage/43967/_101574/43967_101574111225010900756_300.jpg
101,00000760,井波屋仏壇店,いなみやぶつだんてん,1棟,,登録有形文化財(建造物),産業3次,建築物,,明治,明治38,1905,木造２階建，瓦葺，建築面積96㎡,,16 － 0044,13,1998.09.25(平成10.09.25),1998.09.02(平成10.09.02),,19980902,,国土の歴史的景観に寄与しているもの,,富山県,富山県高岡市守山町37-1,,,,,36.74697000000000,137.01060000000000,間口３間，奥行６間半の小規模な店舗で，内部は過半を土間とし背後に部屋をおく。２階は前１間にテラスを設け，中央部は吹き抜けとする。正面意匠は，鋳物製の唐草模様で飾る大きなアーチ窓を置く独特のデザインになり，明治後期の店舗として親しまれている。,https://bunka.nii.ac.jp/heritage/43967/_101750/43967_101750111225011127956_300.jpg
101,00000761,有藤家住宅,ありとうけじゅうたく,1棟,,登録有形文化財(建造物),住宅,建築物,,大正,大正5,1916,木造２階建，瓦葺，建築面積195㎡,,16 － 0045,13,1998.09.25(平成10.09.25),1998.09.02(平成10.09.02),,19980902,,造形の規範となっているもの,,富山県,富山県高岡市吉久2-3-13,,,,,36.77940000000000,137.05560000000000,加賀藩の蔵米の積出港として栄えた吉久地区にある商家。間口６間半と広く，内部は２列３室の居室部になる。玄関奥の「オイ」は独特の梁組を見せる構成になる。地元の大工の手になり，全体として質は高い。年代は新しいが，基準的な外観意匠の町家である。,https://bunka.nii.ac.jp/heritage/43967/_101751/43967_101751111225011128469_300.jpg
101,00001410,桜橋,さくらばし,1基,,登録有形文化財(建造物),交通,土木構造物,,昭和前,昭和10,1935,鋼単アーチ橋、橋長16m、幅員22m,,16 － 0048,21,1999.12.02(平成11.12.02),1999.11.18(平成11.11.18),,19991118,,国土の歴史的景観に寄与しているもの,,富山県,富山県富山市本町～桜橋通り,,富山県,,,36.69570000000000,137.21630000000000,昭和３年からの富山市都市計画事業の一環で旧神通川廃川地活用のため開削された松川に架かる，橋長約１６m・幅員約２２mの鋼２ヒンジアーチ橋。道路線形に合うよう広幅員斜橋として架けられ，都市計画的にも近代性を備えている。,https://bunka.nii.ac.jp/heritage/43967/_102400/43967_102400111225011804425_300.jpg
101,00001411,小杉町民展示館（旧小杉貯金銀行本店）,こすぎちょうみんてんじかん（きゅうこすぎちょきんぎんこうほんてん）,1棟,,登録有形文化財(建造物),産業3次,建築物,,明治,明治44,1911,土蔵造2階建、瓦葺、建築面積169㎡,,16 － 0049,21,1999.12.02(平成11.12.02),1999.11.18(平成11.11.18),,19991118,,国土の歴史的景観に寄与しているもの,,富山県,富山県射水市戸破4286-1,,小杉町,,,36.72226000000000,137.09920000000000,地域の有力者の共同出資によって創業した，小杉町の中心的銀行の本館。内部改装の後，現在歴史資料展示館として利用されている。黒塗漆喰壁の土蔵造で，窓には金属性の防火扉が取り付けられている。内部には随所に明治後期の洋風意匠が見られる。,https://bunka.nii.ac.jp/heritage/43967/_102401/43967_102401111225011805183_300.jpg
101,00001515,笹津橋,ささづばし,1基,,登録有形文化財(建造物),交通,土木構造物,,昭和前,昭和16,1941,鉄筋コンクリート造単アーチ橋、鉄筋コンクリート造取付桁橋附属、橋長85m、幅員6.5m,,16 － 0050,22,2000.03.02(平成12.03.02),2000.02.15(平成12.02.15),,20000215,,国土の歴史的景観に寄与しているもの,,富山県,富山県富山市笹津～西笹津,,国（国土交通省）,,,36.55777000000000,137.21560000000000,飛騨と富山を結ぶ飛騨街道が神通川を渡るところに架かるメラン式鉄筋コンクリート橋。幅員６ｍ，径間６５ｍの単アーチと各１１ｍの側径間からなる。２本のリブアーチで戦前第３番目の規模をもつ径間を造る。設計担当は富山県土木技手の高野務。,https://bunka.nii.ac.jp/heritage/43967/_102505/43967_102505111225011904899_300.jpg
101,00002027,清都酒造場主屋,きよとしゅぞうじょうしゅおく,1棟,,登録有形文化財(建造物),産業3次,建築物,,明治,明治20頃,1887頃,木造2階建、瓦葺、建築面積176㎡,,16 － 0054,27,2000.12.20(平成12.12.20),2000.12.04(平成12.12.04),,20001204,,造形の規範となっているもの,,富山県,富山県高岡市京町12-12,,,,,36.75617000000000,137.01370000000000,旧氷見街道沿いに建つ商家で，清都家が以前からの造り酒屋を購入したのは明治３９年。銘柄「勝駒」は高岡市民に親しまれている。主屋は明治２０年頃の建設と伝え，２階建，切妻造，桟瓦葺，平入で，登り梁や袖壁及び厚板目板打の庇など伝統的な形式である。,https://bunka.nii.ac.jp/heritage/43967/_103017/43967_103017111225012450619_300.jpg
101,00002028,城戸家住宅主屋,きどけじゅうたくしゅおく,1棟,,登録有形文化財(建造物),産業3次,建築物,,明治,明治初期,1868-1911,木造2階建、瓦葺、建築面積191㎡,,16 － 0055,27,2000.12.20(平成12.12.20),2000.12.04(平成12.12.04),,20001204,,造形の規範となっているもの,,富山県,富山県滑川市瀬羽町1862,,,,,36.76332000000000,137.33550000000000,旧北陸街道沿いに建ち，江戸後期より味噌醤油の醸造業を営んできた商家。主屋は慶応大火後，明治初期に再建。２階建，切妻造，桟瓦葺，平入の形式で，全体に良質の材や銘木を用いる。内部では１階前面に板敷でつくりつけの帳場を持つミセ構えをよく残す。,https://bunka.nii.ac.jp/heritage/43967/_103018/43967_103018111225012451950_300.jpg
101,00002029,廣野家住宅主屋,ひろのけじゅうたくしゅおく,1棟,,登録有形文化財(建造物),住宅,建築物,,大正,大正3,1914,木造2階建、瓦葺、建築面積77㎡,,16 － 0056,27,2000.12.20(平成12.12.20),2000.12.04(平成12.12.04),,20001204,,国土の歴史的景観に寄与しているもの,,富山県,富山県滑川市寺家町254,,,,,36.76458704000000,137.33713313000000,廣野家は旧北陸街道に直交する中川沿いの角地に位置する。主屋は大正３年に深井氏が建設し，昭和初年頃に廣野氏が取得した。入母屋造・妻入・２階建で，外観は繊細な出格子と深い軒が特徴的であり，室内は数寄屋風の書院造で細部まで凝ったつくりになる。,https://bunka.nii.ac.jp/heritage/43967/_103019/43967_103019804236351782094_300.jpg
101,00002030,廣野医院,ひろのいいん,1棟,,登録有形文化財(建造物),文化福祉,建築物,,昭和前,昭和7,1932,木造2階建、瓦葺、建築面積59㎡,,16 － 0057,27,2000.12.20(平成12.12.20),2000.12.04(平成12.12.04),,20001204,,造形の規範となっているもの,,富山県,富山県滑川市寺家町254,,,,,36.76466469000000,137.33719009000000,住宅主屋北面に接続し，通り側を正面とした２階建の洋風建築。正面はクリーム色モルタル仕上げ壁面と鼠色洗出し仕上げの腰や隅部及び軒廻りで構成し，他面を下見板張りとする。正面妻飾に洋風の繊細な彫物や鬼板を用い，昭和初期の意匠をよくあらわしている。,https://bunka.nii.ac.jp/heritage/43967/_103020/43967_103020515399420785799_300.jpg
101,00002031,小沢家住宅店蔵,おざわけじゅうたくみせぐら,1棟,,登録有形文化財(建造物),産業3次,建築物,,明治,明治後期,1868-1911,土蔵造2階建、瓦葺、建築面積63㎡,,16 － 0058,27,2000.12.20(平成12.12.20),2000.12.04(平成12.12.04),,20001204,,造形の規範となっているもの,,富山県,富山県滑川市荒町1618,,,,,36.76617000000000,137.33740000000000,小沢家は明治期より呉服商を営んだ商家である。店蔵は桁行６間・梁間３間・総２階建，切妻造・桟瓦葺で，三代目万治の明治後期に建てられた。黒漆喰塗で観音開扉をもつ重厚な土蔵造で，棟の剣形雪割瓦や鯱，正面の起り屋根の下屋など，地方色も備えている。,https://bunka.nii.ac.jp/heritage/43967/_103021/43967_103021111225012453466_300.jpg
101,00002032,城端織物組合事務棟,じょうはなおりものくみあいじむとう,1棟,,登録有形文化財(建造物),産業2次,建築物,,昭和前,昭和3,1928,木造2階建、瓦葺、建築面積274㎡,,16 － 0059,27,2000.12.20(平成12.12.20),2000.12.04(平成12.12.04),,20001204,,造形の規範となっているもの,,富山県,富山県南砺市城端648-1,,南砺市,,,36.51427000000000,136.90290000000000,城端は近世より絹織物を主産業とし，近代には著しく発展した。この建物は組合事務や出荷のための検査及び乾燥を目的として建てられた。木造・総２階建だが，木骨モルタル・タイル貼で煉瓦造風とした正面は，地方における洋風意匠の一端を物語っている。,https://bunka.nii.ac.jp/heritage/43967/_103022/43967_103022111225012453975_300.jpg
101,00002374,旧南部鋳造所キュポラ,きゅうなんぶちゅうぞうしょきゅぽら,1基,,登録有形文化財(建造物),産業2次,その他工作,,大正,大正13,1924,鉄製キュポラ及び煉瓦・石造煙道よりなる、鉄製吸気管付,,16 － 0060,30,2001.10.29(平成13.10.29),2001.10.12(平成13.10.12),,20011012,,再現することが容易でないもの,,富山県,富山県高岡市金屋本町3-45,,株式会社ノースランド,,,36.75204000000000,137.00680000000000,高岡鋳物発祥地である金屋町の一画に所在。高３．３ｍの鉄製炉，１．５ｍ角・高２．５ｍの角形煙道と０．６ｍ×１．３ｍ断面，長５．６ｍの石造煙道から成る。熱効率を高めるよう石造煙道内には送風鉄管が配置されおり，キューポラ改良の跡が認められる。,https://bunka.nii.ac.jp/heritage/43967/_103364/43967_103364111225012836076_300.jpg
101,00002375,旧南部鋳造所煙突,きゅうなんぶちゅうぞうしょえんとつ,1基,,登録有形文化財(建造物),産業2次,その他工作,,大正,大正13,1924,煉瓦造、高さ15m,,16 － 0061,30,2001.10.29(平成13.10.29),2001.10.12(平成13.10.12),,20011012,,国土の歴史的景観に寄与しているもの,,富山県,富山県高岡市金屋本町3-45,,株式会社ノースランド,,,36.75199000000000,137.00680000000000,炉の約７ｍ南方の地点，石造煙道の南端に接して建つ。基部の平面は１．７８ｍ角で，高さは１４．５ｍ。煉瓦造，イギリス積で，アングル材等で補強され，基部上と頭部に装飾的な帯状部を設ける。高岡鋳物の近代を物語るシンボルとして親しまれている。,https://bunka.nii.ac.jp/heritage/43967/_103365/43967_103365111225012836576_300.jpg
101,00002376,旧宮島村役場,きゅうみやじまむらやくば,1棟,,登録有形文化財(建造物),官公庁舎,建築物,,大正,大正15／昭和61移築,1926／1986移築,木造2階建、瓦葺、建築面積131㎡,,16 － 0062,30,2001.10.29(平成13.10.29),2001.10.12(平成13.10.12),,20011012,,造形の規範となっているもの,,富山県,富山県小矢部市芹川963-1,,,,,36.67637000000000,136.89840000000000,石川県境に近い旧宮島村の村役場を移築して事務所，アトリエ兼住宅として活用。木造２階建，下見板張の洋館で，正面玄関ポーチの屋根形態，正面中央２階上部の半円形ブロークンペディメントと瓦葺のマンサード屋根などの造形意匠は特異。,https://bunka.nii.ac.jp/heritage/43967/_103366/43967_103366537356906799991_300.jpg
101,00002377,上滝発電所,かみだきはつでんしょ,1棟,,登録有形文化財(建造物),生活関連,建築物,,大正,大正13,1924,鉄筋コンクリート造2階建、建築面積678㎡,,16 － 0063,30,2001.10.29(平成13.10.29),2001.10.12(平成13.10.12),,20011012,,国土の歴史的景観に寄与しているもの,,富山県,富山県富山市中滝字小野海浦割3-1,,北陸電力株式会社,,,36.60323000000000,137.31300000000000,富山県県営電気事業第１期の常願寺川水系３発電所のうち最下流に位置する。常願寺川左岸に位置し，松ノ木発電所からの水を落差約６７ｍで導き３機の水車を回す。鉄筋コンクリート造平屋一部２階建で，３発電所のうち最も規模が大きく，屋根を陸屋根状に造る。,https://bunka.nii.ac.jp/heritage/43967/_103367/43967_103367111225012837345_300.jpg
101,00002378,松ノ木発電所,まつのきはつでんしょ,1棟,,登録有形文化財(建造物),生活関連,建築物,,大正,大正13,1924,鉄筋コンクリート造2階建、建築面積537㎡,,16 － 0064,30,2001.10.29(平成13.10.29),2001.10.12(平成13.10.12),,20011012,,国土の歴史的景観に寄与しているもの,,富山県,富山県富山市松木字大下割446,,北陸電力株式会社,,,36.57245000000000,137.34800000000000,大正１０年１１月同時着工された３発電所のひとつで，常願寺川左岸に位置し，中地山発電所の放水を導水し２機の水車を回す。鉄筋コンクリート造平屋一部２階建で，下弦材をアーチにした鉄骨トラスにより切妻状の屋根を造る。,https://bunka.nii.ac.jp/heritage/43967/_103368/43967_103368111225012837872_300.jpg
101,00002379,中地山発電所,なかちやまはつでんしょ,1棟,,登録有形文化財(建造物),生活関連,建築物,,大正,大正13,1924,鉄筋コンクリート造平屋建、建築面積237㎡,,16 － 0065,30,2001.10.29(平成13.10.29),2001.10.12(平成13.10.12),,20011012,,国土の歴史的景観に寄与しているもの,,富山県,富山県富山市中地山字上中地山割1-2,,北陸電力株式会社,,,36.56804000000000,137.36610000000000,富山県電気局による最初の３発電所のうち，常願寺川の最上流に位置し，最も早い大正１３年２月に稼働した。鉄筋コンクリート造，切妻屋根の平屋建で，水車・発電機１対と配電施設等を１室に収める。３発電所とも県内初期鉄筋コンクリート造建築とされる。,https://bunka.nii.ac.jp/heritage/43967/_103369/43967_103369111225012839161_300.jpg
101,00002625,牧田組本社（旧南島商行本店）,まきたぐみほんしゃ（きゅうみなみじましょうこうほんてん）,1棟,,登録有形文化財(建造物),産業3次,建築物,,大正,大正4,1915,木造2階建、銅板葺、建築面積81㎡,,16 － 0066,32,2002.03.12(平成14.03.12),2002.02.14(平成14.02.14),,20020214,,国土の歴史的景観に寄与しているもの,,富山県,富山県射水市庄西町1-18-33,,,,,36.78900000000000,137.06780000000000,富山湾に注ぐ庄川の河口に築かれたオフィスビル。木造躯体に褐色煉瓦を貼り，腰，隅柱，蛇腹などに花崗岩を用いる。前方に張り出し重量感のある石造柱に挟まれた入口を中心に，上げ下げ窓を左右対称に配する外観とする。伏木港における海運の近代化を物語る。,https://bunka.nii.ac.jp/heritage/43967/_103615/43967_103615111225013103555_300.jpg
101,00002761,牛島閘門,うしじまこうもん,1基,,登録有形文化財(建造物),交通,土木構造物,,昭和前,昭和9頃,1934頃,コンクリート造閘門、全長25m、閘室幅4.5m,,16 － 0067,33,2002.07.16(平成14.07.16),2002.06.25(平成14.06.25),,20020625,,国土の歴史的景観に寄与しているもの,,富山県,富山県富山市木場町16-1,,富山県,,,36.70982000000000,137.21130000000000,富岩運河・いたち川間の水位調節のために設けられた全長２５ｍの小規模な閘門。給排水用小扉付の木製合掌門扉ヒンジ部に石材を用いる以外は，閘頭・閘尾部と閘室を一体的にコンクリートで築く。富山の近代化を支えた富岩運河の代表的土木構造物の一つ。,https://bunka.nii.ac.jp/heritage/43967/_103751/43967_103751111225013228546_300.jpg
101,00002763,小牧ダム,こまきだむ,1基,,登録有形文化財(建造物),生活関連,土木構造物,,昭和前,昭和5,1930,重力式コンクリート造堰堤、堤長301m、堤高79m、副堰堤及び魚道付,,16 － 0069,33,2002.07.16(平成14.07.16),2002.06.25(平成14.06.25),,20020625,,国土の歴史的景観に寄与しているもの,,富山県,富山県砺波市庄川町大字小牧字矢ヶ瀬74,,関西電力株式会社,,,36.55703000000000,137.00850000000000,庄川に築かれた発電用堰堤。アーチ平面の本格的な重力式コンクリート造ハイダムで，中央部にテンターゲート付越流部，右岸側にエレベータ式魚道，左岸側に運材設備を設ける。地震力を考慮した設計により飛躍的に大型化した構造物で，東洋一のダムと呼ばれた。,https://bunka.nii.ac.jp/heritage/43967/_103753/43967_103753111225013229316_300.jpg
101,00004226,富山市郷土博物館（富山城）,とやましきょうどはくぶつかん（とやまじょう）,1棟,,登録有形文化財(建造物),文化福祉,建築物,,昭和中,昭和29,1954,鉄筋コンクリート造4階建、瓦葺、建築面積725㎡,,16 － 0070,43,2004.08.17(平成16.08.17),2004.07.23(平成16.07.23),,20040723,,国土の歴史的景観に寄与しているもの,,富山県,富山県富山市本丸1-62,,富山市,,,36.69275000000000,137.21180000000000,富山城跡南西寄り，二の丸から本丸への正面入口の石垣上に建つ。鉄筋コンクリート造４階建で，入母屋造の望楼をのせた３層４階からなる天守，２層２階の小天守状櫓など，城郭意匠で纏めている。地域の景観の核として，広く市民に親しまれている。,https://bunka.nii.ac.jp/heritage/43967/_105216/43967_105216111225014807918_300.jpg
101,00004227,庄川合口堰堤,しょうがわごうぐちえんてい,1基,,登録有形文化財(建造物),産業1次,土木構造物,,昭和前,昭和14,1939,重力式鉄筋コンクリート造堰堤、堤長103m、堤高18m、取水口・ポンプ室及び魚道付,,16 － 0071,43,2004.08.17(平成16.08.17),2004.07.23(平成16.07.23),,20040723,,国土の歴史的景観に寄与しているもの,,富山県,富山県砺波市金屋,,富山県,,,36.57527000000000,136.99590000000000,礪波平野を貫流する庄川に点在していた用水取入堰を集約した灌漑・発電用堰堤。１０門のラジアルゲートを付けた鉄筋コンクリート造堰堤で，左岸下流に魚道，両岸上流に取水口を設ける。我国屈指の大扇状地を潤し，穀倉地帯の近代化を支える。施工間組。,https://bunka.nii.ac.jp/heritage/43967/_105217/43967_105217111225014809152_300.jpg
101,00004228,冨田家住宅,とみたけじゅうたく,1棟,,登録有形文化財(建造物),住宅,建築物,,昭和前,昭和3,1928,木造2階建、瓦葺、建築面積365㎡,,16 － 0072,43,2004.08.17(平成16.08.17),2004.07.23(平成16.07.23),,20040723,,国土の歴史的景観に寄与しているもの,,富山県,富山県南砺市安居188-1,,,,,36.60062000000000,136.88740000000000,入母屋造，平入の木造２階建で，４周に下屋を廻し，屋根は総桟瓦葺である。伝統的な形式を基調とするが，全体に良材を用い，質の高い大工技術が隅々まで発揮されている。透き漆塗を施した木部，ガラスを多用した建具などにも，近代の和風意匠が表れている。,https://bunka.nii.ac.jp/heritage/43967/_105218/43967_105218111225014809667_300.jpg
101,00005267,旧伏木測候所庁舎,きゅうふしきそっこうじょちょうしゃ,1棟,,登録有形文化財(建造物),官公庁舎,建築物,,明治,明治42,1909,木造平屋建、瓦葺、建築面積154㎡,,16 － 0073,49,2006.03.23(平成18.03.23),2006.03.02(平成18.03.02),,20060302,,国土の歴史的景観に寄与しているもの,,富山県,富山県高岡市古国府12-5,,高岡市,,,36.79236000000000,137.05610000000000,北辺を接道する敷地の中央に北面して建つ。桁行１６ｍ，梁間９ｍ規模，寄棟造，桟瓦葺の木造平屋建。外壁を下見板張とし，小壁を白漆喰塗とする。正面中央には切妻造の玄関ポーチを付ける。洋風の外観が測候施設の近代化の過程を景観に留める。,https://bunka.nii.ac.jp/heritage/43967/_106255/43967_106255111225021000848_300.jpg
101,00005268,旧伏木測候所測風塔,きゅうふしきそっこうじょそくふうとう,1棟,,登録有形文化財(建造物),官公庁舎,建築物,,昭和前,昭和13,1938,鉄筋コンクリート造3階建、建築面積13㎡,,16 － 0074,49,2006.03.23(平成18.03.23),2006.03.02(平成18.03.02),,20060302,,国土の歴史的景観に寄与しているもの,,富山県,富山県高岡市古国府12-5,,高岡市,,,36.79244000000000,137.05630000000000,庁舎北東隅の現業室の前に建ち，渡り廊下で接続する。３．６ｍ四方のＲＣ造３階建で，屋根は陸屋根として屋上に測風計を置き，３階東側を屋外階段とする。西面に入口を設け，西側及び北側外壁の各階に縦長の両開窓を設ける。施設の独特な景観を表している。,https://bunka.nii.ac.jp/heritage/43967/_106256/43967_106256111225021003191_300.jpg
101,00005269,有礒正八幡宮本殿,ありそしょうはちまんぐうほんでん,1棟,,登録有形文化財(建造物),宗教,建築物,,明治,明治16,1883,木造平屋建、銅板葺、建築面積21㎡,,16 － 0075,49,2006.03.23(平成18.03.23),2006.03.02(平成18.03.02),,20060302,,国土の歴史的景観に寄与しているもの,,富山県,富山県高岡市横田町3-1-1,,宗教法人有礒正八幡宮,,,36.74990000000000,137.00340000000000,桁行２間半，梁間２間半の規模で，屋根は東西棟の入母屋造の前後に千鳥破風を付して銅板葺とし，棟に千木と鰹木を置く。組物は拳鼻付の平三斗で中備に蟇股を置き，軒は二軒繁垂木とする。正面及び両側面に縁と高欄を廻し，両側面に脇障子を設ける。,https://bunka.nii.ac.jp/heritage/43967/_106257/43967_106257111225021005011_300.jpg
101,00005270,有礒正八幡宮釣殿,ありそしょうはちまんぐうつりどの,1棟,,登録有形文化財(建造物),宗教,建築物,,昭和前,昭和10,1935,木造平屋建、銅板葺、建築面積30㎡,,16 － 0076,49,2006.03.23(平成18.03.23),2006.03.02(平成18.03.02),,20060302,,国土の歴史的景観に寄与しているもの,,富山県,富山県高岡市横田町3-1-1,,宗教法人有礒正八幡宮,,,36.74985000000000,137.00340000000000,桁行３間，梁間２間の規模で，南北棟の銅板葺で，柱を角柱とし，組物を置かずに直接桁を受ける。柱間を蔀戸とし，内側に御簾をかける。幣殿と床高を揃え，両側面に縁と高欄を設ける。本殿と幣殿，拝殿をつなぐ空間として境内景観を形成している。,https://bunka.nii.ac.jp/heritage/43967/_106258/43967_106258111225021007558_300.jpg
101,00005271,有礒正八幡宮拝殿及び幣殿,ありそしょうはちまんぐうはいでんおよびへいでん,1棟,,登録有形文化財(建造物),宗教,建築物,,昭和前,昭和10,1935,木造平屋建、銅板葺、建築面積159㎡,,16 － 0077,49,2006.03.23(平成18.03.23),2006.03.02(平成18.03.02),,20060302,,国土の歴史的景観に寄与しているもの,,富山県,富山県高岡市横田町3-1-1,,宗教法人有礒正八幡宮,,,36.74975000000000,137.00340000000000,拝殿は１室で，正側面の各間に板戸を建て込み，正面に向拝を付ける。幣殿は一段高い板敷の床とし，左右に翼室を張出す。屋根は両殿を一体化し，八棟造，銅板葺とし，棟に千木，鰹木を置く。社殿の正面を構成し，伝統技法を用いつつ変化に富んだ外観を見せる。,https://bunka.nii.ac.jp/heritage/43967/_106259/43967_106259111225021009143_300.jpg
101,00008108,伊東家住宅（旧松下家住宅）主屋,いとうけじゅうたく（きゅうまつしたけじゅうたく）しゅおく,1棟,,登録有形文化財(建造物),住宅,建築物,,昭和前,昭和5年,1930,木造2階建、瓦葺、建築面積179㎡,,16 － 0085,67,2010.05.20(平成22.05.20),2010.04.28(平成22.04.28),,20100428,,造形の規範となっているもの,,富山県,富山県高岡市中田字木村4760,,,,,36.68182000000000,137.02000000000000,南面の庭園側に縁とテラスを付ける住宅。傾斜の強い入母屋屋根を中心に、切妻屋根や破風を付け、大きな突き上げ状屋根窓を開ける。中廊下型平面やハーフティンバー風の妻面処理など、山田醇の作風がよく示される。内部は青や鶯色等の色壁で、斬新な感性が窺える。,https://bunka.nii.ac.jp/heritage/43967/_132506/43967_132506131122020029936_300.jpg
101,00008109,旧宮崎酒造店舗兼主屋,きゅうみやざきしゅぞうてんぽけんしゅおく,1棟,,登録有形文化財(建造物),産業2次,建築物,,江戸,江戸末期／明治前期・昭和前期・平成21年改修,1830-1867／1868-1911・1926-1988・2009改修,木造2階建、瓦葺、建築面積376㎡,,16 － 0086,67,2010.05.20(平成22.05.20),2010.04.28(平成22.04.28),,20100428,,造形の規範となっているもの,,富山県,富山県滑川市瀬羽町1860-1他,,,,,36.76304000000000,137.33530000000000,旧北陸街道に南面してたつ、間口１４ｍの平入町家。木造２階建、東西棟の切妻造桟瓦葺で、正面に下屋や庇を付ける。西にトオリニワ、東にミセや座敷などを二列に配し、ワクノウチと称する架構をオエなどに残す。当地域における大規模な商家の特徴をよく備える。,https://bunka.nii.ac.jp/heritage/43967/_132507/43967_132507111225032916918_300.jpg
101,00008110,旧宮崎酒造酒蔵,きゅうみやざきしゅぞうさかぐら,1棟,,登録有形文化財(建造物),産業2次,建築物,,明治,明治中期／昭和40年頃改修,1868-1911／1965頃改修,土蔵造2階建、瓦葺、建築面積277㎡,,16 － 0087,67,2010.05.20(平成22.05.20),2010.04.28(平成22.04.28),,20100428,,国土の歴史的景観に寄与しているもの,,富山県,富山県滑川市瀬羽町1860-1他,,,,,36.76323000000000,137.33490000000000,南北に長い短冊状の敷地北端に位置する。起りのある切妻造桟瓦葺で、Ｌ字形平面になる土蔵造２階建、建築面積２７７㎡。南妻面２階外壁を焼杉板張とし、深い庇を架けて戸前とする。外壁は漆喰壁で、正面腰壁を黒漆喰仕上げとするなど重厚な佇まいをなす。,https://bunka.nii.ac.jp/heritage/43967/_132508/43967_132508111225032918684_300.jpg
101,00008111,旧宮崎酒造麹蔵,きゅうみやざきしゅぞうこうじぐら,1棟,,登録有形文化財(建造物),産業2次,建築物,,明治,明治中期,1868-1911,土蔵造2階建、瓦葺、建築面積40㎡,,16 － 0088,67,2010.05.20(平成22.05.20),2010.04.28(平成22.04.28),,20100428,,国土の歴史的景観に寄与しているもの,,富山県,富山県滑川市瀬羽町1860-1他,,,,,36.76308000000000,137.33510000000000,酒蔵と正面を並べて建つ。桁行８．２ｍ梁間５．４ｍの土蔵造２階建。酒蔵の屋根を葺き下ろし、置屋根とする。正面は１階に掛子塗の両開を吊り、扉内側に家紋をあしらい、２階に窓二ヶ所を穿ち、片開の掛子塗戸を装置するなど、存在感のある外観構成とする。,https://bunka.nii.ac.jp/heritage/43967/_132509/43967_132509111225032921959_300.jpg
101,00008112,旧宮崎酒造衣装蔵,きゅうみやざきしゅぞういしょうぐら,1棟,,登録有形文化財(建造物),産業2次,建築物,,明治,明治期,1868-1911,土蔵造3階建、瓦葺、建築面積49㎡,,16 － 0089,67,2010.05.20(平成22.05.20),2010.04.28(平成22.04.28),,20100428,,国土の歴史的景観に寄与しているもの,,富山県,富山県滑川市瀬羽町1860-1他,,,,,36.76327000000000,137.33520000000000,中庭を介して主屋の北、酒蔵の東に位置する。桁行９．６ｍ梁間５．９ｍの３階建土蔵、東西棟の切妻造桟瓦葺で、正面に深い庇を出し、戸前とする。掛子塗の両開扉には鏝による家紋を飾り、開口上部に鳥居状のまぐさを有す。酒蔵等とともに重厚な敷地景観をつくる。,https://bunka.nii.ac.jp/heritage/43967/_132510/43967_132510111225032924100_300.jpg
101,00008271,若井家住宅主屋（旧中越銀行）,わかいけじゅうたくしゅおく（きゅうちゅうえつぎんこう）,1棟,,登録有形文化財(建造物),産業3次,建築物,,明治,明治35年／大正7年移築,1902／1918移築,木造2階建、瓦葺、建築面積139㎡,,16 － 0090,68,2010.09.10(平成22.09.10),2010.09.10(平成22.09.10),,20100910,,国土の歴史的景観に寄与しているもの,,富山県,富山県高岡市川原町65-6,,,,,36.75033000000000,137.00970000000000,道路に東面する敷地中央に位置する。入母屋造妻入桟瓦葺で正面に深い下屋を出す。桁行１５ｍ梁間９．２ｍの木造２階建。漆喰塗で塗り込め、２階正面には掛子塗の両扉を吊る開口を三ヶ所穿つ。下屋正面両端には洋風の石柱を建てる。近代地方銀行の好例。,https://bunka.nii.ac.jp/heritage/43967/_133913/43967_133913111225033441303_300.jpg
101,00009449,丸谷家住宅（旧津野家住宅）主屋,まるやけじゅうたく（きゅうつのけじゅうたく）しゅおく,1棟,,登録有形文化財(建造物),住宅,建築物,,明治,明治中期／大正期増築,1883～1897／1912～1926増築,木造平屋一部2階建、瓦葺、建築面積143㎡,,16 － 0091,74,2013.03.29(平成25.03.29),2013.03.29(平成25.03.29),,20130329,,国土の歴史的景観に寄与しているもの,,富山県,富山県高岡市吉久2-2618,,,,,36.77925000000000,137.05510000000000,旧放生津往来に面し、木造平屋一部二階建、切妻造桟瓦葺。正面外観は繊細な格子と簓子下見板張で構成し、内部は、ゲンカンの奥に天井を吹抜けとするオイを配し、南側の増築部を座敷とする。建ちの低い外観で、舟運で栄えた吉久における町家の古式を伝える。,https://bunka.nii.ac.jp/heritage/43967/_194242/43967_194242140908092628836_300.jpg
101,00009450,丸谷家住宅（旧津野家住宅）土蔵,まるやけじゅうたく（きゅうつのけじゅうたく）どぞう,1棟,,登録有形文化財(建造物),住宅,建築物,,大正,大正後期,1919～1926,土蔵造2階建、瓦葺、建築面積30㎡,,16 － 0092,74,2013.03.29(平成25.03.29),2013.03.29(平成25.03.29),,20130329,,国土の歴史的景観に寄与しているもの,,富山県,富山県高岡市吉久2-2618,,,,,36.77935000000000,137.05500000000000,主屋後方に庭を挟んで南北棟で建ち、廊下で接続する。土蔵造二階建、桁行四・六メートル梁間四・〇メートル、切妻造桟瓦葺で、東面に蔵前を設け、外壁は下見板張及び簓子下見板張とする。東面出入口の土戸には、家紋のほか、梅に鶴、波に亀の鏝絵を飾る。,https://bunka.nii.ac.jp/heritage/43967/_194243/43967_194243140908092629840_300.jpg
101,00009750,北陸銀行本店,ほくりくぎんこうほんてん,1棟,,登録有形文化財(建造物),産業3次,建築物,,昭和中,昭和36／昭和48増築,1961／1973増築,鉄骨鉄筋コンクリート造6階地下2階建、建築面積2864㎡、塔屋付,,16 － 0093,76,2013.12.24(平成25.12.24),2013.12.24(平成25.12.24),,20131224,,国土の歴史的景観に寄与しているもの,,富山県,富山県富山市堤町通り1-2-9他,,株式会社北陸銀行,営利法人,,36.68909000000000,137.21790000000000,鉄骨鉄筋コンクリート造六階地下二階建、三階建塔屋付。六層分の柱列を表し、柱間に小割の石を貼詰める。重厚な構造ながら、軽快な外観を構成し、一階では表通りから裏通りの商店街に通じるコロネードを通す。富山市の戦後復興期を象徴する大型事務所建築。,https://bunka.nii.ac.jp/heritage/43967/_195579/43967_195579140905092424951_300.jpg
101,00010130,齋賀家住宅主屋,さいがけじゅうたくしゅおく,1棟,,登録有形文化財(建造物),住宅,建築物,,江戸,江戸末期／大正期・昭和後期改修,1830～1868／1912～1926・1966～1989改修,木造2階建、瓦葺、建築面積136㎡,,16 － 0094,78,2014.10.07(平成26.10.07),2014.10.07(平成26.10.07),,20141007,,国土の歴史的景観に寄与しているもの,,富山県,富山県南砺市井波字八日町3036他,,南砺市,市区町村,,36.55998000000000,136.97110000000000,井波別院瑞泉寺の参道に東面する。二階正面に格子をたて、両端に袖壁を設けるほか、庇を厚板葺として軒先に霧除けのガンギを設け、地方的特色を示す。内部は右手に土間を通し、揚戸を残すミセ、上部吹抜けのオイ等を並べる。門前町の往時の景観を伝える町家。,https://bunka.nii.ac.jp/heritage/43967/_197963/43967_197963151214161941044_300.jpg
101,00010131,齋賀家住宅土蔵,さいがけじゅうたくどぞう,1棟,,登録有形文化財(建造物),住宅,建築物,,昭和前,昭和前期,1926～1945,土蔵造2階建、瓦葺、建築面積68㎡,,16 － 0095,78,2014.10.07(平成26.10.07),2014.10.07(平成26.10.07),,20141007,,国土の歴史的景観に寄与しているもの,,富山県,富山県南砺市井波字八日町3036他,,南砺市,市区町村,,36.55989000000000,136.97090000000000,敷地西奥に東西棟で建つ。土蔵造二階建、桁行九・一メートル梁間四・四メートル、切妻造、置屋根式の桟瓦葺で、南面に下屋を設け、中央の戸口に扉を開く。外壁は漆喰塗で腰に簓子下見板を張り、正背面に鉄扉付きの窓を並べ鳥居枠で飾る。建ちの高い大型土蔵。,https://bunka.nii.ac.jp/heritage/43967/_197964/43967_197964151214161941761_300.jpg
101,00010132,松風樓東棟,しょうふうろうひがしとう,1棟,,登録有形文化財(建造物),産業3次,建築物,,明治,明治33／昭和前期改修,1900／1926～1945改修,木造2階建、瓦葺、建築面積449㎡,,16 － 0096,78,2014.10.07(平成26.10.07),2014.10.07(平成26.10.07),,20141007,,国土の歴史的景観に寄与しているもの,,富山県,富山県南砺市福光字川原7471-8,,,,,36.56307000000000,136.87660000000000,小矢部川の西岸に位置する料理旅館。木造二階建、寄棟造の本館の北に、中庭を介して二階建、寄棟造の離れを増築している。本館一階東側の厨房上の二階を広間とする他は六畳から十畳の客室とする。各室毎に趣向を凝らした造作をもつ近代数寄屋建築である。,https://bunka.nii.ac.jp/heritage/43967/_197965/43967_197965150317212557651_300.jpg
101,00010133,松風樓西棟,しょうふうろうにしとう,1棟,,登録有形文化財(建造物),産業3次,建築物,,明治,明治33／昭和26頃移築・昭和33頃改修,1900／1951頃移築・1958頃改修,木造2階建、瓦葺、建築面積168㎡,,16 － 0097,78,2014.10.07(平成26.10.07),2014.10.07(平成26.10.07),,20141007,,国土の歴史的景観に寄与しているもの,,富山県,富山県南砺市福光字川原7471-15他,,,,,36.56307000000000,136.87660000000000,敷地の西寄りに東棟から中庭を介して建つ木造二階建、正面入母屋造で、北に平屋建の浴室、便所が接続する。一階に仏間と次の間を設け、東棟への回廊は南半を土間とし、中間に中庭に通じる戸口を設ける。二階軒の漆喰蛇腹など、当地の茶屋建築の特徴を示す。,https://bunka.nii.ac.jp/heritage/43967/_197966/43967_197966150317212558378_300.jpg
101,00010134,松風樓一の蔵,しょうふうろういちのくら,1棟,,登録有形文化財(建造物),産業3次,建築物,,昭和前,昭和前期／昭和26頃移築,1926～1945／1951頃移築,土蔵造2階建、瓦葺、建築面積35㎡,,16 － 0098,78,2014.10.07(平成26.10.07),2014.10.07(平成26.10.07),,20141007,,国土の歴史的景観に寄与しているもの,,富山県,富山県南砺市福光字川原7471-15,,,,,36.56307000000000,136.87660000000000,敷地北辺西寄りに建つ、土蔵造二階建、切妻造で、置屋根式の桟瓦葺とする。基礎はコンクリート造とし、外壁は漆喰塗で、北面は竪板張とする。南側に戸前の下屋を付け、戸口の扉枠は鳥居形で黒漆喰塗とし、鉄製両開扉を吊り込む。小屋組は垂木小屋である。,https://bunka.nii.ac.jp/heritage/43967/_197967/43967_197967150317212559065_300.jpg
101,00010135,松風樓二の蔵,しょうふうろうにのくら,1棟,,登録有形文化財(建造物),産業3次,建築物,,昭和前,昭和前期／昭和26頃移築,1926～1945／1951頃移築,土蔵造2階建、瓦葺、建築面積40㎡,,16 － 0099,78,2014.10.07(平成26.10.07),2014.10.07(平成26.10.07),,20141007,,国土の歴史的景観に寄与しているもの,,富山県,富山県南砺市福光字川原7471-15,,,,,36.56307000000000,136.87660000000000,敷地の北西角に一の蔵と並んで建つ。土蔵造二階建、切妻造で、置屋根式の桟瓦葺とする。基礎はコンクリート造とし、外壁は漆喰塗で、北面と西面は竪板張とする。南側に戸前の下屋を付け、一の蔵の戸前から入る。戸口は片引土戸とする。角地の景観を整える蔵。,https://bunka.nii.ac.jp/heritage/43967/_197968/43967_197968150317212559841_300.jpg
101,00010136,竹内源造記念館（旧小杉町役場庁舎）,たけうちげんぞうきねんかん（きゅうこすぎまちやくばちょうしゃ）,1棟,,登録有形文化財(建造物),官公庁舎,建築物,,昭和前,昭和9／昭和34改修・平成25移築,1934／1959改修・2013移築,木造2階建、瓦葺、建築面積219㎡,,16 － 0100,78,2014.10.07(平成26.10.07),2014.10.07(平成26.10.07),,20141007,,再現することが容易でないもの,,富山県,富山県射水市戸破2289-1,,射水市,市区町村,,36.72043000000000,137.09770000000000,旧小杉町の中心部に位置する木造二階建の役場庁舎。下見板張の外観で、正面中央に玄関ポーチ、屋根中央に塔屋を付す。正面のマンサード型破風の妻壁を飾るアカンサス模様や、二階旧議場の鳳凰鏝絵など、地元の左官職人竹内源造による質の高い鏝絵彫刻が特徴。,https://bunka.nii.ac.jp/heritage/43967/_197969/43967_197969150317212600536_300.jpg
101,00010434,旧大谷家住宅主屋,きゅうおおたにけじゅうたくしゅおく,1棟,,登録有形文化財(建造物),住宅,建築物,,昭和前,昭和10／昭和20改修,1935／1945改修,木造2階建、瓦葺、建築面積244㎡,,16 － 0101,80,2015.03.26(平成27.03.26),2015.03.26(平成27.03.26),,20150326,,国土の歴史的景観に寄与しているもの,,富山県,富山県小矢部市水落35,,小矢部市,市区町村,,36.67280000000000,136.90950000000000,南東を正面とする桁行四間半梁間七間、切妻造桟瓦葺の妻入りで、三面に幅一間の下屋を付け、北西隅に後設の離れ座敷などが接続する。平面は三列構成で、良材を用いた上質な造作になる。いわゆるアズマダチ形式住宅で、当地の邸宅に相応しい外観を呈している。,https://bunka.nii.ac.jp/heritage/43967/_199393/43967_199393151005165619616_300.jpg
101,00010435,旧大谷家住宅納屋,きゅうおおたにけじゅうたくなや,1棟,,登録有形文化財(建造物),住宅,建築物,,昭和前,昭和18,1943,木造2階建、瓦葺、建築面積58㎡,,16 － 0102,80,2015.03.26(平成27.03.26),2015.03.26(平成27.03.26),,20150326,,国土の歴史的景観に寄与しているもの,,富山県,富山県小矢部市水落35,,小矢部市,市区町村,,36.67265000000000,136.90960000000000,主屋の前方に対面して建つ。桁行五間梁間二間半の二階建、切妻造平入りで、北面に下屋を設ける。屋根は桟瓦葺とし、外壁は漆喰塗と下見板張を併用する。内部は各階とも二室に分かれ、異なる内装とする。丁寧な造作の附属屋で、当地の屋敷構えの特徴を示す。,https://bunka.nii.ac.jp/heritage/43967/_199394/43967_199394151005165621375_300.jpg
101,00010436,旧大谷家住宅風呂場,きゅうおおたにけじゅうたくふろば,1棟,,登録有形文化財(建造物),住宅,建築物,,昭和前,昭和10／平成25改修,1935／2013改修,土蔵造平屋建、瓦葺、建築面積9.8㎡,,16 － 0103,80,2015.03.26(平成27.03.26),2015.03.26(平成27.03.26),,20150326,,国土の歴史的景観に寄与しているもの,,富山県,富山県小矢部市水落35,,小矢部市,市区町村,,36.67285000000000,136.90970000000000,主屋の東方にある外風呂。切妻造桟瓦葺、簓子下見板張で、正面を主屋に向ける。桁行一間半梁間一間の規模で、左端に設けた焚口は三方が開放になる。右側面の低い下屋は犬小屋で、堅牢な形式としている。昭和前期の暮らしの有り様を物語る施設。,https://bunka.nii.ac.jp/heritage/43967/_199395/43967_199395151005165623226_300.jpg
101,00010437,旧大谷家住宅灰小屋,きゅうおおたにけじゅうたくはいごや,1棟,,登録有形文化財(建造物),住宅,建築物,,昭和前,昭和10／平成25改修,1935／2013改修,土蔵造平屋建、瓦葺、建築面積1.4㎡,,16 － 0104,80,2015.03.26(平成27.03.26),2015.03.26(平成27.03.26),,20150326,,国土の歴史的景観に寄与しているもの,,富山県,富山県小矢部市水落35,,小矢部市,市区町村,,36.67289000000000,136.90970000000000,桁行梁間とも約四尺で、切妻造桟瓦葺、外壁は板張で上部を漆喰塗とする。北面は上部を板扉、下部に取出口を付ける。内壁と床は土塗として防火性をもたせる。南側に建つ風呂場の灰を集積する小規模な施設で、伝統的な農村生活の一端を示している。,https://bunka.nii.ac.jp/heritage/43967/_199396/43967_199396151005165625085_300.jpg
101,00010438,旧大谷家住宅作業納屋,きゅうおおたにけじゅうたくさぎょうなや,1棟,,登録有形文化財(建造物),住宅,建築物,,昭和前,昭和19,1944,木造2階建、瓦葺、建築面積74㎡,,16 － 0105,80,2015.03.26(平成27.03.26),2015.03.26(平成27.03.26),,20150326,,国土の歴史的景観に寄与しているもの,,富山県,富山県小矢部市水落35,,小矢部市,市区町村,,36.67291000000000,136.90980000000000,敷地東辺に建つ。桁行七間梁間二間半、一部二階建の切妻造桟瓦葺で、西面に下屋を設ける。南五間分は土間で吹抜けの作業空間とし、二階の根太床のある北寄り二間分に道具を収納した。真壁造の外壁は東面と北と南の側面を下見板張とし、積雪地らしい形式になる。,https://bunka.nii.ac.jp/heritage/43967/_199397/43967_199397151005165626917_300.jpg
101,00010439,旧大谷家住宅表門,きゅうおおたにけじゅうたくおもてもん,1棟,,登録有形文化財(建造物),住宅,その他工作物,,昭和中,昭和36,1961,木造、瓦葺、間口3.1m,,16 － 0106,80,2015.03.26(平成27.03.26),2015.03.26(平成27.03.26),,20150326,,国土の歴史的景観に寄与しているもの,,富山県,富山県小矢部市水落35,,小矢部市,市区町村,,36.67267000000000,136.90980000000000,間口一〇尺の一間薬医門で、五平の柱を立て、雲形肘木の組物で虹梁大瓶束笈形付の妻飾を受ける。軒は二軒繁垂木で、切妻造屋根と両脇潜戸の屋根は桟瓦葺とする。透彫欄間付の板扉も手の込んだ施工で、屋敷正面中央の表構えに相応しい形式と質の高さを誇る。,https://bunka.nii.ac.jp/heritage/43967/_199398/43967_199398151005165629357_300.jpg
101,00010440,旧大谷家住宅塀,きゅうおおたにけじゅうたくへい,1棟,,登録有形文化財(建造物),住宅,その他工作物,,昭和中,昭和36,1961,木造、瓦葺、総延長153m,,16 － 0107,80,2015.03.26(平成27.03.26),2015.03.26(平成27.03.26),,20150326,,国土の歴史的景観に寄与しているもの,,富山県,富山県小矢部市水落35,,小矢部市,市区町村,,,,表門両側の南辺、東辺及び北辺を囲う。南塀は六尺柱間、東塀と北塀は五尺五寸柱間で、桟瓦葺とする。南塀は大振りの玉石二段積基礎で、大和張の竪板と虫食い板欄間にするが、東塀と北塀は簡素な形式になる。当地方の典型的な塀で田園風景とよく調和している。,https://bunka.nii.ac.jp/heritage/43967/_199399/43967_199399151005165631300_300.jpg
101,00010583,富山県庁舎本館,とやまけんちょうしゃほんかん,1棟,,登録有形文化財(建造物),官公庁舎,建築物,,昭和前,昭和10年／昭和46年改修,1935／1971改修,鉄筋コンクリート造一部鉄骨鉄筋コンクリート造4階建、建築面積3315㎡,,16－0108,81,2015.08.04(平成27.08.04),2015.08.04(平成27.08.04),,20150804,,造形の規範となっているもの,,富山県,富山県富山市新総曲輪1-7,,富山県,都道府県,,36.69527000000000,137.21130000000000,日字形平面で正面中央玄関部を二段に迫り出し、窓間に柱形を付して垂直性を強調する。外壁タイル貼で隅部を円弧状とし、縦長窓を並べる。庇や壁頂にテラコッタを飾り、知事室や特別室などは当初の内装を残す。重厚な外観で富山県戦前期を代表する大規模建築。,https://bunka.nii.ac.jp/heritage/43967/_201157/43967_201157151228153413122_300.jpg
101,00010763,じょうはな庵（旧中谷家住宅）主屋,じょうはないおり（きゅうなかたにけじゅうたく)しゅおく,1棟,,登録有形文化財(建造物),住宅,建築物,,明治,明治38頃／昭和25頃改修・平成13移築,1905頃／1950頃改修・2001移築,木造2階建、瓦葺、建築面積84㎡,,16 ‐ 0109,82,2015.11.17(平成27.11.17),2015.11.17(平成27.11.17),,20151117,,国土の歴史的景観に寄与しているもの,,富山県,富山県南砺市城端字大工町644-1他,,,,,36.51403000000000,136.90230000000000,城端別院善徳寺の門前町で通りに面する。間口三間半で右手に土間を通し、左手に八畳三室を並べる。二階は土間の一部を上方吹抜けとする他は居室を配する。登りせがいの軒や厚板葺の庇、二階正面の袖壁など当地の町家の特徴をよく示し、門前の景観に寄与する。,https://bunka.nii.ac.jp/heritage/43967/_201598/43967_201598160322112105512_300.jpg
101,00010764,じょうはな庵（旧中谷家住宅）土蔵,じょうはないおり（きゅうなかたにけじゅうたく)どぞう,1棟,,登録有形文化財(建造物),住宅,建築物,,明治,明治中期,1883～1897,土蔵造2階建、瓦葺、建築面積19㎡,,16 ‐ 0110,82,2015.11.17(平成27.11.17),2015.11.17(平成27.11.17),,20151117,,国土の歴史的景観に寄与しているもの,,富山県,富山県南砺市城端字大工町647-11,,,,,36.51395000000000,136.90240000000000,敷地南東隅に南北棟で建つ。桁行四・五メートル梁間四・二メートル、土蔵造二階建、切妻造、置屋根式の桟瓦葺である。外壁漆喰塗で、西面南寄りに開く戸口と、二階東面に穿つ小窓に鳥居形の額縁を表す。小屋は登梁形式とする。門前町の小路に趣を添える土蔵。,https://bunka.nii.ac.jp/heritage/43967/_201599/43967_201599160322112106856_300.jpg
101,00010765,旧大鋸屋小学校体育館,きゅうおがやしょうがっこうたいいくかん,1棟,,登録有形文化財(建造物),学校,建築物,,昭和前,昭和4,1929,木造平屋建、瓦葺、建築面積412㎡,,16 ‐ 0111,82,2015.11.17(平成27.11.17),2015.11.17(平成27.11.17),,20151117,,国土の歴史的景観に寄与しているもの,,富山県,富山県南砺市大鋸屋125他,,大鋸屋集落会,市区町村,,36.49930000000000,136.90030000000000,柱形と柱間の下見板張を意匠的に表した外観をもち、妻壁は二段に迫出して下見板を台形に張り、意匠を凝らす。クイーンポストの小屋組は木材と鋼材を併用し、桁行方向もトラスで固めるという、独特な工法をもつ。県内に残る戦前の木造学校建築として希少な遺構。,https://bunka.nii.ac.jp/heritage/43967/_201600/43967_201600735654727868124_300.jpg
101,00011113,旧馬場家住宅主屋,きゅうばばけじゅうたくしゅおく,1棟,,登録有形文化財(建造物),住宅,建築物,,明治,明治前期／昭和前期改修,1868～1882／1926～1945改修,木造2階建、瓦葺、建築面積512㎡、塀付,,16 - 0112,84,2016.08.01(平成28.08.01),2016.08.01(平成28.08.01),,20160801,,国土の歴史的景観に寄与しているもの,,富山県,富山県富山市東岩瀬町107-2,,富山市,市区町村,,36.75701000000000,137.22850000000000,明治六年の大火後に再建したと伝える。東面する三列四段の正方形平面を中心に、北寄りに土間を通し、西側に居室を張り出す。内装は漆塗を施す数寄屋造。東岩瀬の中でも最大規模の住宅で、豪壮な正面構えで東岩瀬の港町の景観を構成する建物である。,https://bunka.nii.ac.jp/heritage/43967/_205220/43967_205220490133256015329_300.jpg
101,00011114,旧馬場家住宅前蔵,きゅうばばけじゅうたくまえぐら,1棟,,登録有形文化財(建造物),住宅,建築物,,明治,明治前期,1868～1882,土蔵造3階建、瓦葺、建築面積47㎡,,16 - 0113,84,2016.08.01(平成28.08.01),2016.08.01(平成28.08.01),,20160801,,国土の歴史的景観に寄与しているもの,,富山県,富山県富山市東岩瀬町107-2,,富山市,市区町村,,36.75709000000000,137.22860000000000,主屋の北隣りに、平側を街路に面して建つ土蔵造三階建。入口は主屋側に設け、土間を介して接続する。街路側には一、二階通しの縦長窓を二所設け、外側を引違ガラス戸の出窓で覆う。鳥居枠に四段の掛子塗とする両開土扉の扉口廻りなどに丁寧な仕事を見せる。,https://bunka.nii.ac.jp/heritage/43967/_205221/43967_205221356369785497929_300.jpg
101,00011115,旧馬場家住宅壱番蔵及び弐番蔵,きゅうばばけじゅうたくいちばんぐらおよびにばんぐら,1棟,,登録有形文化財(建造物),住宅,建築物,,明治,明治前期,1868～1882,土蔵造3階建、瓦葺、建築面積157㎡,,16 - 0114,84,2016.08.01(平成28.08.01),2016.08.01(平成28.08.01),,20160801,,造形の規範となっているもの,,富山県,富山県富山市東岩瀬町107-2,,富山市,市区町村,,36.75716000000000,137.22820000000000,主屋の北西寄りに南面して建つ二戸前の塗籠土蔵。内部は三階建で、土扉を鳥居枠、四段掛子塗とするなど細かな意匠を持つ。外壁は腰部を布石積洗出仕上げとし、戸前は梁間一間半の下屋形式で、主屋に矩折れに接続する。廻船業で繁栄した歴史を物語る上質な土蔵。,https://bunka.nii.ac.jp/heritage/43967/_205222/43967_205222905631510150953_300.jpg
101,00011116,旧馬場家住宅米蔵,きゅうばばけじゅうたくこめぐら,1棟,,登録有形文化財(建造物),住宅,建築物,,明治,明治前期,1868～1882,土蔵造平屋建、瓦葺、建築面積267㎡,,16 - 0115,84,2016.08.01(平成28.08.01),2016.08.01(平成28.08.01),,20160801,,造形の規範となっているもの,,富山県,富山県富山市東岩瀬町107-2,,富山市,市区町村,,36.75716000000000,137.22800000000000,敷地西北隅の最奧部に建つ。桁行八間梁間七間の大規模な平屋建土蔵。南面に吹き放ちの下屋を設け、扉二所を開く。河港側にあたる西面には鞘板壁を設ける。敷地内の他の蔵と比較して簡素な意匠になるが、内壁一面に貫を多く入れるなどの特色を備える。,https://bunka.nii.ac.jp/heritage/43967/_205223/43967_205223960706404285453_300.jpg
101,00011117,旧馬場家住宅西門及び西塀,きゅうばばけじゅうたくにしもんおよびにしへい,1棟,,登録有形文化財(建造物),住宅,その他工作物,,明治,明治前期,1868～1882,門　木造、瓦葺、間口2.5m　塀　木造、瓦葺、延長37m,,16 - 0116,84,2016.08.01(平成28.08.01),2016.08.01(平成28.08.01),,20160801,,国土の歴史的景観に寄与しているもの,,富山県,富山県富山市東岩瀬町107-2,,富山市,市区町村,,36.75705000000000,137.22790000000000,敷地西側を画す。中央やや南寄りに位置する西門は一間腕木門で桟瓦葺の起り屋根をかける。両側の塀は玉石積の上に基礎石を置き、腰竪板張に小壁を白漆喰塗、桟瓦葺とする。廻船問屋の住宅として、河港側を上質の屋敷構えとしたことが伺える。,https://bunka.nii.ac.jp/heritage/43967/_205224/43967_205224805886436965410_300.jpg
101,00011118,金作家住宅主屋,かなさくけじゅうたくしゅおく,1棟,,登録有形文化財(建造物),住宅,建築物,,明治,明治26,1893,木造2階建、瓦葺、建築面積124㎡,,16 - 0117,84,2016.08.01(平成28.08.01),2016.08.01(平成28.08.01),,20160801,,国土の歴史的景観に寄与しているもの,,富山県,富山県高岡市内免1-53他,,,,,36.75237000000000,137.00740000000000,高岡の明治期の景観を今に伝える町家。細長い間口四間の敷地に建ち、正面北端に玄関を開いて土間を通す。近隣に多い一列四段型ではなく二列四段型の平面構成をとる。正面下屋庇を厚板葺とし、笄を載せるのも地域の特徴。座敷の彫刻欄間等にも意匠を凝らす。,https://bunka.nii.ac.jp/heritage/43967/_205225/43967_205225008686230936587_300.jpg
101,00011119,金作家住宅東土蔵,かなさくけじゅうたくひがしどぞう,1棟,,登録有形文化財(建造物),住宅,建築物,,明治,明治28,1895,土蔵造2階建、瓦葺、建築面積39㎡,,16 - 0118,84,2016.08.01(平成28.08.01),2016.08.01(平成28.08.01),,20160801,,造形の規範となっているもの,,富山県,富山県高岡市内免1-53他,,,,,36.75241000000000,137.00730000000000,主屋の背面側に庭を介して建つ。主屋に面した東面に扉口を開き、下屋を付す。主体部の屋根は西土蔵と一体で覆屋状にかける。扉周りは鳥居枠を設け、両側に梁形を伸ばし、扉両脇は梁形より下部を黒漆喰塗とするなど意匠を凝らす。,https://bunka.nii.ac.jp/heritage/43967/_205226/43967_205226665317507795217_300.jpg
101,00011120,金作家住宅西土蔵,かなさくけじゅうたくにしどぞう,1棟,,登録有形文化財(建造物),住宅,建築物,,大正,大正期,1912～1926,土蔵造2階建、瓦葺、建築面積41㎡,,16 - 0119,84,2016.08.01(平成28.08.01),2016.08.01(平成28.08.01),,20160801,,造形の規範となっているもの,,富山県,富山県高岡市内免1-53他,,,,,36.75247000000000,137.00720000000000,東土蔵の背面側に接して建つ。背面側の置屋根を東土蔵側にそのまま伸ばして一体的に覆屋状にかける。外壁は全面漆喰塗で、妻側にある扉口に鳥居枠を設ける他は外壁に装飾的要素をほとんど持たず、土扉も設けないなど、全体的に簡素な作りとなる。,https://bunka.nii.ac.jp/heritage/43967/_205227/43967_205227927786410513262_300.jpg
101,00011121,田中小学校旧本館,たなかしょうがっこうきゅうほんかん,1棟,,登録有形文化財(建造物),学校,建築物,,昭和前,昭和11／平成元・同25改修,1936／1989・2013改修,木造2階建、瓦葺、建築面積621㎡,,16 - 0120,84,2016.08.01(平成28.08.01),2016.08.01(平成28.08.01),,20160801,,造形の規範となっているもの,,富山県,富山県滑川市加島町230-1,,滑川市,市区町村,,36.75958000000000,137.33390000000000,木造二階建の校舎。桁行六〇・〇メートル、梁間一〇・〇メートルで、正面側に片廊下を通して背面側に教室等を配する。天井・電気器具・内装木部・手摺などにルネサンス、アールデコ、幾何学模様などを用いるなど、意匠を凝らした昭和前期学校建築の好例。,https://bunka.nii.ac.jp/heritage/43967/_205228/43967_205228904971093359231_300.jpg
101,00011665,富山県立魚津高等学校講堂,とやまけんりつうおづこうとうがっこうこうどう,1棟,,登録有形文化財(建造物),学校,建築物,,昭和前,昭和12年／昭和30年・同62年・平成28年改修,1937／1955・1987・2016改修,鉄筋コンクリート造平屋一部2階建、瓦葺、建築面積535㎡,,16-0121,87,2017.06.28(平成29.06.28),2017.06.28(平成29.06.28),,20170628,,造形の規範となっているもの,,富山県,富山県魚津市吉島945,,富山県,都道府県,,36.83027000000000,137.41160000000000,桁行二九・三メートル、梁間一六・四メートルの鉄筋コンクリート造講堂。屋根は切妻造で釉薬瓦を葺く。内部は三方にギャラリーを設け、小屋は鉄骨トラスとする。比較的早い時期の鉄筋コンクリート造で、柱型や屋根の端部を立ち上げるなど特色ある意匠を持つ。,https://bunka.nii.ac.jp/heritage/43967/_210681/43967_210681590566551403848_300.jpg
101,00011666,有隣庵（旧土肥家住宅）主屋,ゆうりんあん（きゅうどいけじゅうたく）しゅおく,1棟,,登録有形文化財(建造物),住宅,建築物,,江戸,慶応3年（1867）,1867,木造2階建、瓦葺、建築面積185㎡,,16-0122,87,2017.06.28(平成29.06.28),2017.06.28(平成29.06.28),,20170628,,国土の歴史的景観に寄与しているもの,,富山県,富山県滑川市瀬羽町1848,,,,,36.76309000000000,137.33540000000000,旧北陸街道に北面する当地最古の町家。正面五間の切妻造平入、桟瓦葺で、庇は板葺。左勝手に土間を通し、床上部は街路側のミセ以外は二列構成とし、オイをワクノウチとする。正面二階両脇にコワキと呼ばれる袖壁を立ち上げるなど、地域の景観を特徴付けている。,https://bunka.nii.ac.jp/heritage/43967/_210682/43967_210682219275921171466_300.jpg
101,00011667,菅田家住宅主屋,すがたけじゅうたくしゅおく,1棟,,登録有形文化財(建造物),住宅,建築物,,明治,明治前期／平成22年改修,1868～1882／2010改修,木造3階建、瓦葺、建築面積192㎡,,16-0123,87,2017.06.28(平成29.06.28),2017.06.28(平成29.06.28),,20170628,,国土の歴史的景観に寄与しているもの,,富山県,富山県滑川市瀬羽町1855,,,,,36.76280000000000,137.33510000000000,旧北陸街道に北面する町家。木造三階建、切妻造桟瓦葺で、右勝手に土間を通し、オイをワクノウチとする。背面西寄りには台所を突出させる。二階は街路側を物置とし、その背後に諸室を配するなど当地の標準的な構成を取る。地域の街路景観を形成する町家である。,https://bunka.nii.ac.jp/heritage/43967/_210683/43967_210683296642830440835_300.jpg
101,00011668,菅田家住宅衣装蔵,すがたけじゅうたくいしょうぐら,1棟,,登録有形文化財(建造物),住宅,建築物,,江戸,安政2年（1855）／平成27年改修,1855／2015改修,土蔵造2階建、鉄板葺、建築面積40㎡,,16-0124,87,2017.06.28(平成29.06.28),2017.06.28(平成29.06.28),,20170628,,造形の規範となっているもの,,富山県,富山県滑川市瀬羽町1854-1,,,,,36.76272000000000,137.33540000000000,切妻造平入の二階建土蔵で、背面側の別の蔵と一体として覆屋の屋根がかけられている。外壁は白漆喰塗で、土戸の内側と外壁腰上部を黒漆喰とする。正面一階左には扉口を開き、その右、及び二階二所に大きな鳥居枠を付す窓を設けるなど、意匠を凝らす。,https://bunka.nii.ac.jp/heritage/43967/_210684/43967_210684757684287395542_300.jpg
101,00011669,養照寺本堂,ようしょうじほんどう,1棟,,登録有形文化財(建造物),宗教,建築物,,大正,大正5年頃／平成22年改修,1916頃／2010改修,木造平屋建、瓦葺、建築面積452㎡,,16-0125,87,2017.06.28(平成29.06.28),2017.06.28(平成29.06.28),,20170628,,国土の歴史的景観に寄与しているもの,,富山県,富山県滑川市領家町551他,,宗教法人養照寺,宗教法人,,36.76232000000000,137.33560000000000,滑川旧市街の西端に建つ。本堂は入母屋造桟瓦葺、桁行五間、梁間六間、向拝三間の規模で、正面及び両側面前半に切目縁を巡らす。向拝以外は全て円柱で、外陣を一室として広くとり、各柱間に虹梁を架け装飾豊かな内部空間とする。滑川の歴史を伝える真宗本堂。,https://bunka.nii.ac.jp/heritage/43967/_210685/43967_210685171735929064047_300.jpg
101,00011670,滑川館本館,なめりかわかんほんかん,1棟,,登録有形文化財(建造物),住宅,建築物,,明治,明治20年／明治後期改修,1887／1898～1912改修,木造2階建、瓦葺、建築面積121㎡,,16-0128,87,2017.06.28(平成29.06.28),2017.06.28(平成29.06.28),,20170628,,国土の歴史的景観に寄与しているもの,,富山県,富山県滑川市神家町288-1,,,,,36.76415000000000,137.33800000000000,木造二階建、切妻造桟瓦葺で、向かって左に土間玄関を設け、その奥はワクノウチとする。一階は二列八室、二階は吹抜けを囲むように客室四室を配す。地域の標準的な平面構成の住宅から改造されたもので、正面の瀟洒な格子戸などが、地域の景観を形作っている。,https://bunka.nii.ac.jp/heritage/43967/_210686/43967_210686411694296293608_300.jpg
101,00011671,滑川館道具蔵,なめりかわかんどうぐぐら,1棟,,登録有形文化財(建造物),住宅,建築物,,明治,明治20年,1887,土蔵造2階建、瓦葺、建築面積25㎡,,16-0127,87,2017.06.28(平成29.06.28),2017.06.28(平成29.06.28),,20170628,,国土の歴史的景観に寄与しているもの,,富山県,富山県滑川市神家町288-1,,,,,36.76420000000000,137.33810000000000,滑川旧市街地の中心部に位置し、本館東面背面側に戸前を接して建つ。本館と同時期に建てられた土蔵造二階建、切妻造桟瓦葺で、白漆喰塗で黒塗の腰竪板を高く張る背面側を街路側に見せる。屋敷構を構成する土蔵である。,https://bunka.nii.ac.jp/heritage/43967/_210687/43967_210687471710902977808_300.jpg
101,00011672,櫟原神社本殿,いちはらじんじゃほんでん,1棟,,登録有形文化財(建造物),宗教,建築物,,明治,明治5年,1872,木造平屋建、銅板葺、建築面積7.0㎡,,16-0128,87,2017.06.28(平成29.06.28),2017.06.28(平成29.06.28),,20170628,,造形の規範となっているもの,,富山県,富山県滑川市神明町1177,,宗教法人櫟原神社,宗教法人,,36.76883000000000,137.34070000000000,櫟原神社は滑川旧市街地の東端部に位置する。石垣を設けた高い位置に建つ切妻造平入の一間社で、屋根は銅板葺。正面に唐破風屋根の向拝を設け、三方に切目縁を廻らし高欄、脇障子を設ける。総欅造りで、井波の彫刻師の手になる脇障子などの彫刻も質が高い。,https://bunka.nii.ac.jp/heritage/43967/_210688/43967_210688250319849579949_300.jpg
101,00011673,櫟原神社拝殿,いちはらじんじゃはいでん,1棟,,登録有形文化財(建造物),宗教,建築物,,大正,大正4年頃,1915頃,木造平屋建、瓦葺、建築面積156㎡,,16-0129,87,2017.06.28(平成29.06.28),2017.06.28(平成29.06.28),,20170628,,造形の規範となっているもの,,富山県,富山県滑川市神明町1177,,宗教法人櫟原神社,宗教法人,,36.76870000000000,137.34050000000000,入母屋造正背面中央に、切妻造を突出させる構成で、屋根は桟瓦葺。入母屋造部分は前方を拝殿、後方を薬殿と称し、背面突出部は前方を幣殿、奥を祭文殿とする。祭文殿は床高を上げ、前面に木階三級を付す。独特の構成を取る拝所建築の好例である。,https://bunka.nii.ac.jp/heritage/43967/_210689/43967_210689003341266323209_300.jpg
101,00011674,櫟原神社一の鳥居,いちはらじんじゃいちのとりい,1基,,登録有形文化財(建造物),宗教,その他工作物,,江戸,安政7年（1860）,1860,石造、間口4.6m、高さ4.5m,,16-0130,87,2017.06.28(平成29.06.28),2017.06.28(平成29.06.28),,20170628,,国土の歴史的景観に寄与しているもの,,富山県,富山県滑川市神明町1177,,宗教法人櫟原神社,宗教法人,,36.76840000000000,137.34030000000000,境内西寄りに置かれた石造明神鳥居。拝殿へは矩折れに続く。間口四・六メートル、高さ四・五メートルの規模で、内転びの柱に貫を通し、その中央には額束を建てる。柱頭には台輪を載せて笠木・島木を受けている。北陸街道沿いの歴史的景観をいまに伝える鳥居。,https://bunka.nii.ac.jp/heritage/43967/_210690/43967_210690500845061704035_300.jpg
101,00011675,櫟原神社二の鳥居,いちはらじんじゃにのとりい,1基,,登録有形文化財(建造物),宗教,その他工作物,,大正,大正10年,1921,石造、間口3.5m、高さ3.9m,,16-0131,87,2017.06.28(平成29.06.28),2017.06.28(平成29.06.28),,20170628,,国土の歴史的景観に寄与しているもの,,富山県,富山県滑川市神明町1177,,宗教法人櫟原神社,宗教法人,,36.76853000000000,137.34030000000000,一の鳥居を入って矩折れに進み、拝殿を望む方向に建つ石造鳥居。間口三・五メートル、高さ三・九メートルの規模で、貫の両端を柱の外に延ばさない中山鳥居である。均整のとれた鳥居で、滑川旧市街地の東端部にあって、拝殿前の境内景観を整える鳥居である。,https://bunka.nii.ac.jp/heritage/43967/_210691/43967_210691972966573744147_300.jpg
101,00011676,荒町庵（旧米田楼）,あらまちいおり（きゅうよねだろう）,1棟,,登録有形文化財(建造物),産業3次,建築物,,明治,明治後期／昭和2年・同22年・平成28年改修,1898～1912／1927・1947・2016改修,木造2階建、瓦葺、建築面積76㎡,,16-0132,87,2017.06.28(平成29.06.28),2017.06.28(平成29.06.28),,20170628,,国土の歴史的景観に寄与しているもの,,富山県,富山県南砺市城端字西下町185,,一般社団法人城端景観・文化保全機構,非営利法人,,36.51633000000000,136.90220000000000,城端中心地に建つ。当初は米田楼と称する料理屋であった。東西方向に長い敷地に建つ木造二階建、切妻造平入、外壁下見板張で、東面街路側を正面とする。屋根は施釉瓦。正面二階には縁を設けて曳山を眺める空間とする。城端の賑わいを今に伝える建物。,https://bunka.nii.ac.jp/heritage/43967/_210692/43967_210692805001658922347_300.jpg
101,00011931,旧田中家住宅主屋,きゅうたなかけじゅうたくしゅおく,1棟,,登録有形文化財(建造物),住宅,建築物,,大正,大正6年頃／昭和6年改修,1917,木造2階建、瓦葺、建築面積266㎡,,16-133,88,2017.10.27(平成29.10.27),2017.10.27(平成29.10.27),,20171027,,造形の規範となっているもの,,富山県,富山県射水市本江字足洗2280,,特定非営利活動法人アポロン,ＮＰＯ法人,,36.75865000000000,137.17330000000000,田中家は網元に端を発し、漆器類の商いや金融業等で財を成した家。木造二階建、入母屋造桟瓦葺で、三方に玄関、茶室便所、化粧の間をそれぞれ突出させる。平面は三列九室で、ヒノキの総柾材による式台玄関をはじめとして、軸部材・造作共に贅を尽くす。,https://bunka.nii.ac.jp/heritage/43967/_211079/43967_211079242505141025532_300.jpg
101,00011932,旧田中家住宅離れ,きゅうたなかけじゅうたくはなれ,1棟,,登録有形文化財(建造物),住宅,建築物,,大正,大正6年,1917,木造平屋建、瓦葺、建築面積40㎡,,16-134,88,2017.10.27(平成29.10.27),2017.10.27(平成29.10.27),,20171027,,造形の規範となっているもの,,富山県,富山県射水市本江字足洗2280,,特定非営利活動法人アポロン,ＮＰＯ法人,,36.75879000000000,137.17330000000000,主屋の北西端に接続する。桁行五間、梁間二間の木造平屋建で、東縁を南北に通し、西側に南から八畳、台所、浴室を配す。浴室天井をヒノキの総柾材で四角錐状に打上げ、中央には数寄屋風意匠の繰抜き彫刻を用いた換気口とするなど、意匠を凝らした離れである。,https://bunka.nii.ac.jp/heritage/43967/_211080/43967_211080827274363832576_300.jpg
101,00011933,旧田中家住宅北の土蔵及び南の土蔵,きゅうたなかけじゅうたくきたのどぞうおよびみなみのどぞう,1棟,,登録有形文化財(建造物),住宅,建築物,,明治,明治20年／明治43年頃増築,1887,土蔵造2階建、瓦葺、建築面積48㎡,,16-135,88,2017.10.27(平成29.10.27),2017.10.27(平成29.10.27),,20171027,,国土の歴史的景観に寄与しているもの,,富山県,富山県射水市本江字足洗2280,,特定非営利活動法人アポロン,ＮＰＯ法人,,36.75869000000000,137.17310000000000,主屋の西側に建つ。桁行三間、梁間二間半の北の土蔵と、桁行四間、梁間二間半の南の土蔵が物置を挟んで並び、全体に置屋根を架ける。出入口の土扉は木瓜型の黒漆喰塗とし、内部は一、二階とも一室で、小屋組は登梁形式。敷地景観に寄与する土蔵である。,https://bunka.nii.ac.jp/heritage/43967/_211081/43967_211081801161776889442_300.jpg
101,00011934,旧田中家住宅庭門,きゅうたなかけじゅうたくにわもん,1棟,,登録有形文化財(建造物),住宅,その他工作物,,昭和前,昭和8年頃,1933,木造、瓦葺、間口4.5m,,16-136,88,2017.10.27(平成29.10.27),2017.10.27(平成29.10.27),,20171027,,国土の歴史的景観に寄与しているもの,,富山県,富山県射水市本江字足洗2280,,特定非営利活動法人アポロン,ＮＰＯ法人,,36.75865000000000,137.17350000000000,主屋表玄関の左脇に位置し、主屋の南東側に広がる内庭と通路を画す門。木造、桟瓦葺の腕木門で、腕木下には彫刻持送りを設け、まぐさ上部は捻子竪格子とする。簡素ではあるが、敷地景観を整える上で欠くことのできない門である。,https://bunka.nii.ac.jp/heritage/43967/_211082/43967_211082625453890274431_300.jpg
101,00012318,歓盛寺本堂,かんせいじほんどう,1棟,,登録有形文化財(建造物),宗教,建築物,,江戸,江戸中期／明治18年・同39年・平成13年改修,1661～1751,木造平屋建、瓦葺、建築面積308㎡,,16-137,90,2018.05.10(平成30.05.10),2018.05.10(平成30.05.10),,20180510,,造形の規範となっているもの,,富山県,富山県高岡市二塚1316,,宗教法人歓盛寺,宗教法人,,36.70503000000000,137.00250000000000,庄川左岸の田園地帯にあり、東面して建つ。入母屋造桟瓦葺、内部は八間取方丈形式で、前面に幅一間の広縁を通し、中央南寄りに向拝、背面に開山堂を張出す。側廻りは舟肘木。全体に簡明なつくりで、当地における江戸中期の曹洞宗末寺本堂の様相を伝える。,https://bunka.nii.ac.jp/heritage/43967/_354326/43967_354326669836028386270_300.jpg
101,00012319,歓盛寺離座敷,かんせいじはなれざしき,1棟,,登録有形文化財(建造物),宗教,建築物,,明治,明治39年,1906,木造2階建、瓦葺、建築面積57㎡,,16-138,90,2018.05.10(平成30.05.10),2018.05.10(平成30.05.10),,20180510,,国土の歴史的景観に寄与しているもの,,富山県,富山県高岡市二塚1316,,宗教法人歓盛寺,宗教法人,,36.70515000000000,137.00240000000000,尼僧学林の講師控所として建てられた。総二階建、東西棟の切妻造桟瓦葺で、本堂背面下手に接続する。上下階にそれぞれ八畳二室を置き、奥の部屋はともに座敷飾の床を備える。質素ながら丁寧なつくりで、最初期の曹洞宗尼僧教育の様子を伝える貴重な遺構。,https://bunka.nii.ac.jp/heritage/43967/_354328/43967_354328579793368126738_300.jpg
101,00012320,歓盛寺山門,かんせいじさんもん,1棟,,登録有形文化財(建造物),宗教,その他工作物,,明治,明治後期,1898～1912,木造、瓦葺、間口4.7m,,16-139,90,2018.05.10(平成30.05.10),2018.05.10(平成30.05.10),,20180510,,国土の歴史的景観に寄与しているもの,,富山県,富山県高岡市二塚1316,,宗教法人歓盛寺,宗教法人,,36.70496000000000,137.00280000000000,東西棟の切妻造桟瓦葺、三間一戸薬医門で、境内正面に建つ。組物は実肘木付三斗、格天井を張り、軒は一軒繁垂木とする。妻飾の虹梁大瓶束笈形付、中備蟇股、冠木廻り等を精緻な彫刻で飾る。瑞龍寺の脇門を移築したとも伝わり、風格ある寺観をかたちづくる。,https://bunka.nii.ac.jp/heritage/43967/_354330/43967_354330143737974765268_300.jpg
101,00012321,白山宮鞘堂,はくさんぐうさやどう,1棟,,登録有形文化財(建造物),宗教,建築物,,江戸,宝暦10年(1760)／大正10年増築、昭和55年移築,1760,木造平屋建、茅葺、建築面積38㎡,,16-140,90,2018.05.10(平成30.05.10),2018.05.10(平成30.05.10),,20180510,,造形の規範となっているもの,,富山県,富山県南砺市上梨字家平713他,,宗教法人白山宮,宗教法人,,36.58799000000000,136.91910000000000,五箇山の上梨地区にある白山宮本殿の鞘堂。入母屋造茅葺妻入、軸部は角柱に絵様肘木を載せ、軒はせがい造とし、正面を虹梁と蟇股で飾る。内部は土間の内陣に本殿を安置し、外陣は板敷で格天井に天井絵を描く。豪雪地帯における信仰形態を反映した宗教施設。,https://bunka.nii.ac.jp/heritage/43967/_354332/43967_354332065487726770392_300.jpg
101,00012521,富山電気ビルディング本館,とやまでんきびるでぃんぐほんかん,1棟,,登録有形文化財(建造物),産業3次,建築物,,昭和前,昭和11年／昭和32年増築,1936,鉄筋コンクリート造5階地下1階建、建築面積2087㎡、塔屋付,,16 － 0141,91,2018.11.02(平成30.11.02),2018.11.02(平成30.11.02),,20181102,,造形の規範となっているもの,,富山県,富山県富山市桜橋通り3,,富山電気ビルデイング株式会社,営利法人,,,,富山駅と市街地中心部を結ぶ幹線道路沿いに西面して建つ。鉄筋コンクリート造５階地下１階建で、外観は柱形を並べて垂直性を強調し、中央部を高くして大きなバルコニーをつくり出し、両端に丸窓を設けるなど表情に変化をつける。県内初の本格的オフィスビル。,https://bunka.nii.ac.jp/heritage/43967/_367816/43967_367816190525364019414_300.jpg
101,00012522,富山電気ビルディング新館,とやまでんきびるでぃんぐしんかん,1棟,,登録有形文化財(建造物),産業3次,建築物,,昭和中,昭和31年／昭和38年・同40年増築,1956,鉄筋コンクリート造6階地下1階建、建築面積1156㎡,,16 － 0142,91,2018.11.02(平成30.11.02),2018.11.02(平成30.11.02),,20181102,,国土の歴史的景観に寄与しているもの,,富山県,富山県富山市桜橋通り3,,富山電気ビルデイング株式会社,営利法人,,,,北面道路沿いに建つ、本館とＬ字形をなす鉄筋コンクリート造６階地下１階建のビル。本館と同じ富永譲吉の設計による全体にシンプルでモダンな意匠が特徴で、本館同様、柱形や窓など機能上の必須要素のみを巧みに構成した外観は増築の違和感を感じさせない。,https://bunka.nii.ac.jp/heritage/43967/_367817/43967_367817818129227972318_300.jpg
101,00012728,芳里家住宅主屋,ほりけじゅうたくしゅおく,1棟,,登録有形文化財(建造物),住宅,建築物,,明治,明治14年頃／明治43年・平成25年改修,1881,木造平屋造、瓦葺、建築面積345㎡,,16 － 143,92,2019.03.29(平成31.03.29),2019.03.29(平成31.03.29),,20190329,,国土の歴史的景観に寄与しているもの,,富山県,富山県砺波市堀内50-1,,,,,36.65011583000000,136.96864583000000,市北部の田園地帯にある農家で、主屋は敷地中央に東面して建つ。間口の広い切妻造桟瓦葺妻入の平屋建で、正面の妻にアズマダチの意匠を表す。北に土間、南に4列に室を配し、南側面西端に角屋で座敷を設ける。砺波平野の農村景観のランドマーク的存在。,https://bunka.nii.ac.jp/heritage/43967/_367631/43967_367631014016914260915_300.jpg
101,00012729,芳里家住宅土蔵,ほりけじゅうたくどぞう,1棟,,登録有形文化財(建造物),住宅,建築物,,明治,明治6年／昭和16年改修,1873,土蔵造2階建、瓦葺、建築面積21㎡,,16 － 144,92,2019.03.29(平成31.03.29),2019.03.29(平成31.03.29),,20190329,,国土の歴史的景観に寄与しているもの,,富山県,富山県砺波市堀内50-1,,,,,36.65011583000000,136.96864583000000,主屋背面に建つ家財蔵。置屋根式の切妻造桟瓦葺で、東面中央に扉口を開く。外壁は漆喰塗で腰モルタル洗出し仕上とし、軒に鉢巻二段を廻す。内部は上下階とも一室で、床板敷、壁横板張、垂木小屋組とする。砺波平野の伝統的な農家の構成に欠かせない附属建物。,https://bunka.nii.ac.jp/heritage/43967/_367632/43967_367632015063725516614_300.jpg
101,00012730,芳里家住宅長屋門,ほりけじゅうたくながやもん,1棟,,登録有形文化財(建造物),住宅,建築物,,明治,明治43年頃／平成28年改修,1910,木造平屋建、瓦葺、建築面積44㎡,,16 － 145,92,2019.03.29(平成31.03.29),2019.03.29(平成31.03.29),,20190329,,国土の歴史的景観に寄与しているもの,,富山県,富山県砺波市堀内50-1,,,,,36.65011583000000,136.96864583000000,敷地東面の中央に建つ。切妻造桟瓦葺の平屋建で、中央南寄りに開く門口の北側に2室を配し、門口内の南面と西面北半に各出入口を設ける。門口は木太い鏡柱と冠木を組んで両開き板扉を備え、冠木上の出梁で軒桁を受ける。旧家の風格ある表構えを形成している。,https://bunka.nii.ac.jp/heritage/43967/_367633/43967_367633409291938371574_300.jpg
101,00012889,吉江地区招魂社（旧吉江小学校奉安殿）,よしえちくしょうこんしゃ（きゅうよしえしょうがっこうほうあんでん）,1棟,,登録有形文化財(建造物),学校,建築物,,昭和前,昭和5年／昭和32年移築,1930,石造平屋建、金属板葺、建築面積3.5㎡,,16 － 146,93,2019.09.10(令和1.09.10),2019.09.10(令和1.09.10),,20190910,,造形の規範となっているもの,,富山県,富山県南砺市荒木725,,吉江地域づくり協議会,その他,,36.55521389000000,136.88071111000000,地区公園の一角にあり、高い二重基壇上に北面して建つ。石造で、方形の主体部前面にエンタシス付の柱を立て、アーキトレーブと大振りのコーニスを廻し、切妻造の屋根を載せる。西洋古典様式を取り入れた和洋折衷の上質なつくりで、戦前の奉安殿の好例を示す。,https://bunka.nii.ac.jp/heritage/43967/_367997/43967_367997754207342205130_300.jpg
101,00012890,桂湯,かつらゆ,1棟,,登録有形文化財(建造物),文化福祉,建築物,,昭和前,昭和5年頃／昭和37年・同41年・同52年改修,1930,木造2階建、瓦葺及び金属板葺、建築面積155㎡,,16 － 147,93,2019.09.10(令和1.09.10),2019.09.10(令和1.09.10),,20190910,,国土の歴史的景観に寄与しているもの,,富山県,富山県南砺市城端字大工町590他,,,,,36.51420556000000,136.90153056000000,旧城端町中心部の短冊形敷地に建ち、東から脱衣場棟、浴場棟、住居棟を並べる。脱衣場棟は木造二階建、正面銅板張の階境に蛇腹、軒に切妻破風を付し、中央の上部隅切の開口部に男女別出入口をまとめる。門前町の景観に彩りを添える洋風意匠のもと銭湯。,https://bunka.nii.ac.jp/heritage/43967/_504381/43967_504381615477405063542_300.jpg
101,00012891,冨田家住宅味噌蔵,とみたけじゅうたくみそぐら,1棟,,登録有形文化財(建造物),住宅,建築物,,昭和前,昭和前期,1926～1945,土蔵造平屋建、瓦葺、建築面積28㎡,,16 － 148,93,2019.09.10(令和1.09.10),2019.09.10(令和1.09.10),,20190910,,国土の歴史的景観に寄与しているもの,,富山県,富山県南砺市安居188,,,,,36.60079167000000,136.88707778000000,主屋の北側に南面して建つ。土蔵造平屋建、東西棟の切妻造、置屋根式桟瓦葺で、戸口前に板敷の下屋を設け、主屋に接続する。外壁漆喰塗で、水切下に簓子下見板を張る。内部は東半を板敷、西半を土間とする。主屋と並び建ち、屋敷中心部の構えを引き立てる。,https://bunka.nii.ac.jp/heritage/43967/_368087/43967_368087577698387689424_300.jpg
101,00012892,冨田家住宅南土蔵,とみたけじゅうたくみなみどぞう,1棟,,登録有形文化財(建造物),住宅,建築物,,昭和前,昭和前期,1926～1945,土蔵造2階建、瓦葺、建築面積36㎡,,16 － 149,93,2019.09.10(令和1.09.10),2019.09.10(令和1.09.10),,20190910,,国土の歴史的景観に寄与しているもの,,富山県,富山県南砺市安居188,,,,,36.60076667000000,136.88693333000000,主屋背面の石垣上に北土蔵と並んで建つ。南北棟の切妻造、置屋根式桟瓦葺、二階建で、東面に北土蔵と一連の吹放し下屋を通す。外壁漆喰塗で、東面の戸口に掛子塗戸を備え、他三面は水切下に簓子下見板を張る。北土蔵とともに背面の屋敷構えを重厚に整える。,https://bunka.nii.ac.jp/heritage/43967/_368088/43967_368088971443951342665_300.jpg
101,00012893,冨田家住宅北土蔵,とみたけじゅうたくきたどぞう,1棟,,登録有形文化財(建造物),住宅,建築物,,明治,明治前期,1868～1882,土蔵造2階建、瓦葺、建築面積33㎡,,16 － 150,93,2019.09.10(令和1.09.10),2019.09.10(令和1.09.10),,20190910,,国土の歴史的景観に寄与しているもの,,富山県,富山県南砺市安居188,,,,,36.60082222000000,136.88696667000000,主屋背面の石垣上に南土蔵と並んで建つ。南北棟の切妻造、置屋根式桟瓦葺、二階建で、東面に南土蔵と一連の吹放し下屋を通す。外壁漆喰塗で、北面に設けた上下階一体の掛子塗戸付窓枠の階境に波に亀の鏝絵を飾る。路地に面した敷地西北隅の屋敷構えを整える。,https://bunka.nii.ac.jp/heritage/43967/_368089/43967_368089052660709854325_300.jpg
101,00012894,冨田家住宅長屋門,とみたけじゅうたくながやもん,1棟,,登録有形文化財(建造物),住宅,建築物,,江戸,江戸後期／江戸末期・昭和前期移築,1751～1830,木造平屋建、瓦葺、建築面積30㎡,,16 － 151,93,2019.09.10(令和1.09.10),2019.09.10(令和1.09.10),,20190910,,国土の歴史的景観に寄与しているもの,,富山県,富山県南砺市安居188,,,,,36.60054167000000,136.88730278000000,主屋正面に東面して建つ。切妻造桟瓦葺で、北を門口、南を真壁漆喰塗の物置とする。門口は間口三・二メートルで本柱を立てて板扉を備え、南に袖壁、北に潜戸を設け、冠木上の繰形付の出梁で軒桁を受ける。旧家の屋敷構えに厳かな趣を添える表門である。,https://bunka.nii.ac.jp/heritage/43967/_368090/43967_368090892506520328628_300.jpg
101,00013090,旧伏木港右岸三号岸壁水平引込式クレーン,きゅうふしきこううがんさんごうがんぺきすいへいひきこみしきくれーん,1基,,登録有形文化財(建造物),産業2次,その他工作物,,昭和後,昭和43年,1968,鉄骨造、高さ43m,,16 － 0152,94,2019.12.05(令和1.12.05),2019.12.05(令和1.12.05),,20191205,,国土の歴史的景観に寄与しているもの,,富山県,富山県射水市庄西町二丁目2573,,伏木港右岸3号クレーン保存会,その他,,36.79159722000000,137.06455833000000,伏木港右岸に設置されたバラ物貨物荷役用クレーン。軌道上移動型のダブルリンク式の水平引込み式で、最大旋回半径三一・五メートル、吊上げ荷重八トン、全揚程二五メートルを測る。設置当時、日本海沿岸最大規模であった、伏木港のシンボル的存在。,https://bunka.nii.ac.jp/heritage/43967/_368258/43967_368258544857815978820_300.jpg
101,00013242,東山円筒分水槽,ひがしやまえんとうぶんすいそう,1基,,登録有形文化財(建造物),産業1次,土木構造物,,昭和中,昭和29年,1954,鉄筋コンクリート造、面積317㎡,,16 － 0153,95,2020.04.03(令和2.04.03),2020.04.03(令和2.04.03),,20200403,,国土の歴史的景観に寄与しているもの,,富山県,富山県魚津市東山地内,,魚津市土地改良区,その他,,36.80973889000000,137.45997500000000,魚津市街地の東方、片貝川の扇央部に位置する。片貝川を横断するサイフォンの出口を兼ねる直径九・一メートルの円筒分水槽で、三つの用水へ分水する。片貝川沿岸用水合口事業の一環として建設されたもので、地域の水利システム近代化の歴史を物語る。,https://bunka.nii.ac.jp/heritage/43967/_366231/43967_366231752966060551171_300.jpg
101,00013243,赤祖父円筒分水槽,あかそぶえんとうぶんすいそう,1基,,登録有形文化財(建造物),産業1次,土木構造物,,昭和中,昭和24年,1949,鉄筋コンクリート造、面積29㎡,,16 － 0154,95,2020.04.03(令和2.04.03),2020.04.03(令和2.04.03),,20200403,,国土の歴史的景観に寄与しているもの,,富山県,富山県南砺市川上中字寺山1-19他,,庄川上流用水土地改良区,その他,,36.52837222000000,136.93713333000000,小矢部川水系赤祖父川の扇頂部に位置する。直径三・四メートルの円筒分水槽で、内円筒からの越流水を外円筒で受け、仕切板で三つの用水に分水する。赤祖父溜池工事の一環として築かれ、砺波平野における戦後の稲作の発展を支えた県内最古の円筒分水槽。,https://bunka.nii.ac.jp/heritage/43967/_366232/43967_366232349913742276264_300.jpg
101,00013983,旧藺製品倉庫,きゅういせいひんそうこ,1棟,,登録有形文化財(建造物),産業2次,建築物,,大正,大正後期／昭和中期、平成29年改修,1919～1926,土蔵造平屋建、瓦葺、建築面積192㎡,,16 - 0155,100,2021.10.14(令和3.10.14),2021.10.14(令和3.10.14),,20211014,,国土の歴史的景観に寄与しているもの,,富山県,富山県氷見市朝日本町907-7,,on the Minatogawa一般社団法人,非営利法人,,36.85297222000000,136.98615278000000,氷見市街地の湊川左岸に建つ南面平入の東西棟。土蔵造もと二階建、切妻造桟瓦葺で、南面に戸前を設けて東端に川からの荷揚口を設ける。川に面した東面を下見板張とし、北面に額縁付の窓を穿つ。内部は一室で、独立柱で棟を支える。湊川水運の繁栄を伝える。,https://bunka.nii.ac.jp/heritage/43967/_508243/43967_508243154297717297318_300.jpg
101,00013984,旧藺製品作業場,きゅういせいひんさぎょうば,1棟,,登録有形文化財(建造物),産業2次,建築物,,昭和中,昭和32年／同中期、平成29年改修,1957,木造2階一部平屋建、瓦葺、建築面積86㎡,,16 - 0156,100,2021.10.14(令和3.10.14),2021.10.14(令和3.10.14),,20211014,,国土の歴史的景観に寄与しているもの,,富山県,富山県氷見市朝日本町907-7,,on the Minatogawa一般社団法人,非営利法人,,36.85303056000000,136.98592500000000,湊川沿いの旧藺製品倉庫の西側に建つ作業場。道路に西面して建つ木造二階建、切妻造桟瓦葺妻入で、外壁を下見板張とし、西面に戸口と換気口を設ける。内部は一階に一室、二階に二室を設け、一階を旧藺製品倉庫戸前と接続する。藺製品製造の繁栄を伝える。,https://bunka.nii.ac.jp/heritage/43967/_508244/43967_508244545841560364770_300.jpg
101,00013985,みなとがわ倉庫,みなとがわそうこ,1棟,,登録有形文化財(建造物),産業3次,建築物,,大正,大正後期／昭和中期・平成28年改修,1919～1926,土蔵造平屋建、瓦葺、面積486㎡,,16 - 0157,100,2021.10.14(令和3.10.14),2021.10.14(令和3.10.14),,20211014,,国土の歴史的景観に寄与しているもの,,富山県,富山県氷見市朝日本町907,,氷見市,市区町村,,36.85281944000000,136.98604722000000,氷見市街地の湊川左岸、旧藺製品倉庫の南に北面して建つ長大な土蔵。切妻造桟瓦葺、外壁は下見板張。北面に梁間の大きい戸前を設け東端を荷揚場とする。内部は桁行に六室を並べ、各室北側に額縁黒漆喰塗戸口、南面に高窓を設ける。湊川水運の繁栄を伝える。,https://bunka.nii.ac.jp/heritage/43967/_508245/43967_508245224696098933461_300.jpg
101,00013986,旧野村家住宅一番蔵（城端蔵回廊）,きゅうのむらけじゅうたくいちばんぐら（じょうはなくらかいろう）,1棟,,登録有形文化財(建造物),住宅,建築物,,明治,明治後期／平成5年改修,1898～1912,土蔵造2階建、瓦葺、建築面積43㎡,,16 - 0158,100,2021.10.14(令和3.10.14),2021.10.14(令和3.10.14),,20211014,,造形の規範となっているもの,,富山県,富山県南砺市城端字大工町579-2他,,南砺市,市区町村,,36.51461667000000,136.90196389000000,城端別院門前町に建つ元呉服商の衣装蔵。土蔵造二階建、切妻造桟瓦葺平入で、五色の石垣上に建つ。外壁は下見板張、軒は漆喰塗込、掛子塗戸の窓は霧除庇で覆う。正面の腰は黒漆喰地に折入菱を表し、戸口には掛子塗戸を鏝絵で飾る。造りも丁寧な豪商の土蔵。,https://bunka.nii.ac.jp/heritage/43967/_508246/43967_508246385947231618093_300.jpg
101,00013987,旧野村家住宅二番蔵（城端蔵回廊）,きゅうのむらけじゅうたくにばんぐら（じょうはなくらかいろう）,1棟,,登録有形文化財(建造物),住宅,建築物,,明治,明治後期／平成5年改修,1898～1912,土蔵造2階建、瓦葺、建築面積79㎡、石門付,,16 - 0159,100,2021.10.14(令和3.10.14),2021.10.14(令和3.10.14),,20211014,,造形の規範となっているもの,,富山県,富山県南砺市城端字東上町577-1他,,南砺市,市区町村,,36.51463611000000,136.90197222000000,一番蔵北隣に雁行して建つ元呉服商の道具蔵。土蔵造二階建、切妻造桟瓦葺平入で、五色の石垣上に建つ。外壁は下見板張で、背面通沿いに上下五箇所の窓を設け、霧除庇で覆う。正面は一番蔵と意匠を揃える。内部一階の壁は柱に板落とし込み、堅牢な造りとする。,https://bunka.nii.ac.jp/heritage/43967/_508247/43967_508247792619505101698_300.jpg
101,00013988,旧野村家住宅雑蔵（城端蔵回廊）,きゅうのむらけじゅうたくざつぐら（じょうはなくらかいろう）,1棟,,登録有形文化財(建造物),住宅,建築物,,明治,明治後期／平成5年改修,1898～1912,土蔵造2階建、瓦葺、建築面積68㎡、石門付,,16 - 0160,100,2021.10.14(令和3.10.14),2021.10.14(令和3.10.14),,20211014,,造形の規範となっているもの,,富山県,富山県南砺市城端字大工町579-3他,,南砺市,市区町村,,36.51451389000000,136.90192222000000,一番蔵の南側に雁行して建つ元呉服商の雑用蔵。土蔵造二階建、切妻造桟瓦葺で、石垣上に建ち背面北寄りに下屋を付す。背面は下見板張で、腰を煉瓦張、軒際の窓は漆喰塗の箱枠に鉄格子を嵌める。通りに石造欠円アーチの門を開く。豪商の屋敷構えを伝える。,https://bunka.nii.ac.jp/heritage/43967/_508248/43967_508248541034984169124_300.jpg
101,00014154,釈泉寺円筒分水槽,しゃくせんじえんとうぶんすいそう,1基,,登録有形文化財(建造物),産業1次,土木構造物,,昭和中,昭和29年,1954,鉄筋コンクリート造、面積202㎡,,16-0161,101,2022.02.17(令和4.02.17),2022.02.17(令和4.02.17),,20220217,,国土の歴史的景観に寄与しているもの,,富山県,富山県中新川郡上市町釈泉寺字向川原50-53,,上市川沿岸土地改良区,その他,,36.68793056000000,137.40496111000000,上市川沿岸の用水合口化に伴い、川の扇頂部に建設された、直径九・三メートルの円筒分水槽。溢流円筒頂部には円形の管理橋を設ける。〇・五一対〇・四九の高い精度で両岸の幹線水路に分水。安定した水供給により、長年の水不足を解消した戦後の農業水利施設。,https://bunka.nii.ac.jp/heritage/43967/_508784/43967_508784998552487195018_300.jpg
