台帳ID,管理対象ID,名称,ふりがな,員数,棟名,文化財種類,種別1,種別2,国,時代,年代,西暦,構造及び形式等,その他参考となるべき事項,登録番号,登録回,登録告示年月日,登録年月日,追加年月日,重文指定年月日,国宝指定年月日,登録基準1,登録基準2,都道府県,所在地,保管施設の名称,所有者名,所有者種別,管理団体又は責任者,緯度,経度,解説文,画像URL
101,00000048,名和昆虫博物館,なわこんちゅうはくぶつかん,1棟,,登録有形文化財(建造物),文化福祉,建築物,,大正,大正8,1919,煉瓦造2階建、瓦葺、建築面積183㎡,,21 － 0001,1,1996.12.26(平成8.12.26),1996.12.20(平成8.12.20),,19961220,,造形の規範となっているもの,,岐阜県,岐阜県岐阜市千畳敷大道西308-1,,財団法人名和昆虫研究所,,,35.43316000000000,136.77310000000000,桟瓦葺切妻屋根の煉瓦造建築で，ギリシャ神殿風屋根妻を模した車寄せ玄関と，奈良唐招提寺の解体修理時にもらい受けた３本の丸柱が意匠上の特徴である。設計は当時名古屋高等工業学校の校長であった武田五一であり，彼の作風を示す建物の一つである。,https://bunka.nii.ac.jp/heritage/43967/_101038/43967_101038111225010319653_300.jpg
101,00000241,矢橋家住宅主屋,やばしけじゅうたくしゅおく,1棟,,登録有形文化財(建造物),住宅,建築物,,江戸,天保4,1833,木造2階建，瓦葺，建築面積284㎡,,21 － 0002,4,1997.07.30(平成9.07.30),1997.07.15(平成9.07.15),,19970715,,造形の規範となっているもの,,岐阜県,岐阜県大垣市赤坂町226,,,,,35.39045000000000,136.58160000000000,中山道に北面する平入の大型町屋。２階の軒裏やうだつを黒漆喰塗りとし１・２階ともに千本格子をはめる等、正面外観は瀟洒な意匠になる。大規模ながら２階をつしとする点等に、江戸時代末期の地方都市における大型町屋の特徴がよく表れている。,https://bunka.nii.ac.jp/heritage/43967/_101231/43967_101231111225010523886_300.jpg
101,00000242,矢橋家住宅隠居（竹雪廬）,やばしけじゅうたくいんきょ（ちくせつろ）,1棟,,登録有形文化財(建造物),住宅,建築物,,江戸,文化2,1805,木造平屋建，瓦葺，建築面積78㎡,,21 － 0003,4,1997.07.30(平成9.07.30),1997.07.15(平成9.07.15),,19970715,,再現することが容易でないもの,,岐阜県,岐阜県大垣市赤坂町226,,,,,35.39051000000000,136.58150000000000,中山道に北面する敷地の西端にあり、道路に面して建つ。平屋建てだが、屋根は２重にする。道路側に千本格子を入れ外観を町屋風にし、内部は細かく部屋を仕切る。屋敷内最古の建物で、各部に用いられている材料や仕上げ等は良質である。,https://bunka.nii.ac.jp/heritage/43967/_101232/43967_101232111225010525335_300.jpg
101,00000243,矢橋家住宅書院（紅於亭）,やばしけじゅうたくしょいん（こうおてい）,1棟,,登録有形文化財(建造物),住宅,建築物,,江戸,嘉永年間,1848-1854,木造平屋建，瓦葺，建築面積84㎡,,21 － 0004,4,1997.07.30(平成9.07.30),1997.07.15(平成9.07.15),,19970715,,再現することが容易でないもの,,岐阜県,岐阜県大垣市赤坂町226,,,,,35.39040000000000,136.58150000000000,主屋の西に接続する二間続きの座敷。北東には表門に通じる式台玄関を設ける。平屋建てだが屋根は二重にする。玄関式台の黒漆喰に四半敷きの目地を付けた土間床、網代編みにした腰壁等に数寄屋造に通じる高い技能が用いられている。,https://bunka.nii.ac.jp/heritage/43967/_101233/43967_101233111225010525574_300.jpg
101,00000244,矢橋家住宅表門,やばしけじゅうたくおもてもん,1棟,,登録有形文化財(建造物),住宅,その他工作,,江戸,嘉永年間,1848-1854,木造平屋建板塀付，瓦葺,,21 － 0005,4,1997.07.30(平成9.07.30),1997.07.15(平成9.07.15),,19970715,,造形の規範となっているもの,,岐阜県,岐阜県大垣市赤坂町226,,,,,35.39054000000000,136.58150000000000,主屋と隠居の間にある中山道に面して設けられた門で、左右には塀が附属する。書院と同時期に建設されたと推定される。黒漆喰仕上げで腰に板を張る塀の意匠は、主屋と意匠の調和が図られており、大規模な屋敷構えの特徴をよく表す要素となっている。,https://bunka.nii.ac.jp/heritage/43967/_101234/43967_101234111225010526098_300.jpg
101,00000245,矢橋家住宅茶室,やばしけじゅうたくちゃしつ,1棟,,登録有形文化財(建造物),住宅,建築物,,明治,明治初頃,1868頃,木造平屋建，瓦葺，建築面積32㎡,,21 － 0006,4,1997.07.30(平成9.07.30),1997.07.15(平成9.07.15),,19970715,,造形の規範となっているもの,,岐阜県,岐阜県大垣市赤坂町226,,,,,35.39030000000000,136.58150000000000,書院の南東に接続する。内部は茶室と水屋からなる。節のある細い柱を用い深い軒の出をつくる等、軽快で品の良い意匠でまとまられている。江戸時代以来続く大規模な屋敷の中には、瀟洒な茶室がしばしばつくられているが、この建物はその好例である。,https://bunka.nii.ac.jp/heritage/43967/_101235/43967_101235111225010526363_300.jpg
101,00000246,矢橋家住宅東蔵,やばしけじゅうたくひがしぐら,1棟,,登録有形文化財(建造物),住宅,建築物,,江戸,天保年間,1830-1844,木造2階建，瓦葺，建築面積29㎡,,21 － 0007,4,1997.07.30(平成9.07.30),1997.07.15(平成9.07.15),,19970715,,造形の規範となっているもの,,岐阜県,岐阜県大垣市赤坂町226,,,,,35.39009000000000,136.58160000000000,３棟の土蔵の内最も小規模なもので、主屋と同時期の建築と思われる。西側に出入口を設け、吹き放ちの庇を設けて蔵前とする。簓子下見板張りとし、けらばも板張りとなる外観が特徴で、屋敷構えの特徴をよく表す要素となっている。,https://bunka.nii.ac.jp/heritage/43967/_101236/43967_101236111225010526870_300.jpg
101,00000247,矢橋家住宅中蔵,やばしけじゅうたくなかぐら,1棟,,登録有形文化財(建造物),住宅,建築物,,江戸,天保年間,1830-1844,木造2階建，瓦葺，建築面積52㎡,,21 － 0008,4,1997.07.30(平成9.07.30),1997.07.15(平成9.07.15),,19970715,,造形の規範となっているもの,,岐阜県,岐阜県大垣市赤坂町226,,,,,35.39014000000000,136.58140000000000,他の土蔵と基本的に同様の意匠であるが、北側の主屋に面した側の妻面に出入口を設けている点が異なる。竣工は主屋・東蔵と同じく天保年間と思われる。２階の一部には扉が設けられ、重厚な外観の中でアクセントとなっている。,https://bunka.nii.ac.jp/heritage/43967/_101237/43967_101237111225010527323_300.jpg
101,00000248,矢橋家住宅西蔵,やばしけじゅうたくにしぐら,1棟,,登録有形文化財(建造物),住宅,建築物,,明治,明治初頃,1868頃,木造2階建，瓦葺，建築面積61㎡,,21 － 0009,4,1997.07.30(平成9.07.30),1997.07.15(平成9.07.15),,19970715,,造形の規範となっているもの,,岐阜県,岐阜県大垣市赤坂町226,,,,,35.39012000000000,136.58130000000000,３棟の土蔵のうち、もっとも大規模なものである。東面には吹き放ちの庇を設け蔵前とする。漆喰塗大壁造の外壁をさらに簓子下見板張りとする点は他の蔵と同様であるが、出入口が２カ所設けられている事と、２階に漆喰塗扉が多く設けられている点が異なる。,https://bunka.nii.ac.jp/heritage/43967/_101238/43967_101238111225010528219_300.jpg
101,00000290,羽根谷砂防堰堤（第一堰堤）,はねだにさぼうえんてい（だいいちえんてい）,1基,,登録有形文化財(建造物),治山治水,土木構造物,,明治,明治21,1888,巨石空積堰堤，堤長52m，堤高12m,,21 － 0010,5,1997.09.16(平成9.09.16),1997.09.03(平成9.09.03),,19970903,,再現することが容易でないもの,,岐阜県,岐阜県海津市南濃町奥条地内,,国（国土交通省）,,,35.20926000000000,136.59090000000000,明治初期の空積石の砂防堰堤としては最大級のもの。堤高約12メートル，堤長約52メートルの堰堤が，巨石で築かれている。オランダ人土木技師ヨハネス・デ・レーケの指導によるといわれ，現在でも堤体に大きな狂いのないことは，当時の技術の高さを示している。,https://bunka.nii.ac.jp/heritage/43967/_101280/43967_101280111225010551763_300.jpg
101,00000432,羽根谷砂防堰堤,はねだにさぼうえんてい,1基,,登録有形文化財(建造物),治山治水,土木構造物,,明治,明治期,1868-1911,石造巨石堰堤，堤長85.0m，堤高10.4m,,21 － 0011,8,1998.02.12(平成10.02.12),1998.01.16(平成10.01.16),,19980116,,国土の歴史的景観に寄与しているもの,,岐阜県,岐阜県海津市南濃町奥条地内,,国（国土交通省）,,,35.21377000000000,136.59210000000000,近代に入って木曽三川に係わる治山・治水工事が行われる中で作られた砂防堰堤。羽根谷付近の砂防堰堤の中では最も古いものの一つ。長が80メートルを超る大規模な堰堤で，勾配が緩いのが特徴である。オランダ人土木技師ヨハネス・デ・レーケの指導による。,https://bunka.nii.ac.jp/heritage/43967/_132556/43967_132556111225010723395_300.jpg
101,00000772,旧八幡町役場庁舎,きゅうはちまんちょうやくばちょうしゃ,1棟,,登録有形文化財(建造物),官公庁舎,建築物,,昭和前,昭和11,1936,木造２階建，瓦葺，建築面積797㎡,,21 － 0012,13,1998.09.25(平成10.09.25),1998.09.02(平成10.09.02),,19980902,,造形の規範となっているもの,,岐阜県,岐阜県郡上市八幡町島谷524-6,,郡上市,,,35.74988000000000,136.95920000000000,非対称型になる木造２階建の洋風の庁舎で，正面に玄関ポ－チが付く。内部は１階が町政執務関係，２階が議会関係に使用された。設計は野村建築事務所で，施工は地元の大工棟梁水谷藤兵衛。外壁は軒廻りを除き下見板張とし，縦長の窓を配した端正な建物である。,https://bunka.nii.ac.jp/heritage/43967/_101762/43967_101762111225011135091_300.jpg
101,00000773,旧林療院本館,きゅうはやしりょういんほんかん,1棟,,登録有形文化財(建造物),文化福祉,建築物,,明治,明治37,1904,木造２階建，瓦葺，建築面積116㎡,,21 － 0013,13,1998.09.25(平成10.09.25),1998.09.02(平成10.09.02),,19980902,,国土の歴史的景観に寄与しているもの,,岐阜県,岐阜県郡上市八幡町島谷789-1,,郡上市,,,35.74944000000000,136.95860000000000,木造二階建の擬洋風の外観で知られた医院で，玄関ポ－チはイオニア式オーダーの円柱を立てる。軸組は伝統的な和風で仕上げるが，建物の隅や腰壁は石造風に見せるモルタル仕上げとし，上げ下げ窓の窓枠頂部に簡略のペジメントを付けるなどの工夫が見られる。,https://bunka.nii.ac.jp/heritage/43967/_101763/43967_101763111225011135596_300.jpg
101,00000824,旧八幡町役場土蔵,きゅうはちまんちょうやくばどぞう,1棟,,登録有形文化財(建造物),官公庁舎,建築物,,昭和前,昭和11,1936,土蔵造平屋建，瓦葺，建築面積17㎡,,21 － 0014,14,1998.10.26(平成10.10.26),1998.10.09(平成10.10.09),,19981009,,国土の歴史的景観に寄与しているもの,,岐阜県,岐阜県郡上市八幡町島谷524-6,,郡上市,,,35.74997000000000,136.95950000000000,書類や行政資料等を保管するために，旧役場庁舎と同時期に造られた小規模な２階建の切妻造，鉄板葺の土蔵。外壁は漆喰仕上げになるが，軒廻りを除く大半を板貼りとする。役場庁舎の背後の川沿いに建ち，洋風の庁舎と好対照をなす土蔵として知られている。,https://bunka.nii.ac.jp/heritage/43967/_101814/43967_101814111225011214240_300.jpg
101,00000825,旧林療院看護婦棟,きゅうはやしりょういんかんごふとう,1棟,,登録有形文化財(建造物),文化福祉,建築物,,江戸,江戸時代末期,1830-1867,木造２階建，鉄板葺，建築面積41㎡,,21 － 0015,14,1998.10.26(平成10.10.26),1998.10.09(平成10.10.09),,19981009,,国土の歴史的景観に寄与しているもの,,岐阜県,岐阜県郡上市八幡町島谷789-1,,郡上市,,,35.74951000000000,136.95870000000000,本館の左手に位置し，これと接続して建つ木造２階建の建物。内部は１，２階とも小部屋に区画され天井高も低い。もとの足軽長屋を改造したものといわれる簡素な佇まいの建屋で，全体に旧態を良く伝えている。地方医院の歴史を知る上で欠かせない要素である。,https://bunka.nii.ac.jp/heritage/43967/_101815/43967_101815111225011215590_300.jpg
101,00000826,旧林療院レントゲン棟,きゅうはやしりょういんれんとげんとう,1棟,,登録有形文化財(建造物),文化福祉,建築物,,大正,大正初期,1912-1925,木造２階建，鉄板葺，建築面積22㎡,,21 － 0016,14,1998.10.26(平成10.10.26),1998.10.09(平成10.10.09),,19981009,,国土の歴史的景観に寄与しているもの,,岐阜県,岐阜県郡上市八幡町島谷789-1,,郡上市,,,35.74937000000000,136.95870000000000,本館棟の背後に建つ小規模な２階建の洋風建物で，１階は土蔵風になるが，全体として本館棟を意識した意匠にまとめる。岐阜県下でレントゲン施設が最も早く設置された例と伝え，地方都市で当時最新の医療が施されたことを知ることができる貴重な遺構である。,https://bunka.nii.ac.jp/heritage/43967/_101816/43967_101816111225011216113_300.jpg
101,00000827,熊野神社目隠門,くまのじんじゃめかくしもん,1棟,,登録有形文化財(建造物),宗教,その他工作,,昭和前,昭和13,1938,石造目隠塀，幅3m，高さ2m,,21 － 0017,14,1998.10.26(平成10.10.26),1998.10.09(平成10.10.09),,19981009,,国土の歴史的景観に寄与しているもの,,岐阜県,岐阜県加茂郡八百津町八百津4102-1,,八百津町黒瀬組,,,35.47591000000000,137.13990000000000,拝殿の真正面にあって，これを塞ぐように建つ石造の目隠門。門は左右の親柱に付属する小さな控柱で支え，屋根をかける簡素な形式になる。壁面の上部は波に龍を浮き彫りにし，下部には獅子のレリーフで飾り，中央部は連子をはめる特異な門として知られる。,https://bunka.nii.ac.jp/heritage/43967/_101817/43967_101817111225011216374_300.jpg
101,00001604,上山家住宅主屋,かみやまけじゅうたくしゅおく,1棟,,登録有形文化財(建造物),住宅,建築物,,大正,大正末期,1912-1925,木造平屋建、瓦葺、建築面積142㎡,,21 － 0018,23,2000.05.17(平成12.05.17),2000.04.28(平成12.04.28),,20000428,,造形の規範となっているもの,,岐阜県,岐阜県多治見市上山町1-1,,,,,35.33810000000000,137.13330000000000,佐藤化粧煉瓦工場（現上山製陶株式会社）創業者の邸宅で，土岐川右岸沿いの敷地に南面して建つ。木造，平屋建，桟瓦葺，片寄棟造で，南東端に入母屋破風の玄関を設け，南面に縁側，南西端に月見台を張り出す。縁側庇をスレート葺とするなど端正な造りになる。,https://bunka.nii.ac.jp/heritage/43967/_102594/43967_102594111225012004366_300.jpg
101,00001605,上山家住宅洋館,かみやまけじゅうたくようかん,1棟,,登録有形文化財(建造物),住宅,建築物,,大正,大正末期,1912-1925,木造2階建、スレート葺、建築面積70㎡,,21 － 0019,23,2000.05.17(平成12.05.17),2000.04.28(平成12.04.28),,20000428,,造形の規範となっているもの,,岐阜県,岐阜県多治見市上山町1-1,,,,,35.33810000000000,137.13340000000000,主屋の西に接続する木造２階建の洋館で，西面に玄関を設ける。基礎を石張，階下の窓廻りと腰の高い位置までをタイル張とし，それ以上をドイツ壁風の仕上とする。銅板を縁に廻したスレート葺の切妻屋根に特徴があり，ランドマークにもなっている。,https://bunka.nii.ac.jp/heritage/43967/_102595/43967_102595111225012004636_300.jpg
101,00001606,上山家住宅北棟,かみやまけじゅうたくきたとう,1棟,,登録有形文化財(建造物),住宅,建築物,,昭和前,昭和初期,1926-1988,木造平屋建、瓦葺、建築面積61㎡,,21 － 0020,23,2000.05.17(平成12.05.17),2000.04.28(平成12.04.28),,20000428,,造形の規範となっているもの,,岐阜県,岐阜県多治見市上山町1-1,,,,,35.33820000000000,137.13340000000000,主屋の北に接続する木造，平屋建，桟瓦葺，南北棟の入母屋造建屋で，東・北・西の三面に下屋庇を付けてつし２階風の外観を造る。主屋・洋館とともに邸宅主体部の主要な構成要素で，東半は厨房に充てられており，東屋根上に切妻の換気窓を設ける。,https://bunka.nii.ac.jp/heritage/43967/_102596/43967_102596111225012005144_300.jpg
101,00001607,上山家住宅東棟,かみやまけじゅうたくひがしとう,1棟,,登録有形文化財(建造物),住宅,建築物,,大正,大正末期,1912-1925,木造平屋建、瓦葺、建築面積58㎡,,21 － 0021,23,2000.05.17(平成12.05.17),2000.04.28(平成12.04.28),,20000428,,造形の規範となっているもの,,岐阜県,岐阜県多治見市上山町1-1,,,,,35.33813000000000,137.13360000000000,主屋の東に渡り廊下で接続する木造，平屋建，桟瓦葺，東西棟，入母屋造の離れ風建屋。東面は腰を縦板張，上部を真壁造とした和風表現をとるが，南面にはテラス，西南端にはベイウィンドー付洋室を設けてタイル張とするなど洋館に合わせた意匠とする。,https://bunka.nii.ac.jp/heritage/43967/_102597/43967_102597111225012005659_300.jpg
101,00001608,上山家住宅倉庫,かみやまけじゅうたくそうこ,1棟,,登録有形文化財(建造物),住宅,建築物,,大正,大正末期,1912-1925,土蔵造2階建、瓦葺、建築面積40㎡,,21 － 0022,23,2000.05.17(平成12.05.17),2000.04.28(平成12.04.28),,20000428,,再現することが容易でないもの,,岐阜県,岐阜県多治見市上山町1-1,,,,,35.33822000000000,137.13320000000000,洋館の北方に建つ２階建，桟瓦葺，東西棟，切妻屋根，平入の土蔵で，南面に土庇を設けて蔵前とする。基礎は花崗石の三段積みで，階下を海鼠壁，階上を黒漆喰塗とし，妻面に重厚な観音扉と瓦葺の庇を付けた上質な造りになる蔵である。,https://bunka.nii.ac.jp/heritage/43967/_102598/43967_102598111225012007103_300.jpg
101,00001609,上山家住宅北物置,かみやまけじゅうたくきたものおき,1棟,,登録有形文化財(建造物),住宅,建築物,,昭和前,昭和初期,1926-1988,木造平屋建、瓦葺、建築面積29㎡,,21 － 0023,23,2000.05.17(平成12.05.17),2000.04.28(平成12.04.28),,20000428,,造形の規範となっているもの,,岐阜県,岐阜県多治見市上山町1-1,,,,,35.33828000000000,137.13350000000000,２階建土蔵の東方，主屋の北東方に位置する。邸宅の維持管理や調理等に当たる使用人の住居とされる。木造，平屋建，桟瓦葺，東西棟，切妻屋根の丁寧な造りの真壁造建屋で，南面と東面の２面に土庇を設けて東妻側の便所を納める。,https://bunka.nii.ac.jp/heritage/43967/_102599/43967_102599111225012007625_300.jpg
101,00001610,上山家住宅西物置,かみやまけじゅうたくにしものおき,1棟,,登録有形文化財(建造物),住宅,建築物,,大正,大正末期,1912-1925,木造平屋建、瓦葺、建築面積17㎡,,21 － 0024,23,2000.05.17(平成12.05.17),2000.04.28(平成12.04.28),,20000428,,造形の規範となっているもの,,岐阜県,岐阜県多治見市上山町1-1,,,,,35.33814000000000,137.13320000000000,洋館の北西方，土蔵の南西方に建つ。木造，平屋建，桟瓦葺，南北棟の片入母屋造建屋で，もと書生部屋とされる。平側は真壁造の簡素な造りであるが，南妻面に玄関を設け，縦板張とするなど洋館玄関を意識した造りとしている点に特徴がある。,https://bunka.nii.ac.jp/heritage/43967/_102600/43967_102600111225012007892_300.jpg
101,00001611,岐工記念館（旧岐阜県工業試験場）,ぎこうきねんかん（きゅうぎふけんこうぎょうしけんじょう）,1棟,,登録有形文化財(建造物),官公庁舎,建築物,,昭和前,昭和4,1929,木造2階建、瓦葺、建築面積219㎡,,21 － 0025,23,2000.05.17(平成12.05.17),2000.04.28(平成12.04.28),,20000428,,造形の規範となっているもの,,岐阜県,岐阜県羽島郡笠松町常盤町1700,,岐阜県,,,35.37480000000000,136.76090000000000,もと県工業試験場の本館。２階窓台以下を下見板張，上部をモルタル塗とし，階下階上とも胴蛇腹と窓のショルダーを一体的に連続させて外壁を分節する他，南面の正面玄関上部と，東面玄関上部の出窓の意匠に見所をつくっている。,https://bunka.nii.ac.jp/heritage/43967/_102601/43967_102601111225012008409_300.jpg
101,00001613,河合家住宅主屋,かわいけじゅうたくしゅおく,1棟,,登録有形文化財(建造物),住宅,建築物,,江戸,文化2,1805,木造2階建、瓦葺、建築面積291㎡,,21 － 0027,23,2000.05.17(平成12.05.17),2000.04.28(平成12.04.28),,20000428,,国土の歴史的景観に寄与しているもの,,岐阜県,岐阜県郡上市八幡町市島1545,,,,,35.79388000000000,137.01460000000000,地区の庄屋を務めた家柄の居宅で，桁行約１２間半，梁間約６間半の規模を有し，東部を土間とし厩を南面に張り出す。２階は養蚕を考慮した開放的な造りとする。南面の下屋庇の持送りには刳型装飾が施され，特に意が凝らされている。,https://bunka.nii.ac.jp/heritage/43967/_102603/43967_102603498893474870239_300.jpg
101,00001614,河合家住宅東土蔵,かわいけじゅうたくひがしどぞう,1棟,,登録有形文化財(建造物),住宅,建築物,,江戸,文政7,1824,土蔵造2階建、瓦葺、建築面積38㎡,,21 － 0028,23,2000.05.17(平成12.05.17),2000.04.28(平成12.04.28),,20000428,,国土の歴史的景観に寄与しているもの,,岐阜県,岐阜県郡上市八幡町市島1545,,,,,35.79367000000000,137.01460000000000,主屋の東南方，雪隠と長屋との間に建つ２階建，瓦葺，置屋根形式の土蔵。桁行３間半，梁間２間半の規模で，西面の平側に庇を差し出して蔵前とする。腰を板張りとした標準的な造りの土蔵で，屋敷構の一構成要素となる。,https://bunka.nii.ac.jp/heritage/43967/_102604/43967_102604989879117694628_300.jpg
101,00001615,河合家住宅西土蔵,かわいけじゅうたくにしどぞう,1棟,,登録有形文化財(建造物),住宅,建築物,,明治,明治18,1885,土蔵造2階建、瓦葺、建築面積36㎡,,21 － 0029,23,2000.05.17(平成12.05.17),2000.04.28(平成12.04.28),,20000428,,国土の歴史的景観に寄与しているもの,,岐阜県,岐阜県郡上市八幡町市島1545,,,,,35.79389000000000,137.01430000000000,主屋の西南方に味噌蔵と並んで建つ。南北棟，瓦葺，置屋根形式の２階建土蔵で，もとは板葺であった。桁行３間，梁間３間の規模を有し，東面の平側に庇を設けて蔵前とする。東面を海鼠壁，まぐさに装飾を施すなど東土蔵とは意匠を違えている。,https://bunka.nii.ac.jp/heritage/43967/_102605/43967_102605551519407182906_300.jpg
101,00001616,日本大正村役場（旧明智町役場）,にほんたいしょうむらやくば（きゅうあけちちょうやくば）,1棟,,登録有形文化財(建造物),官公庁舎,建築物,,明治,明治39,1906,木造2階建、瓦葺、建築面積150㎡,,21 － 0030,23,2000.05.17(平成12.05.17),2000.04.28(平成12.04.28),,20000428,,造形の規範となっているもの,,岐阜県,岐阜県恵那市明智町1844-3,,恵那市,,,35.30490000000000,137.39030000000000,明治後期町役場建築の一事例。木造２階建，桟瓦葺，寄棟造，下見板張，上下窓の洋風庁舎で，階下を事務室，階上を議場とする。正面のやや東寄りに桟瓦葺，寄棟造の玄関ポーチを差し出し，トスカナ式意匠の柱で支える。大工棟梁は成瀬鑿四郎。,https://bunka.nii.ac.jp/heritage/43967/_102606/43967_102606111225012011527_300.jpg
101,00001709,天狗総本店,てんぐそうほんてん,1棟,,登録有形文化財(建造物),産業3次,建築物,,昭和前,昭和11,1936,木造2階建、建築面積103㎡,,21 － 0031,24,2000.05.25(平成12.05.25),2000.04.28(平成12.04.28),,20000428,,国土の歴史的景観に寄与しているもの,,岐阜県,岐阜県高山市本町1-21,,,,,36.14096000000000,137.25840000000000,商店街の角地に精肉店として建設された木造二階建で、外壁を立ち上げて洋風とする。二階の隅部に設けたベランダ、パラペット上に並ぶ尖塔、屋号の天狗をモチーフとする妻飾などに特色があり、伝統的な町並の中で異彩を放っている。大工は地元の西田清。,https://bunka.nii.ac.jp/heritage/43967/_102699/43967_102699111225012118113_300.jpg
101,00002038,飛騨民俗村山岳資料館（旧高山測候所）,ひだみんぞくむらさんがくしりょうかん（きゅうたかやまそっこうじょ）,1棟,,登録有形文化財(建造物),官公庁舎,建築物,,明治,明治36／昭和45移築,1903／1970移築,木造平屋建、鉄板葺、建築面積202㎡,,21 － 0032,27,2000.12.20(平成12.12.20),2000.12.04(平成12.12.04),,20001204,,造形の規範となっているもの,,岐阜県,岐阜県高山市上岡本町3-932-1,,高山市,,,36.13515000000000,137.24230000000000,市街地北部に位置する。明治８年以降全国に設置された近代的測候所の一つ。木造平屋建，小規模な塔屋を冠した寄棟鉄板葺の屋根，下見板貼の外壁からなる。玄関庇に軒板飾を付ける。地元の近代建築を多く手がけた８代目阪下甚吉の施工。,https://bunka.nii.ac.jp/heritage/43967/_103028/43967_103028111225012457235_300.jpg
101,00002039,長良川発電所本館,ながらがわはつでんしょほんかん,1棟,,登録有形文化財(建造物),生活関連,建築物,,明治,明治43,1910,煉瓦造地上2階地下1階建、鉄板葺、建築面積439㎡,,21 － 0033,27,2000.12.20(平成12.12.20),2000.12.04(平成12.12.04),,20001204,,国土の歴史的景観に寄与しているもの,,岐阜県,岐阜県美濃市立花字木の末844-1-1-1-1,,中部電力株式会社,,,35.57324669000000,136.92940363000000,煉瓦造地上２階地下１階建の水力発電所の建屋。当初発電機室と接し全体でＬ字型平面をとっていたが，現在は地上で切り離される。妻面にバラ窓風の開口部を設けつつ，かつての瓦葺屋根の名残である鬼瓦を頂き，和風を意識した妻面をつくる。,https://bunka.nii.ac.jp/heritage/43967/_103029/43967_103029967824122535181_300.jpg
101,00002040,長良川発電所正門,ながらがわはつでんしょせいもん,1基,,登録有形文化財(建造物),生活関連,その他工作物,,明治,明治43,1910,煉瓦造、間口5.5m、高さ2.4m、両側通用門及び北袖塀並びに階段含む,,21 － 0034,27,2000.12.20(平成12.12.20),2000.12.04(平成12.12.04),,20001204,,国土の歴史的景観に寄与しているもの,,岐阜県,岐阜県美濃市立花字木の末844-1-1-1-1,,中部電力株式会社,,,35.57329842000000,136.92962211000000,長良川発電所は長良川中流域に位置し，正門は川に向かって構える。高さ2.4mの門柱の両側に通用門と袖塀を付け，前面に末開きの煉瓦造階段を設ける。各門柱の柱頭と柱礎に花崗岩を用い，外観を引き締めている。外塀と共に，本館と一体的な景観を構成する。,https://bunka.nii.ac.jp/heritage/43967/_103030/43967_103030618045725267604_300.jpg
101,00002041,長良川発電所外塀,ながらがわはつでんしょそとべい,1基,,登録有形文化財(建造物),生活関連,その他工作物,,明治,明治43,1910,石及び煉瓦造、延長15m、高さ1.2m,,21 － 0035,27,2000.12.20(平成12.12.20),2000.12.04(平成12.12.04),,20001204,,国土の歴史的景観に寄与しているもの,,岐阜県,岐阜県美濃市立花字木の末844-1-1-1-1,,中部電力株式会社,,,35.57319672000000,136.92959297000000,明治３０年に岐阜水力電気株式会社が得た許可をもとに，名古屋電灯株式会社が建設した長良川発電所は，長良川流域で最初に造られた発電所である。外塀は高さ１．２ｍで，帯石でかたどられた玉石積壁に，計５本の控壁を有すフランス積の煉瓦塀が載る。,https://bunka.nii.ac.jp/heritage/43967/_103031/43967_103031706017114294509_300.jpg
101,00002042,旧堀谷医院,きゅうほりやいいん,1棟,,登録有形文化財(建造物),文化福祉,建築物,,大正,大正9,1920,木造2階建、鉄板葺、建築面積60㎡,,21 － 0036,27,2000.12.20(平成12.12.20),2000.12.04(平成12.12.04),,20001204,,造形の規範となっているもの,,岐阜県,岐阜県郡上市八幡町大手町804,,,,,35.75163000000000,136.95650000000000,旧郡上八幡城に近接する市街地に位置する。木造２階建，外壁コンクリート洗出しで，繰形の上に２階が張り出す。１階に大きなアーチ形窓，２階に上げ下げ窓を設け対照的な開口形式をとる。玄関ポーチの持送りと正面欄間に漆喰で意匠を凝らし見所とする。,https://bunka.nii.ac.jp/heritage/43967/_103032/43967_103032111225012459703_300.jpg
101,00002242,鏡岩水源地旧エンジン室,かがみいわすいげんちきゅうえんじんしつ,1棟,,登録有形文化財(建造物),生活関連,建築物,,昭和前,昭和5,1930,鉄骨造及び鉄筋コンクリート造平屋建、建築面積187㎡,,21 － 0037,29,2001.09.14(平成13.09.14),2001.08.28(平成13.08.28),,20010828,,造形の規範となっているもの,,岐阜県,岐阜県岐阜市鏡岩408-2、米廩谷1-2,,岐阜市,,,35.43755000000000,136.77900000000000,長良川左岸に位置する岐阜市創設水道の水源地施設で，敷地の南端に建つ。鉄骨造平屋建で，外壁は鉄筋コンクリート造玉石張とし，隅石を花崗岩で積み上げ，妻側は切妻屋根を方杖が支える山小屋風意匠とするなど水道施設としては異色のデザインでまとめられる。,https://bunka.nii.ac.jp/heritage/43967/_103232/43967_103232111225012707357_300.jpg
101,00002243,鏡岩水源地旧ポンプ室,かがみいわすいげんちきゅうぽんぷしつ,1棟,,登録有形文化財(建造物),生活関連,建築物,,昭和前,昭和5,1930,鉄骨造及び鉄筋コンクリート造平屋建、建築面積186㎡,,21 － 0038,29,2001.09.14(平成13.09.14),2001.08.28(平成13.08.28),,20010828,,造形の規範となっているもの,,岐阜県,岐阜県岐阜市鏡岩408-2、米廩谷1-1・1-2,,岐阜市,,,35.43769000000000,136.77920000000000,昭和３年に建設着手した当水源地施設は同９年に完成。旧ポンプ室は類似した外観をもつ旧エンジン室の北東に位置する。平側に丸窓を一列に穿ち，旧エンジン室では壁面の外側に出された２ヒンジ鉄骨トラスを室内側に収める。棟の脇に細長い換気口を設ける。,https://bunka.nii.ac.jp/heritage/43967/_103233/43967_103233111225012708304_300.jpg
101,00002244,長良川発電所余水路横断橋,ながらがわはつでんしょよすいろおうだんきょう,1基,,登録有形文化財(建造物),生活関連,土木構造物,,明治,明治43頃,1910頃,鉄筋コンクリート造単アーチ橋、橋長8.2m、幅2.0m,,21 － 0039,29,2001.09.14(平成13.09.14),2001.08.28(平成13.08.28),,20010828,,国土の歴史的景観に寄与しているもの,,岐阜県,岐阜県美濃市立花字木の末844-1-1-1-1,,中部電力株式会社,,,35.57962319000000,136.93584838000000,長良川発電所に注ぎ込む水を堰き止める水槽の余水路に架かる管理橋。橋長８．２ｍ，幅２．０ｍの小規模な鉄筋コンクリート造単アーチ橋で，アーチ断面にわずかに変化をつける。中部地方における最初期の鉄筋コンクリート橋。,https://bunka.nii.ac.jp/heritage/43967/_103234/43967_103234765976645337971_300.jpg
101,00002245,長良川発電所日谷水路橋,ながらがわはつでんしょひだにすいろきょう,1基,,登録有形文化財(建造物),生活関連,土木構造物,,明治,明治43,1910,煉瓦及びコンクリート造5連アーチ橋、橋長54m、幅8.0m,,21 － 0040,29,2001.09.14(平成13.09.14),2001.08.28(平成13.08.28),,20010828,,国土の歴史的景観に寄与しているもの,,岐阜県,岐阜県美濃市大字立花字猿屋～字寄合畑,,中部電力株式会社,,,35.57902125000000,136.93565324000000,取水口から長良川発電所まで約４．９ｋｍ続く導水路の終点近くに位置する。橋長５４ｍ，幅８．０ｍの曲線平面線形をもつ煉瓦及びコンクリート造充腹５連アーチ橋。２種類の径間長をもつ欠円アーチの上に，深さ３．４ｍで外装煉瓦イギリス積の水路がのる。,https://bunka.nii.ac.jp/heritage/43967/_103235/43967_103235135046067709072_300.jpg
101,00002246,長良川発電所湯之洞谷水路橋,ながらがわはつでんしょゆのほらだにすいろきょう,1基,,登録有形文化財(建造物),生活関連,土木構造物,,明治,明治43,1910,煉瓦及びコンクリート造5連アーチ橋、橋長62m、幅8.0m,,21 － 0041,29,2001.09.14(平成13.09.14),2001.08.28(平成13.08.28),,20010828,,国土の歴史的景観に寄与しているもの,,岐阜県,岐阜県美濃市大字立花字湯ノ洞～字長平,,中部電力株式会社,,,35.57842944000000,136.93345544000000,導水路の第３号隧道出口に隣接する，橋長６２ｍ，幅８．０ｍの煉瓦及びコンクリート造充腹５連アーチ橋。アーチ形に刳り抜れた各橋脚の上に花崗岩の迫持石がのり，そこから６枚厚の煉瓦アーチ部が立ち上がる。山道の景観に風趣を添え，市民に親しまれている。,https://bunka.nii.ac.jp/heritage/43967/_103236/43967_103236201661703330945_300.jpg
101,00002247,長良川発電所下須原谷水路橋,ながらがわはつでんしょしもすはらだにすいろきょう,1基,,登録有形文化財(建造物),生活関連,土木構造物,,明治,明治43,1910,煉瓦及びコンクリート造単アーチ橋、橋長13m、幅9.3m,,21 － 0042,29,2001.09.14(平成13.09.14),2001.08.28(平成13.08.28),,20010828,,国土の歴史的景観に寄与しているもの,,岐阜県,岐阜県美濃市大字須原字小洞,,中部電力株式会社,,,35.57749381000000,136.93052151000000,第二沈砂池に隣接し，下須原川を跨ぐ橋長１３ｍ，幅９．３ｍの煉瓦及びコンクリート造充腹単アーチ橋。４枚厚煉瓦欠円アーチの上に深さ３．３ｍの外装イギリス積煉瓦水路が設けられる。笠木部分に異なる厚さで煉瓦を２段積み，外観を引き締める。,https://bunka.nii.ac.jp/heritage/43967/_103237/43967_103237046706131300610_300.jpg
101,00002248,長良川発電所第二沈砂池排水路暗渠,ながらがわはつでんしょだいにちんさちはいすいろあんきょ,1基,,登録有形文化財(建造物),生活関連,土木構造物,,明治,明治43,1910,煉瓦及び石造、長さ2.3m、幅0.90m、鉄製排砂門付,,21 － 0043,29,2001.09.14(平成13.09.14),2001.08.28(平成13.08.28),,20010828,,国土の歴史的景観に寄与しているもの,,岐阜県,岐阜県美濃市大字須原字小洞168-8,,中部電力株式会社,,,35.57657375000000,136.92929399000000,導水路中央部に位置する第二沈砂池排砂路の基部にある。長さ２．３ｍ，幅０．９０ｍ，高さ０．８５ｍの煉瓦造欠円アーチ形坑道の端部に，迫石を花崗岩でつくった坑門が付く。坑道内に捲上機と連動した鉄製排砂門を設け，小規模ながら重厚な外観を呈する。,https://bunka.nii.ac.jp/heritage/43967/_103238/43967_103238713771453579166_300.jpg
101,00002249,長良川発電所第一沈砂池防水壁,ながらがわはつでんしょだいいちちんさちぼうすいへき,1基,,登録有形文化財(建造物),生活関連,土木構造物,,明治,明治43,1910,煉瓦及び石造、全長折曲り60m、管理用通路及び水門操作場付,,21 － 0044,29,2001.09.14(平成13.09.14),2001.08.28(平成13.08.28),,20010828,,国土の歴史的景観に寄与しているもの,,岐阜県,岐阜県美濃市大字須原字山ノ神858-2,,中部電力株式会社,,,35.57512416000000,136.92833847000000,導水路第一隧道の手前に位置する第一沈砂池に隣接してたつ。ほぼ五角形平面で，外周に階段付通路を設ける。パラペット付煉瓦積壁面と玉石積壁面が全体を囲み，隧道の流入水量を調節するために各々２つの小門扉を収める４門の半円アーチ形大ゲートが備わる。,https://bunka.nii.ac.jp/heritage/43967/_103239/43967_103239701819725600207_300.jpg
101,00002250,長良川発電所取水口呑口上部,ながらがわはつでんしょしゅすいこうのみくちじょうぶ,1基,,登録有形文化財(建造物),生活関連,土木構造物,,明治,明治43,1910,煉瓦、石及びコンクリート造、幅14m、高さ2.7m,,21 － 0045,29,2001.09.14(平成13.09.14),2001.08.28(平成13.08.28),,20010828,,国土の歴史的景観に寄与しているもの,,岐阜県,岐阜県郡上市美並町上田字干谷口3209-1、3206-2,,中部電力株式会社,,,35.57349224000000,136.92843027000000,村南部，長良川中流域にある水力発電所の取水口。迫石に花崗岩を用いた５門の欠円アーチ形ゲートの上に，増水時の取水に使われる４つの矩形開口部（現在閉切）を設けたイギリス積の煉瓦壁面を立ち上げる。当発電所の建設には野口遵と佐藤四郎が関係している。,https://bunka.nii.ac.jp/heritage/43967/_103240/43967_103240621604364642588_300.jpg
101,00002251,庄村家住宅主屋,しょうむらけじゅうたくしゅおく,1棟,,登録有形文化財(建造物),産業3次,建築物,,明治,明治初期頃,1868-1911頃,木造2階建、亜鉛メッキ鋼板葺、建築面積188㎡,,21 － 0046,29,2001.09.14(平成13.09.14),2001.08.28(平成13.08.28),,20010828,,造形の規範となっているもの,,岐阜県,岐阜県郡上市八幡町島谷1145,,,,,35.74805000000000,136.95510000000000,江戸時代より八幡の商業中心地であった今町の通りに面した商家。主屋は桁行６間の切妻造・平入で，絵様付の出桁で２階の格子窓を受け，起り屋根の庇を設ける。内部には装飾的な欄間等を用いた数寄屋風の座敷をもつ。規模も大きく各部の意匠が整った商家建築。,https://bunka.nii.ac.jp/heritage/43967/_103241/43967_103241111225012712468_300.jpg
101,00002252,庄村家住宅東土蔵,しょうむらけじゅうたくひがしどぞう,1棟,,登録有形文化財(建造物),住宅,建築物,,明治,明治後期頃,1868-1911頃,土蔵造2階建、瓦葺、建築面積31㎡,,21 － 0047,29,2001.09.14(平成13.09.14),2001.08.28(平成13.08.28),,20010828,,再現することが容易でないもの,,岐阜県,岐阜県郡上市八幡町島谷1145,,,,,35.74830000000000,136.95500000000000,庄村家の敷地は南が通りに面し，北方には吉田川が流れている。敷地奥に建つ東土蔵は，刀剣や陶磁器等の収蔵庫。高さ約２メートルの玉石積基礎で，切妻造・２階建，南面１階に観音扉，北面に鉄扉付小窓を上下に設ける。外壁は丁寧なつくりの漆喰塗である。,https://bunka.nii.ac.jp/heritage/43967/_103242/43967_103242111225012712733_300.jpg
101,00002253,庄村家住宅西土蔵,しょうむらけじゅうたくにしどぞう,1棟,,登録有形文化財(建造物),住宅,建築物,,明治,明治後期頃,1868-1911頃,土蔵造2階建、瓦葺、建築面積27㎡,,21 － 0048,29,2001.09.14(平成13.09.14),2001.08.28(平成13.08.28),,20010828,,再現することが容易でないもの,,岐阜県,岐阜県郡上市八幡町島谷1145,,,,,35.74828000000000,136.95500000000000,米や日常道具の収蔵庫。切妻造・２階建で，東土蔵と並んで建ち，一連の屋根を架ける。吉田川の氾濫に備えるため高い玉石積基礎とし，外壁漆喰塗で腰を下見板張にする。開口部は縁取をつくり，まぐさ状の上部は虹梁型として，絵様渦文を施すなど見所がある。,https://bunka.nii.ac.jp/heritage/43967/_103243/43967_103243111225012712994_300.jpg
101,00002254,庄村家住宅附属屋,しょうむらけじゅうたくふぞくや,1棟,,登録有形文化財(建造物),住宅,建築物,,明治,明治後期頃,1868-1911頃,木造2階建、亜鉛メッキ鋼板葺、建築面積72㎡,,21 － 0049,29,2001.09.14(平成13.09.14),2001.08.28(平成13.08.28),,20010828,,造形の規範となっているもの,,岐阜県,岐阜県郡上市八幡町島谷1145,,,,,35.74824000000000,136.95490000000000,土蔵の西側にあり，隠居部屋とされていた。南側は木造２階建で，各階とも板間になり，北側は下部が下見板で覆った玉石積の高い基礎で，このうえに木造の床・棚付の座敷をのせ，全体として２階建風とする。座敷廻りは数寄屋風の意匠で簡明に纏められている。,https://bunka.nii.ac.jp/heritage/43967/_103244/43967_103244111225012714286_300.jpg
101,00003100,長屋清左衛門住宅主屋,ながやせいざえもんじゅうたくしゅおく,1棟,,登録有形文化財(建造物),住宅,建築物,,江戸,江戸中期,1661-1750,木造平屋建、鉄板葺、建築面積280㎡,,21 － 0050,35,2003.02.26(平成15.02.26),2003.01.31(平成15.01.31),,20030131,,国土の歴史的景観に寄与しているもの,,岐阜県,岐阜県関市板取1556-1,,,,,35.69982000000000,136.80520000000000,美濃地方北部の山間部にある庄屋の住宅。主屋は１２間に６間半の大規模なもので，南を正面とし，西を上手とする。現在鉄板葺の緩勾配，切妻造の大屋根は以前は杉皮葺であった。後世の改造は多いが１７世紀に遡る遺構と見られる。,https://bunka.nii.ac.jp/heritage/43967/_104090/43967_104090111225013551445_300.jpg
101,00003101,長屋清左衛門住宅長屋門,ながやせいざえもんじゅうたくながやもん,1棟,,登録有形文化財(建造物),住宅,建築物,,江戸,江戸後期,1751-1829,木造、鉄板葺、建築面積52㎡,,21 － 0051,35,2003.02.26(平成15.02.26),2003.01.31(平成15.01.31),,20030131,,国土の歴史的景観に寄与しているもの,,岐阜県,岐阜県関市板取1556-1,,,,,35.69970000000000,136.80540000000000,敷地東面の主屋南東側に東を正面として建つ切妻造の長屋門。屋根は主屋同様鉄板葺であるが以前は杉皮葺であったと見られる。前後の軒をせがいとし，深い軒の出を造る。近世の庄屋住宅の構成要素として欠かせない物件。,https://bunka.nii.ac.jp/heritage/43967/_104091/43967_104091111225013551961_300.jpg
101,00003855,渡邉家住宅土蔵別館,わたなべけじゅうたくどぞうべっかん,1棟,,登録有形文化財(建造物),住宅,建築物,,昭和前,昭和9,1934,土蔵造2階建、鉄板葺、建築面積40㎡,,21 － 0052,40,2004.03.04(平成16.03.04),2004.02.17(平成16.02.17),,20040217,,国土の歴史的景観に寄与しているもの,,岐阜県,岐阜県飛騨市古川町壱之町7-3,,,,,36.23520000000000,137.18620000000000,土蔵造２階建，入母屋造，鉄板葺の離座敷。瀬戸川に面し，土蔵造の酒蔵と漬物蔵に挟まれる。川側外壁は目地切のモルタル洗出し，１階１０畳座敷の広縁，２階洋室の洋風縦長窓を開き，胴蛇腹風の小庇，軒蛇腹風の鉢巻で洋風を表現する。棟梁は古川の中村房吉。,https://bunka.nii.ac.jp/heritage/43967/_104845/43967_104845111225014405871_300.jpg
101,00004546,旧美濃町産業会館,きゅうみのまちさんぎょうかいかん,1棟,,登録有形文化財(建造物),産業3次,建築物,,昭和前,昭和16,1941,木造2階建、スレート葺、建築面積509㎡,,21 － 0053,45,2005.02.28(平成17.02.28),2005.02.09(平成17.02.09),,20050209,,造形の規範となっているもの,,岐阜県,岐阜県美濃市1901-3,,美濃市,,,35.54712000000000,136.91240000000000,美濃町信用購買販売利用組合が建設。桁行２２ｍ梁間１１ｍ規模，切妻造の木造総２階建で，外壁は腰タイル張、上部下見板張とし，正面の軒下には瓔珞飾りを付ける。窓の&#26979;と窓台を繋げてほぼ全周に廻し，水平線を強調した外観意匠に特徴がある。,https://bunka.nii.ac.jp/heritage/43967/_105536/43967_105536111225015225150_300.jpg
101,00004547,旧名鉄美濃町線美濃駅本屋,きゅうめいてつみのまちせんみのえきほんや,1棟,,登録有形文化財(建造物),交通,建築物,,大正,大正12,1923,木造平屋建、鉄板葺、建築面積136㎡,,21 － 0054,45,2005.02.28(平成17.02.28),2005.02.09(平成17.02.09),,20050209,,国土の歴史的景観に寄与しているもの,,岐阜県,岐阜県美濃市2926-4,,美濃市,,,35.54138000000000,136.91330000000000,美濃電気軌道株式会社新美濃町駅として建設。ターミナル型の駅本屋で，南面にプラットホームが取り付き，東妻面に待合室出入口を開ける。切妻造，下見板張で，正面の東妻は木骨を装飾的に表す。平成１１年廃線となったが，今なお地域のランドマーク的存在。,https://bunka.nii.ac.jp/heritage/43967/_105537/43967_105537111225015227360_300.jpg
101,00004548,旧名鉄美濃町線美濃駅プラットホーム及び線路,きゅうめいてつみのまちせんみのえきぷらっとほーむおよびせんろ,1所,,登録有形文化財(建造物),交通,その他工作,,大正,大正12,1923,プラットホーム　コンクリート造、鉄骨造上屋付、線路　土路盤、レール付、総面積405㎡,,21 － 0055,45,2005.02.28(平成17.02.28),2005.02.09(平成17.02.09),,20050209,,国土の歴史的景観に寄与しているもの,,岐阜県,岐阜県美濃市2926-4,,美濃市,,,35.54123000000000,136.91340000000000,駅舎本屋の南面に高０．７ｍ幅３．８ｍのプラットホーム２本がコ字形に取り付く。ホーム側壁は玉石張で，ホーム上屋はＬ形鋼で構築される。ホーム間には２線の軌道が残存し，駅舎本屋とともに近代軽便鉄道のターミナル駅の様相をよく留めていて貴重である。,https://bunka.nii.ac.jp/heritage/43967/_105538/43967_105538111225015230246_300.jpg
101,00004756,旧国鉄越美南線北濃駅機関車転車台,きゅうこくてつえつみなんせんほくのうえききかんしゃてんしゃだい,1基,,登録有形文化財(建造物),交通,その他工作,,明治,明治35／昭和9移設,1902／1934移設,鉄製転車台、直径15m、コンクリート造ピット付,,21 － 0056,46,2005.08.02(平成17.08.02),2005.07.12(平成17.07.12),,20050712,,再現することが容易でないもの,,岐阜県,岐阜県郡上市白鳥町歩岐島161-2,,長良川鉄道株式会社,,,35.93023000000000,136.82930000000000,長良川鉄道の北の終点・北濃駅構内に位置する手動式転車台。ピットはコンクリート造で深さ０．９６ｍとし，橋桁は鋼製上路式，長さ５０ｆｔのアメリカンブリッジ社製で，中央支承と桁両端の車輪で支えられるバランスト式とする。わが国に残る最古級の転車台。,https://bunka.nii.ac.jp/heritage/43967/_105746/43967_105746111225015804585_300.jpg
101,00004965,岐阜公園三重塔,ぎふこうえんさんじゅうのとう,1棟,,登録有形文化財(建造物),その他,建築物,,大正,大正6,1917,木造三重塔、瓦葺、建築面積24㎡,,21 － 0058,47,2005.12.05(平成17.12.05),2005.11.10(平成17.11.10),,20051110,,国土の歴史的景観に寄与しているもの,,岐阜県,岐阜県岐阜市槻谷13-2,,岐阜市,,,35.43468000000000,136.77580000000000,石造二重基壇上に建つ木造三重塔。各層とも方三間で，円柱を立てて尾垂木付の三手先組物を配し，上層には刎高欄を廻す。軒は二軒繁垂木で，本瓦葺屋根を架ける。装飾を用いない古風な意匠で，設計は伊東忠太。金華山の西麓にあって広く市民に親しまれている。,https://bunka.nii.ac.jp/heritage/43967/_105955/43967_105955111225020243107_300.jpg
101,00004966,葛西家住宅主屋,かさいけじゅうたくしゅおく,1棟,,登録有形文化財(建造物),住宅,建築物,,明治,明治28,1895,木造2階建、瓦葺、建築面積255㎡,,21 － 0059,47,2005.12.05(平成17.12.05),2005.11.10(平成17.11.10),,20051110,,造形の規範となっているもの,,岐阜県,岐阜県岐阜市敷島町9-82,,,,,35.40696000000000,136.73030000000000,市郊外にある大規模民家。南面して建つ切妻造２階建，平入で，４面に下屋を廻し，南面中央に入母屋造の玄関を突出し，桟瓦葺屋根とする。居室部は６間取に畳廊下を備えた平面で，全体に良材を用いた上質なつくりになり，随所に高い建築技術が発揮されている。,https://bunka.nii.ac.jp/heritage/43967/_105956/43967_105956111225020244727_300.jpg
101,00004967,葛西家住宅長屋門,かさいけじゅうたくながやもん,1棟,,登録有形文化財(建造物),住宅,建築物,,明治,明治28頃,1895頃,木造平屋建、瓦葺、建築面積43㎡,,21 － 0060,47,2005.12.05(平成17.12.05),2005.11.10(平成17.11.10),,20051110,,国土の歴史的景観に寄与しているもの,,岐阜県,岐阜県岐阜市敷島町9-82,,,,,35.40674000000000,136.73040000000000,主屋の南方にある。東西棟の切妻造，桟瓦葺の長屋門で，桁行約１４ｍの規模をもつ。中央やや東寄りに門口を構え，東側を物置，西側を供部屋とする。南面は腰を押縁下見板張，開口部には板屋根付の出格子をつける。屋敷正面に相応しい豪壮な構えを呈している。,https://bunka.nii.ac.jp/heritage/43967/_105957/43967_105957111225020246432_300.jpg
101,00004968,渡邉家住宅主屋,わたなべけじゅうたくしゅおく,1棟,,登録有形文化財(建造物),住宅,建築物,,江戸,江戸末期／明治37移築,1830-1867／1904移築,木造2階建、鉄板葺、建築面積239㎡,,21 － 0061,47,2005.12.05(平成17.12.05),2005.11.10(平成17.11.10),,20051110,,国土の歴史的景観に寄与しているもの,,岐阜県,岐阜県飛騨市古川町壱之町7-3,,,,,36.23540000000000,137.18630000000000,２階建の切妻造，鉄板葺，平入の伝統的な町家で，町並景観のランドマーク的存在。１階は梁組をみせる土間と繊細な数寄屋風の居室からなり，２階には座敷や茶室がある。街路沿いの正面は深い軒をつくり，階境には腕木式の板庇をつけ，格子は多彩で変化に富む。,https://bunka.nii.ac.jp/heritage/43967/_105958/43967_105958111225020248697_300.jpg
101,00004969,渡邉家住宅漬物蔵,わたなべけじゅうたくつけものぐら,1棟,,登録有形文化財(建造物),住宅,建築物,,江戸,元治元,1864,土蔵造2階建、鉄板葺、建築面積39㎡,,21 － 0062,47,2005.12.05(平成17.12.05),2005.11.10(平成17.11.10),,20051110,,国土の歴史的景観に寄与しているもの,,岐阜県,岐阜県飛騨市古川町壱之町7-3,,,,,36.23540000000000,137.18650000000000,敷地後方南端の瀬戸川沿いにある。土蔵造２階建で，西面１階に観音開扉を構え，東面に窓を設ける。小屋は牛梁に登梁を架け，屋根は置屋根式の鉄板葺である。外壁は漆喰塗，東面の腰は押縁下見板張で覆う。古川を特長づける土蔵群の町並景観の構成要素である。,https://bunka.nii.ac.jp/heritage/43967/_105959/43967_105959111225020250419_300.jpg
101,00004970,渡邉家住宅上手蔵,わたなべけじゅうたくかみてぐら,1棟,,登録有形文化財(建造物),住宅,建築物,,明治,明治5,1872,土蔵造2階建、鉄板葺、建築面積53㎡,,21 － 0063,47,2005.12.05(平成17.12.05),2005.11.10(平成17.11.10),,20051110,,国土の歴史的景観に寄与しているもの,,岐阜県,岐阜県飛騨市古川町壱之町7-3,,,,,36.23549000000000,137.18640000000000,敷地後方の瀬戸川沿いにある。土蔵造２階建，方４間の正方形平面で，１階は西半を土間，東半に床を張る。西面１階には観音開扉，東面に窓２段を設け，屋根は段違いの鉄板葺置屋根式，外壁は漆喰塗である。古川を特長づける土蔵群の町並景観の構成要素である。,https://bunka.nii.ac.jp/heritage/43967/_105960/43967_105960111225020250965_300.jpg
101,00004971,渡邉家住宅中蔵,わたなべけじゅうたくなかぐら,1棟,,登録有形文化財(建造物),住宅,建築物,,江戸,享和4,1804,土蔵造2階建、鉄板葺、建築面積53㎡,,21 － 0064,47,2005.12.05(平成17.12.05),2005.11.10(平成17.11.10),,20051110,,国土の歴史的景観に寄与しているもの,,岐阜県,岐阜県飛騨市古川町壱之町7-3,,,,,36.23556000000000,137.18640000000000,敷地後方の瀬戸川沿いにあり，古川を特長づける土蔵群の町並景観の構成要素である。土蔵造２階建，ほぼ方４間の平面で，西面１階には重厚な観音開扉を構え，１階の南西隅は踏込みの土間とする。小屋は登梁式で，屋根は置屋根式の鉄板葺，外壁は漆喰塗である。,https://bunka.nii.ac.jp/heritage/43967/_105961/43967_105961111225020252543_300.jpg
101,00004972,渡邉家住宅酒蔵,わたなべけじゅうたくさかぐら,1棟,,登録有形文化財(建造物),産業2次,建築物,,明治,明治14,1881,土蔵造2階建、鉄板葺、建築面積133㎡,,21 － 0065,47,2005.12.05(平成17.12.05),2005.11.10(平成17.11.10),,20051110,,国土の歴史的景観に寄与しているもの,,岐阜県,岐阜県飛騨市古川町壱之町7-3,,,,,36.23556000000000,137.18620000000000,敷地後方北端の瀬戸川沿いにあり，古川を特長づける土蔵群の町並景観の構成要素である。土蔵造２階建で，南面１階に観音開扉を構え，東面と南面に窓を設ける。小屋は登梁式，屋根は置屋根式鉄板葺で，外壁は漆喰塗とする。造酒屋の屋敷構成に欠かせない施設。,https://bunka.nii.ac.jp/heritage/43967/_105962/43967_105962111225020254116_300.jpg
101,00005275,杉山家住宅主屋,すぎやまけじゅうたくしゅおく,1棟,,登録有形文化財(建造物),住宅,建築物,,明治,明治25,1892,木造2階建、瓦葺、建築面積230㎡、高塀付,,21 － 0066,49,2006.03.23(平成18.03.23),2006.03.02(平成18.03.02),,20060302,,国土の歴史的景観に寄与しているもの,,岐阜県,岐阜県羽島郡笠松町下本町63,,笠松町,,,35.36549000000000,136.76170000000000,敷地東端に接道して建つ。桁行６間，梁間７間規模，切妻造，桟瓦葺，木造２階建の店舗兼住宅で，北側を落ち棟とし，北東隅に前庭を置く。背面南側には土間を張出す。正面外観は出桁造とし，２階外壁を漆喰で塗込める。笠松の往時の商家の姿を留め貴重。,https://bunka.nii.ac.jp/heritage/43967/_106263/43967_106263111225021017228_300.jpg
101,00005439,旧二村家住宅主屋,きゅうふたむらけじゅうたくしゅおく,1棟,,登録有形文化財(建造物),住宅,建築物,,江戸,天保9／平成17移築,1838／2005移築,木造2階建、鉄板葺、建築面積301㎡,,21 － 0067,50,2006.04.12(平成18.04.12),2006.03.27(平成18.03.27),,20060327,,造形の規範となっているもの,,岐阜県,岐阜県高山市奥飛騨温泉郷福地字アリタ879-1,,有限会社永福,,,36.22571000000000,137.53140000000000,市東部の温泉町福地を南北に流れる平湯川に面した敷地に西面して建つ。桁行２１ｍ，梁間１４ｍ，切妻造，鉄板葺とし，２階に木製出格子，１階に繊細な格子窓を嵌め込み，腰は押縁下見板張とする。檜材を主体とした良質な造りで，式台を備えた格式ある民家建築。,https://bunka.nii.ac.jp/heritage/43967/_106427/43967_106427111225021419126_300.jpg
101,00005440,足洗谷第一号砂防堰堤,あしあらいだにだいいちごうさぼうえんてい,1基,,登録有形文化財(建造物),治山治水,土木構造物,,昭和前,昭和9,1934,重力式コンクリート造堰堤、堤長59m、堤高10m、副堰堤付,,21 － 0068,50,2006.04.12(平成18.04.12),2006.03.27(平成18.03.27),,20060327,,国土の歴史的景観に寄与しているもの,,岐阜県,岐阜県高山市奥飛騨温泉郷中尾,,国（国土交通省）,,,36.25069000000000,137.57940000000000,神通川水系平湯川右支蒲田川に流れ込み，焼岳を水源とする足洗谷の上流域に位置する。堤長５９ｍ，堤高１０ｍの本堤は昭和８年，副堰堤は翌年築かれる。いずれも表面谷積の重力式コンクリート造で，下流に点在する温泉地を土砂災害から守る。,https://bunka.nii.ac.jp/heritage/43967/_106428/43967_106428111225021420557_300.jpg
101,00005441,岩坪谷第一号砂防堰堤,いわつぼだにだいいちごうさぼうえんてい,1基,,登録有形文化財(建造物),治山治水,土木構造物,,昭和前,昭和9,1934,重力式コンクリート造堰堤、堤長40m、堤高10m,,21 － 0069,50,2006.04.12(平成18.04.12),2006.03.27(平成18.03.27),,20060327,,国土の歴史的景観に寄与しているもの,,岐阜県,岐阜県高山市奥飛騨温泉郷一重ヶ根,,国（国土交通省）,,,36.23048000000000,137.55980000000000,神通川水系平湯川右支岩坪谷の上流域に位置する。堤長４０ｍ，堤高１０ｍ規模の重力式コンクリート造堰堤で，下流側法勾配２分，上流側法勾配５分とし，水通しの下には矩形の水抜き暗渠を設ける。谷積で築かれた堤体の基部に巨石を積むのが特徴的。,https://bunka.nii.ac.jp/heritage/43967/_106429/43967_106429111225021421828_300.jpg
101,00005442,岩坪谷第二号砂防堰堤,いわつぼだにだいにごうさぼうえんてい,1基,,登録有形文化財(建造物),治山治水,土木構造物,,昭和前,昭和13,1938,重力式コンクリート造堰堤、堤長41m、堤高8.0m、副堰堤付,,21 － 0070,50,2006.04.12(平成18.04.12),2006.03.27(平成18.03.27),,20060327,,国土の歴史的景観に寄与しているもの,,岐阜県,岐阜県高山市奥飛騨温泉郷一重ヶ根,,国（国土交通省）,,,36.22941000000000,137.56160000000000,焼岳を水源とする岩坪谷の最上流に位置する重力式コンクリート造の砂防堰堤で，堤長４１ｍ，堤高８．０ｍの本堤が昭和１１年，副堰堤は同１３年に竣工。縦侵食作用を受けた地形に対応し，水通し肩部を高さ５．０ｍ，法勾配５分で築いた立面形状が特徴的。,https://bunka.nii.ac.jp/heritage/43967/_106430/43967_106430111225021423291_300.jpg
101,00005443,岩坪谷第三号砂防堰堤,いわつぼだにだいさんごうさぼうえんてい,1基,,登録有形文化財(建造物),治山治水,土木構造物,,昭和前,昭和12,1937,重力式コンクリート造堰堤、堤長41m、堤高6.0m,,21 － 0071,50,2006.04.12(平成18.04.12),2006.03.27(平成18.03.27),,20060327,,国土の歴史的景観に寄与しているもの,,岐阜県,岐阜県高山市奥飛騨温泉郷一重ヶ根,,国（国土交通省）,,,36.22895000000000,137.56290000000000,岩坪谷第二号砂防堰堤の約１５０ｍ下流に位置する。堤長４１ｍ，堤高６．０ｍの重力式コンクリート造堰堤で，表面を谷積で築く。一号，二号堰堤と連続的に築くことで，渓床勾配の緩和による渓岸の安定が図られ，周辺の緑の回復に寄与している。,https://bunka.nii.ac.jp/heritage/43967/_106431/43967_106431111225021424566_300.jpg
101,00005444,日影第一号砂防堰堤,ひかげだいいちごうさぼうえんてい,1基,,登録有形文化財(建造物),治山治水,土木構造物,,昭和中,昭和27,1952,重力式コンクリート造堰堤、堤長56m、堤高17m,,21 － 0072,50,2006.04.12(平成18.04.12),2006.03.27(平成18.03.27),,20060327,,国土の歴史的景観に寄与しているもの,,岐阜県,岐阜県高山市奥飛騨温泉郷一重ヶ根,,国（国土交通省）,,,36.23373000000000,137.53760000000000,神通川水系平湯川右支岩坪谷の下流に位置する。堤長５６ｍ，堤高１７ｍの重力式コンクリート造堰堤で，表面を谷積で仕上げ，堤体のほぼ中央には，幅４ｍの大規模な欠円アーチ形暗渠を設けるのが特徴的。設計は建設省富山工事事務所長の橋本規明。,https://bunka.nii.ac.jp/heritage/43967/_106432/43967_106432111225021426086_300.jpg
101,00005453,皆楽座,かいらくざ,1棟,,登録有形文化財(建造物),宗教,建築物,,明治,明治31,1898,木造平屋建、瓦葺、建築面積168㎡,,21 － 0081,50,2006.04.12(平成18.04.12),2006.03.27(平成18.03.27),,20060327,,国土の歴史的景観に寄与しているもの,,岐阜県,岐阜県各務原市鵜沼羽場町1-217,,各務原市,,,35.40437000000000,136.92130000000000,市東部の津島神社境内南寄りに建つ。桁行１５ｍ，梁間１０ｍとした切妻造，桟瓦葺，妻入で，正面以外の三方に下屋を廻す。舞台正面の軒を彫刻持送板で出桁を支えて高くし，本殿に向かって構える。囃子座，楽屋，廻舞台，奈落を完備した本格的なつくり。,https://bunka.nii.ac.jp/heritage/43967/_106441/43967_106441111225021427452_300.jpg
101,00005454,梅田家住宅主屋,うめだけじゅうたくしゅおく,1棟,,登録有形文化財(建造物),住宅,建築物,,江戸,江戸後期,1751-1829,木造平屋建、瓦葺、建築面積166㎡,,21 － 0082,50,2006.04.12(平成18.04.12),2006.03.27(平成18.03.27),,20060327,,国土の歴史的景観に寄与しているもの,,岐阜県,岐阜県各務原市鵜沼西町1-530,,,,,35.40460000000000,136.93560000000000,市を東西に貫く旧中山道に北面して建つ。桁行６間，梁間５間，切妻造，平入とし，正面は，一階のほぼ東半に出格子を設け，２階には袖卯建をあげ，縦格子入りの窓を左右対称に配し，長押や柱を現す外観とする。旧鵜沼宿で唯一近世に遡る町家建築として貴重。,https://bunka.nii.ac.jp/heritage/43967/_106442/43967_106442111225021429070_300.jpg
101,00005455,梅田家住宅離れ,うめだけじゅうたくはなれ,1棟,,登録有形文化財(建造物),住宅,建築物,,昭和前,昭和10頃,1935頃,木造平屋建、瓦葺、建築面積97㎡,,21 － 0083,50,2006.04.12(平成18.04.12),2006.03.27(平成18.03.27),,20060327,,国土の歴史的景観に寄与しているもの,,岐阜県,岐阜県各務原市鵜沼西町1-530,,,,,35.40459000000000,136.93580000000000,主屋の東に接続する。北東隅に茶室を配するＬ字形平面の木造平屋建で，軒桁には化粧丸太を用いる。中庭に面して，曇りガラスと透明ガラスを交互に嵌めた欄間を配し，廊下の西南隅には円窓を設ける。旧街道に向けて２つの入母屋破風を見せる特色ある外観。,https://bunka.nii.ac.jp/heritage/43967/_106443/43967_106443111225021430587_300.jpg
101,00005456,梅田家住宅土蔵,うめだけじゅうたくどぞう,1棟,,登録有形文化財(建造物),住宅,建築物,,昭和前,昭和7,1932,土蔵造2階建、瓦葺、建築面積71㎡,,21 － 0084,50,2006.04.12(平成18.04.12),2006.03.27(平成18.03.27),,20060327,,国土の歴史的景観に寄与しているもの,,岐阜県,岐阜県各務原市鵜沼西町1-530,,,,,35.40440000000000,136.93570000000000,南北に細長い敷地の南東に，北面して建つ。桁行６間，梁間３間の２階建で，平入とし，北面に軒を深く張り出す。基礎は大型の石を亀甲積風に築き，東・西・南面は腰を簓子下見板張，北面は目地付モルタル洗出仕上げとする。敷地の角に建ち，屋敷構を整える。,https://bunka.nii.ac.jp/heritage/43967/_106444/43967_106444111225021432049_300.jpg
101,00005458,坂井家住宅主屋,さかいけじゅうたくしゅおく,1棟,,登録有形文化財(建造物),住宅,建築物,,明治,明治27,1894,木造平屋建、瓦葺、建築面積189㎡,,21 － 0086,50,2006.04.12(平成18.04.12),2006.03.27(平成18.03.27),,20060327,,国土の歴史的景観に寄与しているもの,,岐阜県,岐阜県各務原市鵜沼西町1-532,,,,,35.40457000000000,136.93590000000000,市を東西に貫く旧中山道に北面して建つ。桁行８間半，梁間５間規模の木造つし２階建。寄棟造，平入とし，平側に下屋を張り出す。正面に切妻造の破風をつけた式台玄関を設ける格式高いつくり。旧街道沿いの民家として，多様な町並み景観の形成に寄与する。,https://bunka.nii.ac.jp/heritage/43967/_106446/43967_106446111225021434177_300.jpg
101,00005459,坂井家住宅土蔵,さかいけじゅうたくどぞう,1棟,,登録有形文化財(建造物),住宅,建築物,,明治,明治中期,1868-1911,土蔵造2階建、瓦葺、建築面積55㎡,,21 － 0087,50,2006.04.12(平成18.04.12),2006.03.27(平成18.03.27),,20060327,,国土の歴史的景観に寄与しているもの,,岐阜県,岐阜県各務原市鵜沼西町1-532,,,,,35.40437000000000,136.93590000000000,主屋の背後に位置し，北面して建つ。桁行５間，梁間２間規模の土蔵造２階建，切妻造，平入とし，高さの異なる棟を東西に連続させ，西の妻面には庇の持送りを塗り込めた重厚な窓を設ける。南北に細長い敷地の南東隅に位置し，屋敷構を整える。,https://bunka.nii.ac.jp/heritage/43967/_106447/43967_106447111225021435627_300.jpg
101,00005460,坂井家住宅門及び塀,さかいけじゅうたくもんおよびへい,1棟,,登録有形文化財(建造物),住宅,その他工作,,明治,明治中期,1868-1911,門　木造、瓦葺、間口3.6m、塀　土塀、瓦葺、延長32m,,21 － 0088,50,2006.04.12(平成18.04.12),2006.03.27(平成18.03.27),,20060327,,国土の歴史的景観に寄与しているもの,,岐阜県,岐阜県各務原市鵜沼西町1-532,,,,,35.40464000000000,136.93600000000000,旧中山道とそれに直交する路地に面して築かれる。北面に位置する門は，切妻屋根，桟瓦葺の棟門で，東脇に潜戸を付ける。塀は，路地側を鉄板で覆う。延長２２ｍの北面の土塀と，腰下見板張，延長９．５ｍの東面の土塀からなり，全体を桟瓦で葺く。,https://bunka.nii.ac.jp/heritage/43967/_106448/43967_106448111225021437162_300.jpg
101,00005602,震災紀念堂,しんさいきねんどう,1棟,,登録有形文化財(建造物),その他,建築物,,明治,明治26,1893,木造平屋建、瓦葺、建築面積175㎡,,21 － 0089,51,2006.08.24(平成18.08.24),2006.08.03(平成18.08.03),,20060803,,造形の規範となっているもの,,岐阜県,岐阜県岐阜市若宮町2-10,,宗教法人紀念堂,,,35.42030000000000,136.76200000000000,市街地にあり，ほぼ南面して建つ。入母屋造，桟瓦葺，正面唐破風造の向拝付で，平面は外陣，内陣及び余間の構成になり，側廻りは角柱に舟肘木を載せる。震災紀念堂としては我が国最初のもので，外観，内部とも浄土真宗本堂形式を基調としている。,https://bunka.nii.ac.jp/heritage/43967/_106590/43967_106590111225021724695_300.jpg
101,00005603,保々家住宅主屋,ほぼけじゅうたくしゅおく,1棟,,登録有形文化財(建造物),住宅,建築物,,江戸,江戸中期／江戸後期改造,1661-1750／1751-1829改造,木造平屋建、瓦葺、建築面積161㎡,,21 － 0090,51,2006.08.24(平成18.08.24),2006.08.03(平成18.08.03),,20060803,,国土の歴史的景観に寄与しているもの,,岐阜県,岐阜県瑞浪市大湫町402-1,,,,,35.43333000000000,137.29390000000000,中山道大湫宿の脇本陣で，街道の西側奥の高台に建つ。南東に面する切妻造，桟瓦葺，平屋建，平入で，正面の庇上の小壁には木瓜形の窓や桔梗紋の漆喰飾を設ける。南側にあった玄関や座敷が失われているが，往時の宿場の中心的な建築として，景観を形成する。,https://bunka.nii.ac.jp/heritage/43967/_106591/43967_106591111225021726503_300.jpg
101,00005604,三浦家住宅主屋,みうらけじゅうたくしゅおく,1棟,,登録有形文化財(建造物),住宅,建築物,,江戸,江戸末期,1830-1867,木造2階建、瓦葺、建築面積141㎡,,21 － 0091,51,2006.08.24(平成18.08.24),2006.08.03(平成18.08.03),,20060803,,国土の歴史的景観に寄与しているもの,,岐阜県,岐阜県瑞浪市大湫町442-1,,,,,35.43384000000000,137.29520000000000,中山道大湫宿にある旅籠を兼ねた住宅で，街道に北面して建つ。切妻造，桟瓦葺，２階建の平入で，正面と東側に下屋を設ける。１階は東に３室，西は土間や台所等とし，表側２階を部屋とする。正面開口部に格子を構えた外観は，宿場の景観をよく伝えている。,https://bunka.nii.ac.jp/heritage/43967/_106592/43967_106592111225021728065_300.jpg
101,00005605,森川訓行家住宅主屋,もりかわのりゆきけじゅうたくしゅおく,1棟,,登録有形文化財(建造物),住宅,建築物,,江戸,江戸末期,1830-1867,木造2階建、瓦葺、建築面積185㎡,,21 － 0092,51,2006.08.24(平成18.08.24),2006.08.03(平成18.08.03),,20060803,,国土の歴史的景観に寄与しているもの,,岐阜県,岐阜県瑞浪市大湫町445-2,,,,,35.43376000000000,137.29510000000000,中山道大湫宿の旅籠や問屋を兼ねた住宅。街道に北面して建ち，切妻造，桟瓦葺，２階建の平入で，正面と西側に下屋を廻す。１階は西を３室２列の居室，東を土間とし，２階は表側に部屋を設ける。正面の格子，両妻の漆喰塗の袖壁など，宿場の景観をよく残す。,https://bunka.nii.ac.jp/heritage/43967/_106593/43967_106593937067010769282_300.jpg
101,00005606,森川善章家住宅主屋,もりかわよしあきけじゅうたくしゅおく,1棟,,登録有形文化財(建造物),住宅,建築物,,明治,明治26,1893,木造2階建、瓦葺、建築面積145㎡,,21 － 0093,51,2006.08.24(平成18.08.24),2006.08.03(平成18.08.03),,20060803,,国土の歴史的景観に寄与しているもの,,岐阜県,岐阜県瑞浪市大湫町463-1,,瑞浪市,,,35.43285000000000,137.29410000000000,旧中山道大湫宿の旅宿や問屋を兼ねた住宅。街道に北面して建ち，木造２階建，切妻造，桟瓦葺，平入で，正面と両側に下屋を廻す。１階は３室２列の居室と土間，２階は６室に間仕切る。たちの高いつくりは近代の傾向を示すが，旧街道の町並み景観をよく残す。,https://bunka.nii.ac.jp/heritage/43967/_106594/43967_106594961678489466484_300.jpg
101,00005607,貞照寺本堂,ていしょうじほんどう,1棟,,登録有形文化財(建造物),宗教,建築物,,昭和前,昭和8,1933,木造平屋建、銅板葺、建築面積251㎡,,21 － 0094,51,2006.08.24(平成18.08.24),2006.08.03(平成18.08.03),,20060803,,国土の歴史的景観に寄与しているもの,,岐阜県,岐阜県各務原市鵜沼宝積寺町5-189,,,,,35.40742000000000,136.95910000000000,桁行，梁間とも中央間が広い方５間堂。屋根は入母屋造，正面千鳥破風付，向拝軒唐破風付，瓦棒銅板葺である。軸部から軒廻りまで正統的なつくりで，側面・背面は霊験記の彫物で飾る。鉄筋コンクリート造舞台付の高床上にあり，際だった堂姿を見せている。,https://bunka.nii.ac.jp/heritage/43967/_106595/43967_106595111225021733627_300.jpg
101,00005608,貞照寺庫裏,ていしょうじくり,1棟,,登録有形文化財(建造物),宗教,建築物,,昭和前,昭和8,1933,木造平屋建、瓦葺、建築面積218㎡,,21 － 0095,51,2006.08.24(平成18.08.24),2006.08.03(平成18.08.03),,20060803,,造形の規範となっているもの,,岐阜県,岐阜県各務原市鵜沼宝積寺町5-189,,,,,35.40759000000000,136.95960000000000,本堂の北東，池の東に建つ。東西棟の入母屋造で，南面に唐破風造の玄関を突出し，桟瓦葺とする。内部は玄関奥に応接間，この西に１６畳の大広間や８畳の床の間，東に板間と土間を配する。良材を用い，凝った欄間など，つくりも上質で，当時の和風建築の好例。,https://bunka.nii.ac.jp/heritage/43967/_106596/43967_106596111225021735392_300.jpg
101,00005609,貞照寺書院,ていしょうじしょいん,1棟,,登録有形文化財(建造物),宗教,建築物,,昭和前,昭和8,1933,木造平屋建、瓦葺、建築面積50㎡,,21 － 0096,51,2006.08.24(平成18.08.24),2006.08.03(平成18.08.03),,20060803,,造形の規範となっているもの,,岐阜県,岐阜県各務原市鵜沼宝積寺町5-189,,,,,35.40771000000000,136.95960000000000,南北棟の寄棟造，桟瓦葺で，南は庫裏北側に接続している。平面は北を床・棚付の８畳，南を６畳とし，西に縁を設け，室境の小壁に障子，側廻り小壁にガラス戸を入れて開放的にする。皮付桜材の床柱，棚上の網代天井など，要所に数寄屋風意匠を盛り込んでいる。,https://bunka.nii.ac.jp/heritage/43967/_106597/43967_106597111225021736971_300.jpg
101,00005610,貞照寺鐘楼,ていしょうじしょうろう,1棟,,登録有形文化財(建造物),宗教,建築物,,昭和前,昭和8,1933,木造、銅板葺、面積22㎡,,21 － 0097,51,2006.08.24(平成18.08.24),2006.08.03(平成18.08.03),,20060803,,造形の規範となっているもの,,岐阜県,岐阜県各務原市鵜沼宝積寺町5-189,,,,,35.40706000000000,136.95950000000000,本堂の南東方にあり，切石積基壇上に建つ。桁行１間，梁間１間の袴腰付鐘楼で，屋根は南北棟の入母屋造，銅板葺である。円柱を虹梁型頭貫で固め，拳鼻付の出組を詰組とする。欅の素木で，獅子鼻や持ち送り彫物なども装飾を控えめにし，全体に均整がとれている。,https://bunka.nii.ac.jp/heritage/43967/_106598/43967_106598111225021738470_300.jpg
101,00005611,貞照寺門,ていしょうじもん,1棟,,登録有形文化財(建造物),宗教,その他工作,,昭和前,昭和8,1933,木造、銅板葺、面積29㎡,,21 － 0098,51,2006.08.24(平成18.08.24),2006.08.03(平成18.08.03),,20060803,,国土の歴史的景観に寄与しているもの,,岐阜県,岐阜県各務原市鵜沼宝積寺町5-189,,,,,35.40730000000000,136.95990000000000,入母屋造，銅板葺，正面と背面に千鳥破風，軒唐破風を付けた八脚門で，仁王像を安置する。軸部は円柱を貫で固め，出組の詰組，軒支輪付で，二軒隅扇垂木とする。内法貫上は精緻な彫物欄間で飾る。調和のとれた外観で，細部も充実し，境内東の正面に相応しい門。,https://bunka.nii.ac.jp/heritage/43967/_106599/43967_106599111225021740225_300.jpg
101,00005612,貞照寺宝物庫,ていしょうじほうもつこ,1棟,,登録有形文化財(建造物),宗教,建築物,,昭和前,昭和8,1933,鉄筋コンクリート造平屋建、銅板葺、建築面積125㎡,,21 － 0099,51,2006.08.24(平成18.08.24),2006.08.03(平成18.08.03),,20060803,,造形の規範となっているもの,,岐阜県,岐阜県各務原市鵜沼宝積寺町5-189,,,,,35.40706000000000,136.95910000000000,本堂南に北面して建つ。鉄筋コンクリート造，高床式の平屋建で，切妻造屋根を架ける。四周に庇を廻した側廻りは，下部を校倉風とし，上部は角柱を現して縦格子窓，連子窓を設ける。内部１室でガラス天井とする。近代の材料や技術で伝統様式を再構成した事例。,https://bunka.nii.ac.jp/heritage/43967/_106600/43967_106600111225021742743_300.jpg
101,00005613,貞照寺稲荷堂,ていしょうじいなりどう,1棟,,登録有形文化財(建造物),宗教,建築物,,昭和前,昭和8,1933,木造平屋建、銅板葺、建築面積11㎡,,21 － 0100,51,2006.08.24(平成18.08.24),2006.08.03(平成18.08.03),,20060803,,造形の規範となっているもの,,岐阜県,岐阜県各務原市鵜沼宝積寺町5-189,,,,,35.40728000000000,136.95890000000000,宝物館西隣にほぼ東面して建つ。東西棟の切妻造，銅板葺，妻入で，軒は一軒とする。平面は縦長で，前を板敷として奥に棚を設け，正面と両側面に切目縁を設ける。真壁造で，角柱を貫，長押で固めて舟肘木を載せ，正面妻飾に蟇股をつける。簡素だがつくりは丁寧。,https://bunka.nii.ac.jp/heritage/43967/_106601/43967_106601111225021744388_300.jpg
101,00005614,貞照寺浄水舎,ていしょうじじょうすいしゃ,1棟,,登録有形文化財(建造物),宗教,その他工作,,昭和前,昭和8,1933,木造、瓦葺、面積5.0㎡,,21 － 0101,51,2006.08.24(平成18.08.24),2006.08.03(平成18.08.03),,20060803,,国土の歴史的景観に寄与しているもの,,岐阜県,岐阜県各務原市鵜沼宝積寺町5-189,,,,,35.40716000000000,136.96000000000000,門の南東に位置する。横長平面の吹放し形式で，屋根は東西棟の切妻造，桟瓦葺，軒は一軒とする。四隅に内転びの角柱を立てて内法貫で固め，舟肘木を載せて桁を受ける。妻飾は蟇股で絵様肘木を載せて棟木を受ける。小規模であるが，境内構成上，欠かせない存在。,https://bunka.nii.ac.jp/heritage/43967/_106602/43967_106602111225021746221_300.jpg
101,00005615,前野町火の見櫓,まえのちょうひのみやぐら,1基,,登録有形文化財(建造物),生活関連,その他工作,,昭和前,昭和12,1937,鉄骨造、高さ19m,,21 － 0102,51,2006.08.24(平成18.08.24),2006.08.03(平成18.08.03),,20060803,,国土の歴史的景観に寄与しているもの,,岐阜県,岐阜県各務原市那加前野町4-2,,前野町自治会,,,35.40869000000000,136.83510000000000,高さ約１９ｍの鉄骨造の火の見櫓で，銘板から年代等が明確。山形鋼を四脚に建てて横材を渡し，その間をリング式ターンバックルで固める。最上部は円錐形屋根付の方形望楼を載せ，中間には半鐘を架ける。地域の歴史的景観の核として広く市民に親しまれている。,https://bunka.nii.ac.jp/heritage/43967/_106603/43967_106603111225021748035_300.jpg
101,00005863,山神砂防堰堤,やまがみさぼうえんてい,1基,,登録有形文化財(建造物),治山治水,土木構造物,,昭和前,昭和15,1940,重力式コンクリート造堰堤、堤長42m、堤高8.0m、副堰堤、水叩及び護岸付,,21 － 0103,52,,2006.10.18(平成18.10.18),,20061018,,国土の歴史的景観に寄与しているもの,,岐阜県,岐阜県中津川市恵下地内,,国（国土交通省）,,,35.48324000000000,137.51800000000000,市中心部を貫流する木曽川水系中津川支川四ツ目川の中流域に位置する。堤長４２ｍ，堤高８ｍの重力式練積堰堤を，護岸とむくり付の副堰堤と一体的に築き，表面は全体を谷積とする。四ツ目川災害後に計画された砂防事業において，最初に築かれた砂防堰堤。,https://bunka.nii.ac.jp/heritage/43967/_106849/43967_106849111225022435791_300.jpg
101,00005864,二ヶ滝第一砂防堰堤,にがたきだいいちさぼうえんてい,1基,,登録有形文化財(建造物),治山治水,土木構造物,,昭和中,昭和24,1949,重力式石造堰堤、堤長26m、堤高5.0m,,21 － 0104,52,,2006.10.18(平成18.10.18),,20061018,,再現することが容易でないもの,,岐阜県,岐阜県中津川市川上地内,,国（国土交通省）,,,35.43796000000000,137.51880000000000,市の南部を流れる中津川支川正ヶ根谷右支二ヶ滝に位置する。堤長２６ｍ，堤高５ｍ規模の重力式の堰堤で，上流側法勾配５分，下流側法勾配４分とし，表面は谷積で築く。切石の空積を用いるという，全国的に類例の少ない構造形式が特徴。,https://bunka.nii.ac.jp/heritage/43967/_106850/43967_106850111225022438220_300.jpg
101,00005882,浦山第二砂防堰堤,うらやまだいにさぼうえんてい,1基,,登録有形文化財(建造物),治山治水,土木構造物,,昭和前,昭和18,1943,重力式石造堰堤、堤長28m、堤高5.0m,,21 － 0105,52,,2006.10.18(平成18.10.18),,20061018,,国土の歴史的景観に寄与しているもの,,岐阜県,岐阜県土岐市妻木町旭町,,国（国土交通省）,,,35.29562000000000,137.19150000000000,市を南北に貫流する庄内川水系妻木川の支川浦山谷川に位置する。堤長２８ｍ，堤高５ｍの重力式の堰堤で，表面は谷積，法勾配は上下流とも５分とする。切石の空積を用いながらも，天端幅３．５ｍと堤体を厚く築くことで，土砂圧に耐える。,https://bunka.nii.ac.jp/heritage/43967/_106867/43967_106867111225022503877_300.jpg
101,00005976,丹羽家住宅主屋,にわけじゅうたくしゅおく,1棟,,登録有形文化財(建造物),住宅,建築物,,昭和前,昭和5,1930,木造2階建、瓦葺、建築面積174㎡,,21 － 0108,53,,2006.11.29(平成18.11.29),,20061129,,国土の歴史的景観に寄与しているもの,,岐阜県,岐阜県各務原市鵜沼西町1-923,,,,,35.40496000000000,136.93370000000000,旧中山道鵜沼宿の旧街道の北側角地に建つ。木造２階建，切妻造平入の町家である。桁行８間，梁間４間で表裏に下屋が付く。１階は東が土間で背面に水屋を突出する。西の居室は８畳規模の整形四間取で下屋を縁としている。旧街道の様子が窺える。,https://bunka.nii.ac.jp/heritage/43967/_106961/43967_106961111225022747645_300.jpg
101,00005986,梅田家住宅離れ,うめだけじゅうたくはなれ,1棟,,登録有形文化財(建造物),住宅,建築物,,明治,明治元,1868,木造2階一部平屋建、瓦葺、建築面積107㎡,,21 － 0107,53,,2006.11.29(平成18.11.29),,20061129,,国土の歴史的景観に寄与しているもの,,岐阜県,岐阜県各務原市鵜沼西町1-529,,,,,35.40441000000000,136.93550000000000,敷地の背面側道路に面する。桁行６間半，梁間３間の切妻造２階建である。西２間が２階建土蔵で，１階中央が門，東は居室で入母屋造平屋建の座敷を突出して手摺りを巡らす。２階は門上部も居室として８畳２室等を配す。特異な平面を持ち，特色ある外観を呈す。,https://bunka.nii.ac.jp/heritage/43967/_106971/43967_106971111225022806719_300.jpg
101,00006046,梅田家住宅主屋,うめだけじゅうたくしゅおく,1棟,,登録有形文化財(建造物),住宅,建築物,,明治,明治元,1868,木造2階建、瓦葺、建築面積119㎡,,21 － 0106,53,,2006.11.29(平成18.11.29),,20061129,,国土の歴史的景観に寄与しているもの,,岐阜県,岐阜県各務原市鵜沼西町1-529,,,,,35.40463000000000,136.93550000000000,旧中山道鵜沼宿の旧街道に北面して建つ切妻造桟瓦葺の平入町家である。桁行６間半，梁間４間で表裏に下屋が付く。１階中央入口の東に鉄格子窓，西に木格子窓を設け，２階は格子窓とする。内部は東に土間，西に８畳座敷と仏間を配す。宿場の趣を残す遺構。,https://bunka.nii.ac.jp/heritage/43967/_107031/43967_107031111225022959719_300.jpg
101,00006175,大黒屋旅館主屋,だいこくやりょかんしゅおく,1棟,,登録有形文化財(建造物),産業3次,建築物,,江戸,安政6,1859,木造2階建、瓦葺、建築面積240㎡,,21 － 0109,54,,2007.05.15(平成19.05.15),,20070515,,国土の歴史的景観に寄与しているもの,,岐阜県,岐阜県瑞浪市日吉町7905-1,,,,,35.43117000000000,137.23390000000000,旧中山道に南面して建つ。桁行７間，梁間９間規模，木造２階建，切妻造，桟瓦葺で，正面に軒庇が付く。屋根は両妻に卯建を上げる。正面外壁は腰下見板張の上を黒漆喰塗とする。明治維新以前は問屋及び尾州家定本陣であり，宿場の景観を伝える。,https://bunka.nii.ac.jp/heritage/43967/_107159/43967_107159111225023348424_300.jpg
101,00006184,菊川酒造本蔵,きくかわしゅぞうほんぐら,1棟,,登録有形文化財(建造物),産業2次,建築物,,大正,大正9頃,1920頃,土蔵造2階建、瓦葺、建築面積335㎡,,21 － 0111,54,,2007.05.15(平成19.05.15),,20070515,,再現することが容易でないもの,,岐阜県,岐阜県各務原市鵜沼西町1-543,,菊川株式会社,,,35.40450000000000,136.93670000000000,旧鵜沼宿の中山道に面して建つ酒造蔵である。桁行１１間半，梁間７間半の規模で，土蔵造２階建，切妻造，桟瓦葺とする。南面に下屋を張り出す。外壁は漆喰塗で，外側に鉄板を張る。和小屋で登梁を使用する。規模が大きく，大きな梁を用い，架構技術に優れる。,https://bunka.nii.ac.jp/heritage/43967/_107168/43967_107168111225023400776_300.jpg
101,00006188,菊川酒造豆蔵,きくかわしゅぞうまめぐら,1棟,,登録有形文化財(建造物),産業2次,建築物,,明治,明治初期,1868-1911,土蔵造2階建、瓦葺、建築面積184㎡,,21 － 0112,54,,2007.05.15(平成19.05.15),,20070515,,再現することが容易でないもの,,岐阜県,岐阜県各務原市鵜沼西町1-543,,菊川酒造豆蔵,,,35.40457000000000,136.93630000000000,旧中山道に面して本蔵の西側に建つ。桁行９間半，梁間５間の規模で，土蔵造２階建，切妻造，桟瓦葺とする。外壁を漆喰塗とし，下見板と鉄板で養生する。南面と東面に戸口を，東西妻面に窓を開く。長大な敷梁や登梁を用いて広い空間をつくり，架構技術に優れる。,https://bunka.nii.ac.jp/heritage/43967/_107172/43967_107172111225023408162_300.jpg
101,00006189,菊川酒造一号・二号倉庫,きくかわしゅぞういちごう・にごうそうこ,1棟,,登録有形文化財(建造物),産業2次,建築物,,明治,明治後期,1868-1911,土蔵造2階一部平屋建、瓦葺、建築面積118㎡,,21 － 0113,54,,2007.05.15(平成19.05.15),,20070515,,国土の歴史的景観に寄与しているもの,,岐阜県,岐阜県各務原市鵜沼西町1-543,,菊川酒造一号・二号倉庫,,,35.40412000000000,136.93710000000000,敷地東端に南北棟で建ち，桁行１０間半，梁間３間の規模で，土蔵造２階一部平屋建，切妻造，桟瓦葺である。北側の一号倉庫は小屋組にキングポストトラスを用い，二号倉庫は登梁の和小屋を用いる。外壁は漆喰塗で，下半を下見板で養生し，酒造場の景観を形成する。,https://bunka.nii.ac.jp/heritage/43967/_107173/43967_107173111225023409921_300.jpg
101,00006190,安田家住宅主屋,やすだけじゅうたくしゅおく,1棟,,登録有形文化財(建造物),住宅,建築物,,昭和前,昭和5頃,1930頃,木造2階建、瓦葺、建築面積128㎡,,21 － 0110,54,,2007.05.15(平成19.05.15),,20070515,,国土の歴史的景観に寄与しているもの,,岐阜県,岐阜県各務原市鵜沼西町1-528,,,,,35.40464000000000,136.93530000000000,旧中山道に北面して建つ木造２階建。８畳４室の整形四間取とし，東側に土間を設ける。切妻造，桟瓦葺，平入で，正面に瓦葺の庇を付ける。正面外壁は鼠漆喰塗とし，開口部に格子を付ける。坂井家住宅（登録）等の町家と連続して並び，宿場の景観を伝える。,https://bunka.nii.ac.jp/heritage/43967/_107174/43967_107174111225023411474_300.jpg
101,00006192,今尾家住宅主屋,いまおけじゅうたくしゅおく,1棟,,登録有形文化財(建造物),住宅,建築物,,明治,明治33,1900,木造2階建、瓦葺、建築面積197㎡,,21 － 0115,54,,2007.05.15(平成19.05.15),,20070515,,国土の歴史的景観に寄与しているもの,,岐阜県,岐阜県各務原市那加新加納町2126,,,,,35.39785000000000,136.82340000000000,敷地北西隅に南面して建つ。梁間４間，桁行１０間規模の木造２階建，入母屋造，桟瓦葺，平入で四周に下屋を廻す。規模が大きく，外壁を黒漆喰塗とし，棟を高く積んで降棟を置き，正面中央に大きな入母屋破風付の式台玄関を設ける等，重厚な外観を示す。,https://bunka.nii.ac.jp/heritage/43967/_107176/43967_107176111225023414377_300.jpg
101,00006193,今尾家住宅離れ,いまおけじゅうたくはなれ,1棟,,登録有形文化財(建造物),住宅,建築物,,大正,大正期,1912-1925,木造平屋建、瓦葺、建築面積68㎡,,21 － 0116,54,,2007.05.15(平成19.05.15),,20070515,,国土の歴史的景観に寄与しているもの,,岐阜県,岐阜県各務原市那加新加納町2126,,,,,35.39772000000000,136.82340000000000,敷地南西隅に東面して建つ木造平屋建。入母屋造，桟瓦葺で，四周に下屋を廻す。丸石を亀甲紋様に築いて基礎とし，外壁は杉板の押縁下見板張とし，上部を漆喰塗とする。東面に設ける庭園ならびに「茗竹居」の額を掲げる中門と共に風趣に富む敷地景観を形成。,https://bunka.nii.ac.jp/heritage/43967/_107177/43967_107177111225023417252_300.jpg
101,00006194,今尾家住宅米蔵,いまおけじゅうたくこめぐら,1棟,,登録有形文化財(建造物),住宅,建築物,,大正,大正期,1912-1925,土蔵造2階建、瓦葺、建築面積30㎡,,21 － 0117,54,,2007.05.15(平成19.05.15),,20070515,,国土の歴史的景観に寄与しているもの,,岐阜県,岐阜県各務原市那加新加納町2126,,,,,35.39770000000000,136.82380000000000,敷地南東隅に西面して建つ。梁間２間，桁行３間規模の土蔵造２階建，切妻造，桟瓦葺とする。西面に差掛をかける。丸石積の基礎とし，外壁は西面を人造石洗出仕上げ，他３面を杉板張とし，上部を漆喰で塗り，軒に鉢巻を廻す。南側塀と連続した景観をなす。,https://bunka.nii.ac.jp/heritage/43967/_107178/43967_107178111225023418972_300.jpg
101,00006195,今尾家住宅薬師堂,いまおけじゅうたくやくしどう,1棟,,登録有形文化財(建造物),住宅,建築物,,大正,大正14,1925,木造平屋建、檜皮葺、建築面積5.5㎡,,21 － 0120,54,,2007.05.15(平成19.05.15),,20070515,,国土の歴史的景観に寄与しているもの,,岐阜県,岐阜県各務原市那加新加納町2123-1,,,,,35.39757000000000,136.82340000000000,表門から道路を挟んで南側の敷地に東面して建つ。春日造，檜皮葺。１．２ｍ高の石垣の上に建ち，正面に石段を設ける。周囲に高欄を廻らし，正面扉に家紋の花菱を透彫にし，向拝垂木や組物の小口を胡粉で塗る。医家の家柄の格式を今に伝える。,https://bunka.nii.ac.jp/heritage/43967/_107179/43967_107179111225023420982_300.jpg
101,00006196,今尾家住宅表門及び塀,いまおけじゅうたくおもてもんおよびへい,1棟,,登録有形文化財(建造物),住宅,その他工作,,明治,明治後期・大正期,1868-1911,表門　木造、瓦葺、間口2.0m、潜戸付、塀　木造、瓦葺、延長35m,,21 － 0118,54,,2007.05.15(平成19.05.15),,20070515,,国土の歴史的景観に寄与しているもの,,岐阜県,岐阜県各務原市那加新加納町2126,,,,,35.39766000000000,136.82360000000000,敷地南側に建つ桟瓦葺の薬医門。扉は観音開き。両脇に潜戸を付ける。各潜戸から塀が折曲りで東西に延び，東は米蔵に，西は南西隅から北へ折れて離れに接続。塀は延長３４．５ｍで，丸石積の基礎，外側は杉板張の上部を白漆喰塗とし，柱間２間おきに窓を設ける。,https://bunka.nii.ac.jp/heritage/43967/_107180/43967_107180111225023422940_300.jpg
101,00006197,今尾家住宅中門及び塀,いまおけじゅうたくちゅうもんおよびへい,1棟,,登録有形文化財(建造物),住宅,その他工作,,大正,大正期,1912-1925,中門　木造、瓦葺、間口1.2m、塀　木造、瓦葺、延長14m,,21 － 0119,54,,2007.05.15(平成19.05.15),,20070515,,国土の歴史的景観に寄与しているもの,,岐阜県,岐阜県各務原市那加新加納町2126,,,,,35.39775000000000,136.82350000000000,主屋南側の離れ及び庭園を区切る。中門は桟瓦葺の腕木門で，小竹を上部にはめた桟唐戸を観音開きとする。塀は上部を黄土色の色壁仕上げ，下部を人造石洗出仕上げとし，柱間１間おきに飾り格子を入れた窓を設け，桟瓦葺とする。敷地景観を構成する重要な要素。,https://bunka.nii.ac.jp/heritage/43967/_107181/43967_107181111225023424661_300.jpg
101,00006381,八ツ三館本館,やつさんかんほんかん,1棟,,登録有形文化財(建造物),産業3次,建築物,,明治,明治38,1905,木造2階建、瓦葺、建築面積385㎡,,21 － 0145,56,2007.10.22(平成19.10.22),2007.10.02(平成19.10.02),,20071002,,再現することが容易でないもの,,岐阜県,岐阜県飛騨市古川町向町1-8-33,,,,,36.23304000000000,137.18750000000000,荒城川に架かる霞橋のたもと、県道に面して建つ。桟瓦葺の２階建で、南北棟の入母屋造を正面に、その奥に両下造の東西棟を突出させる。２階に客室を主に設け、１階には吹抜けのホールや応接室、浴室ほかを配する。各室ごとにデザインを違え、見応えがある。,https://bunka.nii.ac.jp/heritage/43967/_107364/43967_107364111225023909155_300.jpg
101,00006382,八ツ三館土蔵,やつさんかんどぞう,1棟,,登録有形文化財(建造物),産業3次,建築物,,明治,明治末期,1868-1911,土蔵造2階建、瓦葺、建築面積90㎡,,21 － 0147,56,2007.10.22(平成19.10.22),2007.10.02(平成19.10.02),,20071002,,国土の歴史的景観に寄与しているもの,,岐阜県,岐阜県飛騨市古川町向町1-8-33,,,,,36.23306000000000,137.18780000000000,本館と大広間の間に、南北棟で建つ。切妻造桟瓦葺の置屋根で、桁行６間、梁間４間と規模が大きい２階建である。本館側に前室を設け両開の土戸をたて、それ以外に開口を設けない。地棟に登梁を架ける小屋組や軸部に大材を用いるなど、力強い空間である。,https://bunka.nii.ac.jp/heritage/43967/_107365/43967_107365111225023909992_300.jpg
101,00006383,八ツ三館大広間棟,やつさんかんおおひろまとう,1棟,,登録有形文化財(建造物),産業3次,建築物,,昭和前,昭和10,1935,木造2階建、瓦葺、建築面積283㎡,,21 － 0146,56,2007.10.22(平成19.10.22),2007.10.02(平成19.10.02),,20071002,,国土の歴史的景観に寄与しているもの,,岐阜県,岐阜県飛騨市古川町向町1-8-33,,,,,36.23306000000000,137.18770000000000,本館の後方に南北棟で建つ、入母屋造桟瓦葺の２階建。荒城川沿いに玄関を設け、１階には応接間や数室の和室、２階に大広間を設ける。大広間は畳廊下を含め１００畳の広さで、大床や違棚、付書院を備える。良質な材を使い、上質な空間を造り出している。,https://bunka.nii.ac.jp/heritage/43967/_107366/43967_107366111225023911695_300.jpg
101,00006479,上の島神明神社本殿,かみのしましんめいじんじゃほんでん,1棟,,登録有形文化財(建造物),宗教,建築物,,昭和前,昭和初期,1926-1988,木造平屋建、銅板葺、建築面積10㎡,,21 － 0138,56,2007.10.22(平成19.10.22),2007.10.02(平成19.10.02),,20071002,,造形の規範となっているもの,,岐阜県,岐阜県各務原市川島松倉町2232-1,,宗教法人神明神社,,,35.36903000000000,136.83920000000000,南面する浜縁付一間社流造で、側・背面を２間とし、屋根は銅板葺とする。身舎は円柱で出組、向拝は几帳面取方柱で連三斗を２段に組み、軒は二軒繁垂木。中備や脇障子ほかに瑞龍や植物、雲紋などの彫刻が飾られる。構造と装飾がバランスよくまとめられた遺構。,https://bunka.nii.ac.jp/heritage/43967/_107462/43967_107462111225024132516_300.jpg
101,00006480,上の島神明神社幣殿,かみのしましんめいじんじゃへいでん,1棟,,登録有形文化財(建造物),宗教,建築物,,昭和前,昭和4,1929,木造平屋建、銅板葺、建築面積21㎡,,21 － 0139,56,2007.10.22(平成19.10.22),2007.10.02(平成19.10.02),,20071002,,造形の規範となっているもの,,岐阜県,岐阜県各務原市川島松倉町2232-1,,宗教法人神明神社,,,35.36897000000000,136.83920000000000,幣殿は本殿の前に南北棟として建つ。桁行３間、梁間３間の規模で、入母屋造妻入銅板葺とする。正・背面中央を開口とし、他は格子窓で腰板壁とし、周囲に縁を廻す。方柱で平三斗を組み、軒は二軒繁垂木である。木鼻の彫物以外は装飾を控え、堅実な意匠である。,https://bunka.nii.ac.jp/heritage/43967/_107463/43967_107463111225024135135_300.jpg
101,00006481,上の島神明神社社務所,かみのしましんめいじんじゃしゃむしょ,1棟,,登録有形文化財(建造物),宗教,建築物,,昭和前,昭和初期,1926-1988,木造平屋建、瓦葺、建築面積61㎡,,21 － 0140,56,2007.10.22(平成19.10.22),2007.10.02(平成19.10.02),,20071002,,国土の歴史的景観に寄与しているもの,,岐阜県,岐阜県各務原市川島松倉町2232-1,,宗教法人神明神社,,,35.36854000000000,136.83910000000000,境内の中央西方に東面して建つ。桁行６間、梁間３間で、入母屋造桟瓦葺とする。南北に３室が並び、北が土間と板敷、中央が式台と８畳、南がトコと違棚を構える座敷とし、座敷には縁がまわる。緩やかな勾配の屋根をもち、丁寧に造られている。,https://bunka.nii.ac.jp/heritage/43967/_107464/43967_107464111225024136081_300.jpg
101,00006482,上の島神明神社手水舎,かみのしましんめいじんじゃちょうずや,1棟,,登録有形文化財(建造物),宗教,その他工作,,昭和前,昭和初期,1926-1988,木造、瓦葺、面積7.0㎡,,21 － 0141,56,2007.10.22(平成19.10.22),2007.10.02(平成19.10.02),,20071002,,国土の歴史的景観に寄与しているもの,,岐阜県,岐阜県各務原市川島松倉町2232-1,,宗教法人神明神社,,,35.36865000000000,136.83910000000000,境内の西側、社務所の北に位置する。桁行１間、梁間１間の規模で、切妻造桟瓦葺とする。柱は面取方柱で内転びとし、内法貫と頭貫で固め、柱上に大斗肘木を組む。妻は虹梁上に大瓶束をたて、軒は一軒疎垂木。虹梁や木鼻の絵様などは穏やかな意匠である。,https://bunka.nii.ac.jp/heritage/43967/_107465/43967_107465111225024136931_300.jpg
101,00006483,上の島神明神社鳥居,かみのしましんめいじんじゃとりい,1基,,登録有形文化財(建造物),宗教,その他工作,,昭和前,昭和10／平成7修理,1935／1995修理,木造、高さ8.2m、幅6.0m,,21 － 0144,56,2007.10.22(平成19.10.22),2007.10.02(平成19.10.02),,20071002,,国土の歴史的景観に寄与しているもの,,岐阜県,岐阜県各務原市川島松倉町2232-1,,宗教法人神明神社,,,35.36810000000000,136.83920000000000,境内の正面に建ち、木製で表面を銅板で覆う。幅６．０ｍ、高さ８．２ｍと規模が大きい。柱は径７０ｃｍの円柱で、足下には礎石状に石を巻き、柱上に笠木をのせ、貫で固め、貫は柱内で止まる。簡潔な意匠であるが、大規模で風格がある。,https://bunka.nii.ac.jp/heritage/43967/_107466/43967_107466111225024138695_300.jpg
101,00006484,上の島神明神社蕃塀,かみのしましんめいじんじゃばんぺい,1基,,登録有形文化財(建造物),宗教,その他工作,,昭和前,昭和12,1937,石造目隠塀、延長3.8m,,21 － 0143,56,2007.10.22(平成19.10.22),2007.10.02(平成19.10.02),,20071002,,国土の歴史的景観に寄与しているもの,,岐阜県,岐阜県各務原市川島松倉町2232-1,,宗教法人神明神社,,,35.36843000000000,136.83920000000000,敷地中央、太鼓橋の前方に位置する。石造の蕃塀。基壇上に円柱の主柱を立て、入母屋造屋根を架け、柱間には連子窓をあけ、上部には波に龍、腰壁には虎と唐獅子の彫刻を置く。前後に控えとして擬宝珠柱を設ける。規模が大きく、豊かな彫物を飾るなど特異な蕃塀。,https://bunka.nii.ac.jp/heritage/43967/_107467/43967_107467111225024139605_300.jpg
101,00006485,上の島神明神社太鼓橋,かみのしましんめいじんじゃたいこばし,1基,,登録有形文化財(建造物),宗教,土木構造物,,昭和前,昭和11,1936,石造桁橋、橋長5.7m、幅員2.7m,,21 － 0142,56,2007.10.22(平成19.10.22),2007.10.02(平成19.10.02),,20071002,,国土の歴史的景観に寄与しているもの,,岐阜県,岐阜県各務原市川島松倉町2232-1,,宗教法人神明神社,,,35.36859000000000,136.83920000000000,境内の中央、拝殿の前方に位置し、池に架かる。石造桁橋で、アーチの高さは１．５ｍで、中央を束で支え、束両脇には唐草文様を彫り出す石版を飾る。橋両端には擬宝珠高欄を付け、架木を蟇股状の石で支える。大きく反り上がり、躍動的な雰囲気を漂わせている。,https://bunka.nii.ac.jp/heritage/43967/_107468/43967_107468111225024140416_300.jpg
101,00006486,直井家住宅主屋,なおいけじゅうたくしゅおく,1棟,,登録有形文化財(建造物),住宅,建築物,,明治,明治22／昭和初期増築,1889／1926-1988増築,木造2階建、鉄板葺、建築面積252㎡,,21 － 0148,56,2007.10.22(平成19.10.22),2007.10.02(平成19.10.02),,20071002,,国土の歴史的景観に寄与しているもの,,岐阜県,岐阜県郡上市八幡町新町924他,,,,,35.74899000000000,136.95750000000000,歴史的な町並みの中心となる交差点角に建つ。建築面積２５２㎡、木造２階建、鉄板葺。南側は昭和初期に増築された居室で、西隣には土蔵を接続する。２階は旧規を良くとどめ、通りに面して連続する出格子を設け、落ち着いた佇まいの街角景観を形成している。,https://bunka.nii.ac.jp/heritage/43967/_107469/43967_107469111225024142099_300.jpg
101,00006487,直井家住宅土蔵,なおいけじゅうたくどぞう,1棟,,登録有形文化財(建造物),住宅,建築物,,明治,明治初期,1868-1911,土蔵造2階建、鉄板葺、建築面積27㎡,,21 － 0149,56,2007.10.22(平成19.10.22),2007.10.02(平成19.10.02),,20071002,,国土の歴史的景観に寄与しているもの,,岐阜県,岐阜県郡上市八幡町新町924,,,,,35.74895000000000,136.95740000000000,桁行３間、梁間２間規模で、東西棟の切妻造、鉄板葺とする。平入の土蔵造２階建。外壁は黒漆喰仕上げで、腰をモルタル塗洗出しとする。通りに面して土蔵と主屋が並ぶ当地では珍しい構えで、壁面を揃えて一体感をもたせている。黒漆喰による重厚な外観である。,https://bunka.nii.ac.jp/heritage/43967/_107470/43967_107470111225024142981_300.jpg
101,00006488,水野家住宅主屋,みずのけじゅうたくしゅおく,1棟,,登録有形文化財(建造物),住宅,建築物,,大正,大正期／昭和中期増築,1912-1925／1926-1988増築,木造2階建、鉄板葺、建築面積165㎡,,21 － 0150,56,2007.10.22(平成19.10.22),2007.10.02(平成19.10.02),,20071002,,国土の歴史的景観に寄与しているもの,,岐阜県,岐阜県郡上市八幡町新町925,,,,,35.74885000000000,136.95740000000000,縦長敷地の通り沿いに建つ。建築面積１６５㎡、木造２階建、鉄板葺。正面は２階に連続する出格子を設け、軒は出桁造とし、屋根には当地では珍しい卯建をあげる。内外ともに上質なつくりで、歴史的町並みの形成に寄与している。,https://bunka.nii.ac.jp/heritage/43967/_107471/43967_107471111225024144690_300.jpg
101,00006489,水野家住宅土蔵,みずのけじゅうたくどぞう,1棟,,登録有形文化財(建造物),住宅,建築物,,明治,明治期,1868-1911,土蔵造2階建、鉄板葺、建築面積18㎡,,21 － 0151,56,2007.10.22(平成19.10.22),2007.10.02(平成19.10.02),,20071002,,国土の歴史的景観に寄与しているもの,,岐阜県,岐阜県郡上市八幡町新町925,,,,,35.74893000000000,136.95730000000000,主屋の東隣に建ち、桁行３間、梁間１間半、土蔵造２階建。屋根は切妻造鉄板葺で、正面は主屋と軒を揃えて一体的にし、東端に卯建をあげる。白漆喰仕上げで、窓上枠に唐草文をあしらい、庇に起りをつけ、こけら葺とするなど、瀟洒な外観である。,https://bunka.nii.ac.jp/heritage/43967/_107472/43967_107472111225024146558_300.jpg
101,00006490,越前屋店舗兼主屋,えちぜんやてんぽけんしゅおく,1棟,,登録有形文化財(建造物),産業3次,建築物,,明治,明治初期,1868-1911,木造2階建、鉄板葺、建築面積129㎡,,21 － 0152,56,2007.10.22(平成19.10.22),2007.10.02(平成19.10.02),,20071002,,国土の歴史的景観に寄与しているもの,,岐阜県,岐阜県郡上市八幡町新町926,,郡上市,市区町村,,35.74885000000000,136.95730000000000,通りに面して建つ、間口４間、奥行８間半の町家。切妻造、鉄板葺、平入の木造２階建。２階正面は繊細な千本格子の出格子とし、軒は出桁造とする。１階は店舗利用のために改造されているが、２階内部は座敷等がよく残る。当地域で比較的建築年代の古い町家である。,https://bunka.nii.ac.jp/heritage/43967/_107473/43967_107473088306324416269_300.jpg
101,00006525,鈴木家住宅長屋門,すずきけじゅうたくながやもん,1棟,,登録有形文化財(建造物),住宅,建築物,,明治,明治後期,1868-1911,木造平屋建、瓦葺、建築面積25㎡,,21 － 0123,55,2007.08.13(平成19.08.13),2007.07.31(平成19.07.31),,20070731,,国土の歴史的景観に寄与しているもの,,岐阜県,岐阜県各務原市川島松原町375,,,,,35.36140000000000,136.82660000000000,木曽川の中洲に位置し，ゴンボ積と称する玉石積で嵩上げされた屋敷地の南東部に南北棟で東面して建つ。桁行７．８ｍ，梁間３．２ｍ規模，入母屋造，桟瓦葺の木造平屋建で，両端に物置部屋を配する。東面は石垣上に建ち，前面斜路とともに屋敷地の特徴を示す。,https://bunka.nii.ac.jp/heritage/43967/_107508/43967_107508111225024239900_300.jpg
101,00006527,尾関幸一家住宅主屋,おぜきこういちけじゅうたくしゅおく,1棟,,登録有形文化財(建造物),住宅,建築物,,大正,大正4,1915,木造2階建、瓦葺、建築面積111㎡,,21 － 0127,55,2007.08.13(平成19.08.13),2007.07.31(平成19.07.31),,20070731,,国土の歴史的景観に寄与しているもの,,岐阜県,岐阜県各務原市川島松倉町1437,,,,,35.36639000000000,136.83230000000000,木曽川の中洲に位置し，県道に東面する屋敷地の北西部に東西棟で建つ。桁行１２．２ｍ，梁行１０．４ｍ規模，切妻造，桟瓦葺の木造２階建で，西，南，北３面に下屋を廻す。東方に土間，西方に居室部を配し，２階を蚕室とする。当地域の養蚕農家の一例。,https://bunka.nii.ac.jp/heritage/43967/_107510/43967_107510111225024244220_300.jpg
101,00006528,尾関幸一家住宅離れ,おぜきこういちけじゅうたくはなれ,1棟,,登録有形文化財(建造物),住宅,建築物,,昭和前,昭和16,1941,木造平屋建、瓦葺、建築面積68㎡、渡廊下付,,21 － 0128,55,2007.08.13(平成19.08.13),2007.07.31(平成19.07.31),,20070731,,国土の歴史的景観に寄与しているもの,,岐阜県,岐阜県各務原市川島松倉町1437,,,,,35.36630000000000,136.83230000000000,主屋の南西方に南北棟で建ち，渡廊下で主屋と繋げる。桁行９．６ｍ，梁行５．７ｍ，入母屋造，桟瓦葺の木造平屋建で，西以外の３面に下屋を廻す。内部は８畳２室を並べ，南方座敷には西面に各１間の床と棚を備える。吟味された材料による上質なつくりの離れ。,https://bunka.nii.ac.jp/heritage/43967/_107511/43967_107511111225024245184_300.jpg
101,00006529,尾関幸一家住宅納屋,おぜきこういちけじゅうたくなや,1棟,,登録有形文化財(建造物),住宅,建築物,,大正,大正4,1915,木造平屋建、瓦葺、建築面積33㎡,,21 － 0129,55,2007.08.13(平成19.08.13),2007.07.31(平成19.07.31),,20070731,,国土の歴史的景観に寄与しているもの,,岐阜県,岐阜県各務原市川島松倉町1437,,,,,35.36634000000000,136.83250000000000,主屋の東方に南北棟で建つ。桁行１４．１ｍ，梁行２．７ｍ，切妻造，桟瓦葺の木造平屋建で，北方は物置，南方は井戸・流し・浴室等からなり，その間の落棟部に外便所を設ける。外部は漆喰塗の真壁造で，腰高く板を張る。,https://bunka.nii.ac.jp/heritage/43967/_107512/43967_107512111225024246132_300.jpg
101,00006530,尾関良彦家住宅主屋,おぜきよしひこけじゅうたくしゅおく,1棟,,登録有形文化財(建造物),住宅,建築物,,大正,大正13,1924,木造2階建、瓦葺、建築面積179㎡,,21 － 0125,55,2007.08.13(平成19.08.13),2007.07.31(平成19.07.31),,20070731,,国土の歴史的景観に寄与しているもの,,岐阜県,岐阜県各務原市川島松倉町1432-1,,,,,35.36611000000000,136.83280000000000,木曽川の中洲に位置し，県道に西面する屋敷地中央部に東西棟で建つ。桁行１８．７ｍ，梁行１０ｍ，切妻造，桟瓦葺の木造２階建で四周に下屋を廻す。東方を土間，西方を居室部とし，西南に仏間，北西に座敷を配する。当地域における養蚕農家の一例。,https://bunka.nii.ac.jp/heritage/43967/_107513/43967_107513111225024247814_300.jpg
101,00006531,尾関良彦家住宅蔵,おぜきよしひこけじゅうたくくら,1棟,,登録有形文化財(建造物),住宅,建築物,,大正,大正13,1924,土蔵造2階建、瓦葺、建築面積41㎡,,21 － 0126,55,2007.08.13(平成19.08.13),2007.07.31(平成19.07.31),,20070731,,国土の歴史的景観に寄与しているもの,,岐阜県,岐阜県各務原市川島松倉町1432-1,,,,,35.36623000000000,136.83270000000000,主屋の北西方に位置し東西棟で建つ。桁行５．７ｍ，梁間５ｍ，切妻造，桟瓦葺の２階建土蔵で，南面全面に土庇を差し掛け，戸口を開く。外部は白漆喰塗で，腰高く下見板を張った丁寧なつくり。精緻な玉石積基礎上に建ち，当地域独特の景観形成に寄与している。,https://bunka.nii.ac.jp/heritage/43967/_107514/43967_107514111225024250163_300.jpg
101,00006532,蒲酒造場主屋,かばしゅぞうじょうしゅおく,1棟,,登録有形文化財(建造物),産業3次,建築物,,明治,明治39,1906,木造2階建、鉄板葺、建築面積263㎡、渡廊下及び雪隠付,,21 － 0130,55,2007.08.13(平成19.08.13),2007.07.31(平成19.07.31),,20070731,,国土の歴史的景観に寄与しているもの,,岐阜県,岐阜県飛騨市古川町壱之町6-6,,,,,36.23494000000000,137.18700000000000,壱之町通りに南面して建つ。明治３７年大火後，近郊所在の和田家住宅主屋を譲り受けて再建。間口１１間規模の大型平入町家で，東方を土間，西方を床上部とし，通り沿いに雪隠を設ける。多彩な連子格子や大戸等による長大な表構えが通り景観の核となっている。,https://bunka.nii.ac.jp/heritage/43967/_107515/43967_107515111225024251935_300.jpg
101,00006533,蒲酒造場袖蔵,かばしゅぞうじょうそでぐら,1棟,,登録有形文化財(建造物),産業2次,建築物,,明治,明治39,1906,土蔵造2階建、鉄板葺、建築面積106㎡,,21 － 0131,55,2007.08.13(平成19.08.13),2007.07.31(平成19.07.31),,20070731,,国土の歴史的景観に寄与しているもの,,岐阜県,岐阜県飛騨市古川町壱之町6-6,,,,,36.23489000000000,137.18710000000000,屋敷地の南東隅に位置し東西棟で建つ。桁行４間，梁行８間規模，切妻造，鉄板葺の２階建酒蔵で，主屋土間に面する西面北寄りに戸口を開ける。押縁下見板張に白漆喰塗の外観は維持管理が極めて良好で，主屋とともに壱之町通りのシンボルとして親しまれている。,https://bunka.nii.ac.jp/heritage/43967/_107516/43967_107516111225024253611_300.jpg
101,00006534,蒲酒造場文庫蔵,かばしゅぞうじょうぶんこぐら,1棟,,登録有形文化財(建造物),住宅,建築物,,明治,明治39,1906,土蔵造2階建、鉄板葺、建築面積85㎡,,21 － 0132,55,2007.08.13(平成19.08.13),2007.07.31(平成19.07.31),,20070731,,国土の歴史的景観に寄与しているもの,,岐阜県,岐阜県飛騨市古川町壱之町6-6,,,,,36.23504000000000,137.18710000000000,主屋の北方に位置し，屋敷地北側を流れる瀬戸川用水に沿って東西棟で建つ。桁行８間半，梁間３間規模，切妻造，鉄板葺の２階建土蔵で，１階西寄りに１間幅の通路をとり，北面に戸口を設ける。押縁下見板張に白漆喰塗の外観は用水沿いの酒蔵景観の一翼を担う。,https://bunka.nii.ac.jp/heritage/43967/_107517/43967_107517111225024255474_300.jpg
101,00006535,蒲酒造場仕込蔵一,かばしゅぞうじょうしこみぐらいち,1棟,,登録有形文化財(建造物),産業2次,建築物,,明治,明治39,1906,土蔵造平屋建、鉄板葺、建築面積139㎡,,21 － 0133,55,2007.08.13(平成19.08.13),2007.07.31(平成19.07.31),,20070731,,国土の歴史的景観に寄与しているもの,,岐阜県,岐阜県飛騨市古川町壱之町6-6,,,,,36.23514000000000,137.18690000000000,屋敷地の北西方に位置し，瀬戸川用水沿いに東西棟で建つ。桁行７間，梁間６間規模，切妻造，鉄板葺の平屋建土蔵で，用水側の北面に３箇所の小窓のほか，東寄りに搬出入用の戸口を開ける。瀬戸川用水の流れと白壁土蔵群がつくる景観の構成要素のひとつになる。,https://bunka.nii.ac.jp/heritage/43967/_107518/43967_107518111225024257292_300.jpg
101,00006536,蒲酒造場仕込蔵二,かばしゅぞうじょうしこみぐらに,1棟,,登録有形文化財(建造物),住宅,建築物,,明治,明治39,1906,土蔵造2階建、鉄板葺、建築面積45㎡,,21 － 0134,55,2007.08.13(平成19.08.13),2007.07.31(平成19.07.31),,20070731,,再現することが容易でないもの,,岐阜県,岐阜県飛騨市古川町壱之町6-6,,,,,36.23517000000000,137.18680000000000,瀬戸川用水と大横丁の交差する屋敷地北西隅に南北棟で建つ。桁行４間半，梁間３間規模の２階建土蔵で，屋根は切妻造の置屋根とし，南側桁行１間半分は棟を高める。もと料亭の蔵で，内部天井の中心飾りなどに洋風意匠が採り入れられているのが特徴。,https://bunka.nii.ac.jp/heritage/43967/_107519/43967_107519111225024259918_300.jpg
101,00006537,山桜神社火の見櫓,やまざくらじんじゃひのみやぐら,1棟,,登録有形文化財(建造物),生活関連,その他工作,,昭和前,昭和7,1932,木造、高さ7.0m、木造平屋建社殿付,,21 － 0121,55,2007.08.13(平成19.08.13),2007.07.31(平成19.07.31),,20070731,,国土の歴史的景観に寄与しているもの,,岐阜県,岐阜県高山市本町2-65,,山桜神社,,,36.14210000000000,137.25760000000000,宮川に架かる柳橋西詰交差点近くに所在。山桜神社社殿の南側建屋の小屋梁上に柱を建て，棟上に櫓を組む。櫓の袴底部は３．４ｍ四方，高約７ｍ規模，三層建で，頭部に宝形造の見張小屋を置き明治１４年製の半鐘を吊る。神社の絵馬市とともに親しまれている。,https://bunka.nii.ac.jp/heritage/43967/_107520/43967_107520111225024301771_300.jpg
101,00006656,水野家住宅主屋,みずのけじゅうたくしゅおく,1棟,,登録有形文化財(建造物),住宅,建築物,,昭和前,昭和3,1928,木造2階建、瓦葺、建築面積179㎡,,21 － 0153,57,2007.12.19(平成19.12.19),2007.12.05(平成19.12.05),,20071205,,造形の規範となっているもの,,岐阜県,岐阜県各務原市川島松原町字山神西382,,,,,35.36187000000000,136.82690000000000,敷地西辺寄りに南面して建つ。桁行８間梁間４間を総２階とし、１階周囲に庇を廻す。切妻造桟瓦葺。東寄りに土間を設け、西側に８畳間４室やブツマなどを設ける。２階は土間上を板敷とし、西側に５室を設ける。この地方の近代養蚕農家の特色をよく残す。,https://bunka.nii.ac.jp/heritage/43967/_107639/43967_107639111225024609952_300.jpg
101,00006657,石徹白家住宅主屋,いとしろけじゅうたくしゅおく,1棟,,登録有形文化財(建造物),住宅,建築物,,明治,明治25,1892,木造2階建、鉄板葺、建築面積158㎡,,21 － 0154,57,2007.12.19(平成19.12.19),2007.12.05(平成19.12.05),,20071205,,造形の規範となっているもの,,岐阜県,岐阜県郡上市白鳥町石徹白第4号字森前42,,,,,35.99012000000000,136.76810000000000,畑に囲まれた敷地に建ち、東面に融雪池を控える。桁行８間梁間４間、木造２階建、切妻造鉄板葺。石徹白地区は白山信仰に関する御師の家が点在し、当家もその一つであり、２階には礼拝のための設えを持ったゴシンゼンノマなどの部屋を配する。,https://bunka.nii.ac.jp/heritage/43967/_107640/43967_107640111225024611034_300.jpg
101,00006842,伊藤家住宅主屋,いとうけじゅうたくしゅおく,1棟,,登録有形文化財(建造物),住宅,建築物,,明治,明治13／平成18改修,1880／2006改修,木造2階建、瓦葺、建築面積271㎡,,21 － 0155,58,2008.03.19(平成20.03.19),2008.03.07(平成20.03.07),,20080307,,国土の歴史的景観に寄与しているもの,,岐阜県,岐阜県海津市南濃町吉田字村合914,,,,,35.16836000000000,136.63140000000000,揖斐川西側の敷地の中央、石造基壇上に南面して建つ。建築面積２７１㎡、木造２階建、寄棟造桟瓦葺。六間取の居室部の前後に廊下を張り出した平面とし、１０畳の座敷にはトコを設ける。水害対策のため高く基壇を造る、地方的特徴を示す大型の住宅。,https://bunka.nii.ac.jp/heritage/43967/_107824/43967_107824111225025110988_300.jpg
101,00006843,伊藤家住宅収蔵庫,いとうけじゅうたくしゅうぞうこ,1棟,,登録有形文化財(建造物),住宅,建築物,,大正,大正15,1926,鉄筋コンクリート造2階地下1階建、建築面積83㎡、塔屋付,,21 － 0156,58,2008.03.19(平成20.03.19),2008.03.07(平成20.03.07),,20080307,,国土の歴史的景観に寄与しているもの,,岐阜県,岐阜県海津市南濃町吉田字村合914,,,,,35.16849000000000,136.63100000000000,主屋の北西後方に建つ。 正面７．４ｍ奥行１１ｍ、鉄筋コンクリート造、地上２階、地下１階、屋根は陸屋根で、塔屋を設ける。外壁は石積風に目地を切り、上部に歯飾り付のコーニスをまわしてアクセントとする。直線的意匠で構成したモダンな外観の収蔵庫。,https://bunka.nii.ac.jp/heritage/43967/_107825/43967_107825111225025112586_300.jpg
101,00007029,加佐美神社本殿,かさみじんじゃほんでん,1棟,,登録有形文化財(建造物),宗教,建築物,,江戸,貞享4／江戸後期改修,1687／1751-1829改修,木造平屋建、檜皮葺、建築面積19㎡,,21 － 0157,59,2008.05.07(平成20.05.07),2008.04.18(平成20.04.18),,20080418,,造形の規範となっているもの,,岐阜県,岐阜県各務原市蘇原古市場町5-1-1,,宗教法人加佐美神社,,,35.42267000000000,136.86540000000000,加佐美山南麓に南面する。規模の大きな３間社流造。屋根檜皮葺。正面に千鳥破風と軒唐破風を付ける。身舎の正・側面に高欄付の切目縁をまわし、正面に木階と浜床を設ける。円柱上に支輪付出組とし、二重虹梁大瓶束の妻を一段持ち出す。見応えのある構造になる。,https://bunka.nii.ac.jp/heritage/43967/_108011/43967_108011111225025648065_300.jpg
101,00007030,加佐美神社幣殿,かさみじんじゃへいでん,1棟,,登録有形文化財(建造物),宗教,建築物,,明治,明治43,1910,木造平屋建、瓦葺、建築面積50㎡,,21 － 0158,59,2008.05.07(平成20.05.07),2008.04.18(平成20.04.18),,20080418,,国土の歴史的景観に寄与しているもの,,岐阜県,岐阜県各務原市蘇原古市場町5-1-1,,宗教法人加佐美神社,,,35.42261000000000,136.86540000000000,本殿の正面に建つ、桁行１１ｍ梁間５．１ｍの幣殿。切妻造桟瓦葺とし、中央間を切り上げ、棟を高くする。正面は中央間が約１ｍ奥に入り、引違格子戸を建て、両脇間は格子戸嵌殺しとする。中央間のみ柱上に舟肘木。本殿正面の厳粛な礼拝空間を整える。,https://bunka.nii.ac.jp/heritage/43967/_108012/43967_108012111225025649834_300.jpg
101,00007031,加佐美神社拝殿,かさみじんじゃはいでん,1棟,,登録有形文化財(建造物),宗教,建築物,,江戸,延享3／文政2・天保2改修,1746／1819・1831改修,木造平屋建、瓦葺、建築面積79㎡,,21 － 0159,59,2008.05.07(平成20.05.07),2008.04.18(平成20.04.18),,20080418,,国土の歴史的景観に寄与しているもの,,岐阜県,岐阜県各務原市蘇原古市場町5-1-1,,宗教法人加佐美神社,,,35.42249000000000,136.86540000000000,本殿と幣殿の南、一段下がった位置に石積基壇上に建つ。入母屋造桟瓦葺。桁行５間梁間２間、全面板床で、棹縁天井。小壁を板壁とし、周囲の内法貫下は開放とする。両端を根肘木で受ける虹梁を正・背面中央間に一段高く架けるなど、割拝殿の名残を残す。,https://bunka.nii.ac.jp/heritage/43967/_108013/43967_108013111225025652192_300.jpg
101,00007032,小町酒造店舗兼主屋,こまちしゅぞうてんぽけんしゅおく,1棟,,登録有形文化財(建造物),産業2次,建築物,,昭和中,昭和29,1954,木造2階建、瓦葺、建築面積154㎡,,21 － 0160,59,2008.05.07(平成20.05.07),2008.04.18(平成20.04.18),,20080418,,国土の歴史的景観に寄与しているもの,,岐阜県,岐阜県各務原市蘇原伊吹町2-15,,,,,35.42205000000000,136.86170000000000,３方を道路に囲まれた敷地南側に南面して建つ。木造２階建、切妻造桟瓦葺とし、建築面積は１５４㎡。東側を土間の店舗などとし、西側を４間取の床上部とする。外壁は黒漆喰仕上げとし、軒は出桁造。重厚な外観に杉玉を飾り、酒造業としての風格を醸し出す。,https://bunka.nii.ac.jp/heritage/43967/_108014/43967_108014111225025653950_300.jpg
101,00007033,小町酒造離れ,こまちしゅぞうはなれ,1棟,,登録有形文化財(建造物),産業2次,建築物,,明治,明治45,1912,木造平屋建、瓦葺、建築面積66㎡,,21 － 0161,59,2008.05.07(平成20.05.07),2008.04.18(平成20.04.18),,20080418,,国土の歴史的景観に寄与しているもの,,岐阜県,岐阜県各務原市蘇原伊吹町2-15,,,,,35.42203000000000,136.86150000000000,敷地の南西、店舗兼主屋の西側に建つ。木造平屋建、入母屋造桟瓦葺で、南北に８畳２室を並べ、東に畳廊下、南・北に榑縁、３方に落縁を設ける。主座敷はトコと違棚、付書院を構え、その南を庭園とする。数寄屋風意匠を採り入れた近代和風建築。,https://bunka.nii.ac.jp/heritage/43967/_108015/43967_108015111225025654742_300.jpg
101,00007034,小町酒造土蔵,こまちしゅぞうどぞう,1棟,,登録有形文化財(建造物),産業2次,建築物,,大正,大正14,1925,土蔵造2階建、瓦葺、建築面積25㎡,,21 － 0162,59,2008.05.07(平成20.05.07),2008.04.18(平成20.04.18),,20080418,,国土の歴史的景観に寄与しているもの,,岐阜県,岐阜県各務原市蘇原伊吹町2-15,,,,,35.42198000000000,136.86180000000000,敷地南東隅に通りに面して建ち、店舗兼主屋に接する。土蔵造２階建、切妻造桟瓦葺で、桁行６．６ｍ梁間３．８ｍ。丸石積基礎とし、外壁は漆喰仕上げで黒塗の板を張る。南側各階の窓に持送り付の庇を付け、外観に変化を与える。落ち着きのある街路景観をつくる。,https://bunka.nii.ac.jp/heritage/43967/_108016/43967_108016111225025656398_300.jpg
101,00007035,小町酒造門及び塀,こまちしゅぞうもんおよびへい,1棟,,登録有形文化財(建造物),産業2次,その他工作,,昭和前,昭和前期,1926-1988,門　木造、瓦葺、間口1.2m　塀　木造、瓦葺、延長21m,,21 － 0163,59,2008.05.07(平成20.05.07),2008.04.18(平成20.04.18),,20080418,,国土の歴史的景観に寄与しているもの,,岐阜県,岐阜県各務原市蘇原伊吹町2-15,,,,,35.42193000000000,136.86150000000000,店舗兼主屋から離れまで、庭園を囲むようにコの字状に配された総延長２１ｍの塀。東面には切妻造桟瓦葺の腕木門を構える。丸石を亀甲状に積み石垣とし、通り側には黒漆喰に腰板張、庭園側を弁柄色の色壁とする。丸石積が印象的な屋敷構えを見せる。,https://bunka.nii.ac.jp/heritage/43967/_108017/43967_108017111225025658235_300.jpg
101,00007036,小町酒造通用門,こまちしゅぞうつうようもん,1棟,,登録有形文化財(建造物),産業2次,その他工作,,明治,明治30,1897,木造、瓦葺、間口4.1m,,21 － 0164,59,2008.05.07(平成20.05.07),2008.04.18(平成20.04.18),,20080418,,国土の歴史的景観に寄与しているもの,,岐阜県,岐阜県各務原市蘇原伊吹町2-15,,,,,35.42210000000000,136.86180000000000,敷地東面の中央に位置し、北は本蔵、南は便所に取り付く。両下造桟瓦葺。間口４．１ｍで、中央戸口２．３ｍに両開板戸をたて、南に袖塀、北に潜りを設ける。主柱は小平柱で、腕木により軒を持ち出す。大きく開く入八双金物が印象的である。,https://bunka.nii.ac.jp/heritage/43967/_108018/43967_108018111225025659878_300.jpg
101,00007037,法誓寺本堂,ほうせいじほんどう,1棟,,登録有形文化財(建造物),宗教,建築物,,江戸,安政6,1859,木造平屋建、瓦葺、建築面積819㎡,,21 － 0165,59,2008.05.07(平成20.05.07),2008.04.18(平成20.04.18),,20080418,,造形の規範となっているもの,,岐阜県,岐阜県加茂郡八百津町久田見2757,,宗教法人法誓寺,,,35.52051000000000,137.18930000000000,境内中央に東面して建つ。桁行２６ｍ梁間２５ｍに及ぶ大規模な仏堂。入母屋造桟瓦葺で、正面に３間向拝を付ける。正・側面に広縁と落縁を設け、内部は外陣と矢来内、内陣からなる浄土真宗独特の平面になる。外陣を小組格天井とするなど入念なつくりになる。,https://bunka.nii.ac.jp/heritage/43967/_108019/43967_108019111225025700654_300.jpg
101,00007354,旧松喜仏壇店店舗兼主屋,きゅうまつきぶつだんてんてんぽけんしゅおく,1棟,,登録有形文化財(建造物),産業3次,建築物,,明治,明治44／大正3頃増築・平成6改修,1911／1914頃増築・1994改修,木造2階建、瓦葺、建築面積146㎡,,21 － 0166,61,2008.11.10(平成20.11.10),2008.10.23(平成20.10.23),,20081023,,国土の歴史的景観に寄与しているもの,,岐阜県,岐阜県岐阜市白木町96,,,,,35.42897000000000,136.76560000000000,通りに東面して建つ町家。間口６．３ｍ奥行１５ｍの木造２階建とその奥の台所や客間棟等からなる。正面の２階建は南に通り土間を配し、北にミセなど３室を一列に並べ、２階に６室設ける。出桁造で、２階に出格子や袖卯建を構えるなど、伝統的な町家構えを残す。,https://bunka.nii.ac.jp/heritage/43967/_108336/43967_108336111225030720181_300.jpg
101,00007355,旧恵那市役所飯地事務所庁舎,きゅうえなしやくしょいいじじむしょちょうしゃ,1棟,,登録有形文化財(建造物),官公庁舎,建築物,,昭和中,昭和29／昭和59改修,1954／1984改修,木造2階建、瓦葺、建築面積141㎡,,21 － 0167,61,2008.11.10(平成20.11.10),2008.10.23(平成20.10.23),,20081023,,国土の歴史的景観に寄与しているもの,,岐阜県,岐阜県恵那市飯地町字中下165-12,,恵那市飯地町自治連合会,,,35.48205000000000,137.29080000000000,市北西の山間に位置する。桁行１８ｍ梁間７．０ｍ規模の木造２階建で、寄棟造瓦葺。正面中央に玄関ポーチを張り出す左右対称のつくりとする。正面外壁や玄関ポーチの床面等に多治見市笠原産のタイルを丁寧に使い分ける。昭和の大合併時に建設された庁舎建築。,https://bunka.nii.ac.jp/heritage/43967/_108337/43967_108337111225030721881_300.jpg
101,00007356,旧恵那市役所飯地事務所サイレン塔,きゅうえなしやくしょいいじじむしょさいれんとう,1基,,登録有形文化財(建造物),官公庁舎,その他工作,,昭和中,昭和29,1954,鉄骨造、高さ10m,,21 － 0168,61,2008.11.10(平成20.11.10),2008.10.23(平成20.10.23),,20081023,,国土の歴史的景観に寄与しているもの,,岐阜県,岐阜県恵那市飯地町字中下167-7,,恵那市飯地町自治連合会,,,35.48216000000000,137.29070000000000,庁舎背後の斜面に築かれる。１．８ｍ四方のコンクリート基礎上に、山形鋼と棒鋼を用いて築いた総高１０ｍの鉄骨構造物で、頂部には望楼を設ける。当初は時報サイレンと半鐘を付けていた。庁舎とともに、市民生活に身近なランドマークとして親しまれる。,https://bunka.nii.ac.jp/heritage/43967/_108338/43967_108338111225030723833_300.jpg
101,00007497,清水家住宅主屋,しみずけじゅうたくしゅおく,1棟,,登録有形文化財(建造物),住宅,建築物,,昭和前,昭和6,1931,木造2階建、瓦葺、建築面積198㎡,,21 － 0169,62,2009.01.22(平成21.01.22),2009.01.08(平成21.01.08),,20090108,,造形の規範となっているもの,,岐阜県,岐阜県各務原市蘇原伊吹町2-57,,,,,35.42183000000000,136.86160000000000,通りの南に占める敷地の西北隅に南面して建つ。桁行１９ｍ梁間９．７ｍ規模、木造２階建の養蚕農家建築。切妻造桟瓦葺で、周囲に下屋庇をまわす。東寄りを土間とし、西に２列各３室に居室を設ける。仏間には仏壇を置き、トコと付書院を構え、良質な座敷とする。,https://bunka.nii.ac.jp/heritage/43967/_108479/43967_108479111225031238753_300.jpg
101,00007498,小林家住宅門,こばやしけじゅうたくもん,1棟,,登録有形文化財(建造物),住宅,その他工作,,明治,明治14,1881,木造、瓦葺、間口3.3m,,21 － 0170,62,2009.01.22(平成21.01.22),2009.01.08(平成21.01.08),,20090108,,国土の歴史的景観に寄与しているもの,,岐阜県,岐阜県各務原市蘇原伊吹町3-29,,,,,35.42166000000000,136.86440000000000,通りに南面する一間一戸薬医門。間口３．３ｍと規模が大きく、両脇に袖塀を付け、西に潜りを開ける。切妻造桟瓦葺で、主柱上に冠木を置き、男梁を５通りに架け、軒は一軒疎垂木。装飾のない簡素な門ながら、柱や冠木、男梁は木太く、城門の雰囲気が感じられる。,https://bunka.nii.ac.jp/heritage/43967/_108480/43967_108480111225031239709_300.jpg
101,00007993,今井家住宅主屋,いまいけじゅうたくしゅおく,1棟,,登録有形文化財(建造物),住宅,建築物,,明治,明治前期／昭和中期・昭和後期改修,1868-1911／1926-1988改修,木造平屋建、鉄板葺、建築面積197㎡,,21-0172,66,2010.02.03(平成22.02.03),2010.01.15(平成22.01.15),,20100115,,国土の歴史的景観に寄与しているもの,,岐阜県,岐阜県中津川市馬籠3909,,,,,35.53574000000000,137.58320000000000,峠集落の中山道沿いに西面して建つ。桁行１５ｍ梁間１３ｍの木造つし２階建、切妻造鉄板葺。当初は牛小屋を設けた通りニワを南に、ミセなどの六間取の床上部を北に配する。正面には平格子や出格子を嵌め、駒繋の環金具を残し、街道沿いの歴史的佇まいを伝える。,https://bunka.nii.ac.jp/heritage/43967/_128825/43967_128825111225032550328_300.jpg
101,00007994,旧飯地公民館（五毛座）,きゅういいじこうみんかん（ごもうざ）,1棟,,登録有形文化財(建造物),文化福祉,建築物,,昭和中,昭和26／昭和36・昭和40・昭和48頃・平成14改修,1951／1961・1965・1973頃・2002改修,木造2階一部地下1階建、瓦葺、建築面積427㎡,,21-0173,66,2010.02.03(平成22.02.03),2010.01.15(平成22.01.15),,20100115,,国土の歴史的景観に寄与しているもの,,岐阜県,岐阜県恵那市飯地町字中下185-1,,,,,35.48202000000000,137.28950000000000,南と西に接道し、南面して建つ。木造２階一部地下１階建、建築面積４２７㎡ 。南北棟の半切妻造桟瓦葺。正面は下見板張で、中央に寄棟屋根を付け入口ポーチとする。内部は花道を備えた舞台や、客席の平土間や桟敷席を設け、地芝居小屋として親しまれている。,https://bunka.nii.ac.jp/heritage/43967/_128826/43967_128826111225032551233_300.jpg
101,00007995,須賀家住宅主屋,すがけじゅうたくしゅおく,1棟,,登録有形文化財(建造物),住宅,建築物,,明治,明治41,1908,木造平屋建、瓦葺、建築面積331㎡,,21-0174,66,2010.02.03(平成22.02.03),2010.01.15(平成22.01.15),,20100115,,国土の歴史的景観に寄与しているもの,,岐阜県,岐阜県下呂市萩原町中呂字沼334,,,,,35.84989000000000,137.22550000000000,山裾の敷地中央に南面して建つ。つし２階建、東西棟の切妻造桟瓦葺。中央にドマやダイドコ、東にカッテバ等、西に六間取の座敷を設け、トコや棚などを備えた格調高い座敷を西北角に張り出す。正面の出桁や、架構を現す漆喰仕上げの妻壁が大規模な佇まいを誇る。,https://bunka.nii.ac.jp/heritage/43967/_128827/43967_128827111225032553005_300.jpg
101,00007996,須賀家住宅表蔵,すがけじゅうたくおもてぐら,1棟,,登録有形文化財(建造物),住宅,建築物,,明治,明治12,1879,土蔵造2階建、瓦葺、建築面積55㎡,,21-0175,66,2010.02.03(平成22.02.03),2010.01.15(平成22.01.15),,20100115,,国土の歴史的景観に寄与しているもの,,岐阜県,岐阜県下呂市萩原町中呂字沼334,,,,,35.84973000000000,137.22580000000000,主屋正面の石段の東に建つ。土蔵造２階建、東西棟の置屋根形式の桟瓦葺、北に蔵前を付す。桁行７．３ｍ梁間５．５ｍ。１階に腰板を張った白漆喰仕上げ。掛子塗で平面を黒漆喰仕上げとする両開戸を吊る。赤瓦と白漆喰、黒色の木部が落ち着きのある構えをつくる。,https://bunka.nii.ac.jp/heritage/43967/_128828/43967_128828111225032553929_300.jpg
101,00007997,須賀家住宅北蔵,すがけじゅうたくきたぐら,1棟,,登録有形文化財(建造物),住宅,建築物,,明治,明治25,1892,土蔵造2階建、瓦葺、建築面積21㎡,,21-0176,66,2010.02.03(平成22.02.03),2010.01.15(平成22.01.15),,20100115,,国土の歴史的景観に寄与しているもの,,岐阜県,岐阜県下呂市萩原町中呂字沼334,,,,,35.85012000000000,137.22520000000000,主屋の西北に南面して建つ。桁行５．５ｍ梁間４．５ｍの土蔵造２階建、東西棟の置屋根形式の桟瓦葺、南に蔵前を付す。１階に簓子下見の腰板を張った白漆喰仕上げ。南の入口は木製の引込み戸とする。鉢巻下端の黒漆喰仕上げが外観を引き締めている。,https://bunka.nii.ac.jp/heritage/43967/_128829/43967_128829111225032556583_300.jpg
101,00007998,湯之島館本館,ゆのしまかんほんかん,1棟,,登録有形文化財(建造物),産業3次,建築物,,昭和前,昭和6,1931,木造3階建、瓦葺、建築面積462㎡,,21-0177,66,2010.02.03(平成22.02.03),2010.01.15(平成22.01.15),,20100115,,造形の規範となっているもの,,岐阜県,岐阜県下呂市湯之島字平岩625,,,,,35.81205000000000,137.24200000000000,南斜面の敷地中央に建つ。木造３階建、入母屋造桟瓦葺、建築面積４６２㎡。中廊下を挟んで西と南を客室、北と東を便所や食堂などにあてる。眺望を考慮し、南側は客室を雁行に配し、窓を連続させ開放的に扱う。内部も良質で、和風意匠の粋を凝らした建築である。,https://bunka.nii.ac.jp/heritage/43967/_128830/43967_128830111225032558480_300.jpg
101,00007999,湯之島館渡り廊下,ゆのしまかんわたりろうか,1棟,,登録有形文化財(建造物),産業3次,建築物,,昭和前,昭和6,1931,木造平屋建、銅板葺、建築面積28㎡,,21-0178,66,2010.02.03(平成22.02.03),2010.01.15(平成22.01.15),,20100115,,国土の歴史的景観に寄与しているもの,,岐阜県,岐阜県下呂市湯之島字平岩625,,,,,35.81208000000000,137.24180000000000,本館の西側に接続して建つ。梁間２．２ｍ、桁行折曲り延長１３ｍで、木造平屋建、銅板葺。化粧屋根裏天井で、窓上の小壁は赤壁とし、ガラス戸の外側に格子を付け、腰は杉皮張とする。四季折々の眺望を楽しむ本館への導入空間として巧みな意匠につくる。,https://bunka.nii.ac.jp/heritage/43967/_128831/43967_128831111225032600199_300.jpg
101,00008000,湯之島館玄関,ゆのしまかんげんかん,1棟,,登録有形文化財(建造物),産業3次,建築物,,昭和前,昭和6,1931,木造平屋一部2階建、瓦葺、建築面積161㎡,,21-0179,66,2010.02.03(平成22.02.03),2010.01.15(平成22.01.15),,20100115,,国土の歴史的景観に寄与しているもの,,岐阜県,岐阜県下呂市湯之島字平岩625,,,,,35.81210000000000,137.24160000000000,渡り廊下を挟んで本館の西側に建つ。木造平屋一部２階建、桟瓦葺、建築面積１６１㎡。１階の南北棟入母屋屋根の中央に、２階の東西棟入母屋屋根が載り、西向きの玄関ポーチ上に入母屋造の妻面を見せる。重層する屋根と黒漆喰仕上げの外壁が重厚な趣を呈する。,https://bunka.nii.ac.jp/heritage/43967/_128832/43967_128832111225032601885_300.jpg
101,00008115,奥村家住宅主屋,おくむらけじゅうたくしゅおく,1棟,,登録有形文化財(建造物),住宅,建築物,,昭和前,昭和3年,1928,木造2階建、瓦葺、建築面積146㎡,,21 － 0180,67,2010.05.20(平成22.05.20),2010.04.28(平成22.04.28),,20100428,,国土の歴史的景観に寄与しているもの,,岐阜県,岐阜県各務原市大佐野町2-183,,,,,35.38399000000000,136.83960000000000,南面して建つ桁行１７ｍ梁間８．６ｍの木造２階建で、入母屋造桟瓦葺とし、四周に下屋をまわす。床上部は前後二列に各三室を配し、仏間にはトコや付書院を構える。南北面は引違い戸をたて開放的に扱い、東西面は真壁造の黒漆喰壁とし落ち着きのある外観とする。,https://bunka.nii.ac.jp/heritage/43967/_132513/43967_132513111225032929487_300.jpg
101,00008116,小島家住宅主屋,こじまけじゅうたくしゅおく,1棟,,登録有形文化財(建造物),住宅,建築物,,昭和前,昭和4年／昭和前期増築,1929／1926-1988増築,木造平屋建、瓦葺、建築面積202㎡,,21 － 0181,67,2010.05.20(平成22.05.20),2010.04.28(平成22.04.28),,20100428,,国土の歴史的景観に寄与しているもの,,岐阜県,岐阜県各務原市大佐野町3-126,,,,,35.38167000000000,136.83990000000000,敷地中央前寄りに位置し、背後に工場が建つ。木造平屋建。畳敷の廊下を東西に通す中廊下型平面で、南北に各三室を並べる。屋根は切妻造桟瓦葺とし、周囲に下屋庇をまわし、東面南寄りに宝形造の応接室、北寄りに半切妻造の寝室を付設して、独特の外観を造る。,https://bunka.nii.ac.jp/heritage/43967/_132514/43967_132514111225032932163_300.jpg
101,00008117,酒井家住宅主屋,さかいけじゅうたくしゅおく,1棟,,登録有形文化財(建造物),住宅,建築物,,大正,大正14年／昭和35年改修,1925／1960改修,木造2階建、瓦葺、建築面積171㎡,,21 － 0182,67,2010.05.20(平成22.05.20),2010.04.28(平成22.04.28),,20100428,,造形の規範となっているもの,,岐阜県,岐阜県各務原市那加西市場町2-91,,,,,35.41311000000000,136.82470000000000,敷地中央に位置する、東西棟の切妻造桟瓦葺で、四周に下屋庇をまわす。桁行１８ｍ梁間９．６ｍの木造２階建。東寄りに土間を設け、西側に前後二列に各三室を配し、西端の南にブツマ、北にトコとトコ脇を備えた座敷を配するなど、伝統的な平面形態を伝える。,https://bunka.nii.ac.jp/heritage/43967/_132515/43967_132515111225032933942_300.jpg
101,00008118,酒井家住宅土蔵,さかいけじゅうたくどぞう,1棟,,登録有形文化財(建造物),住宅,建築物,,明治,明治元年,1868,土蔵造2階建、瓦葺、建築面積34㎡,,21 － 0183,67,2010.05.20(平成22.05.20),2010.04.28(平成22.04.28),,20100428,,国土の歴史的景観に寄与しているもの,,岐阜県,岐阜県各務原市那加西市場町2-91,,,,,35.41324000000000,136.82460000000000,敷地西北隅に南面して建つ２階建土蔵。桁行５．５ｍ梁間３．６ｍで、奥行２．７ｍと深い蔵前を付設する。切妻造桟瓦葺。内部は１、２階とも一室で、２階は土壁、１階は板張とする。外壁は高く下見板を張る白漆喰仕上げとし、敷地景観に落ち着きを与える。,https://bunka.nii.ac.jp/heritage/43967/_132516/43967_132516111225032935700_300.jpg
101,00008119,小島家住宅主屋,こじまけじゅうたくしゅおく,1棟,,登録有形文化財(建造物),住宅,建築物,,昭和前,昭和前期,1926-1988,木造2階建、瓦葺、建築面積188㎡,,21 － 0184,67,2010.05.20(平成22.05.20),2010.04.28(平成22.04.28),,20100428,,造形の規範となっているもの,,岐阜県,岐阜県各務原市成清町2-76-2他,,,,,35.38628000000000,136.82560000000000,敷地東寄りに南面して建つ、木造２階建。入母屋造桟瓦葺で、四周に下屋庇を付設する。東端にハタベヤ、西寄りに田の字型に四室を配し、その間に土間を設ける。西南隅は十三畳の座敷とし、優美な座敷飾りを構える。良材を使い、丁寧な仕上げになる近代和風住宅。,https://bunka.nii.ac.jp/heritage/43967/_132517/43967_132517111225032937585_300.jpg
101,00008120,小島家住宅附属屋,こじまけじゅうたくふぞくや,1棟,,登録有形文化財(建造物),住宅,建築物,,昭和前,昭和前期,1926-1988,木造平屋建、瓦葺、建築面積22㎡,,21 － 0185,67,2010.05.20(平成22.05.20),2010.04.28(平成22.04.28),,20100428,,国土の歴史的景観に寄与しているもの,,岐阜県,岐阜県各務原市成清町2-76-2他,,,,,35.38618000000000,136.82570000000000,主屋南面東端から南北に延びる。切妻造桟瓦葺とし、北半部は棟を一段下げる。桁行９．７ｍ梁間２．３ｍで、南端を井戸や洗い場、北寄りを便所、その間を風呂とする。白漆喰仕上げの真壁造で、外壁には腰板、内部にはタイルなどを貼る。軽快な意匠になる附属屋。,https://bunka.nii.ac.jp/heritage/43967/_132518/43967_132518111225032939196_300.jpg
101,00008122,小島家住宅表門,こじまけじゅうたくおもてもん,1棟,,登録有形文化財(建造物),住宅,その他工作,,昭和前,昭和前期,1926-1988,木造、瓦葺、間口2.3m,,21 － 0187,67,2010.05.20(平成22.05.20),2010.04.28(平成22.04.28),,20100428,,国土の歴史的景観に寄与しているもの,,岐阜県,岐阜県各務原市成清町2-76-2他,,,,,35.38610000000000,136.82570000000000,敷地の南辺東寄りに位置する。一間薬医門で、切妻造桟瓦葺。間口２．３ｍに五平の本柱を建て、控えは方柱とする。冠木を女梁と男梁で挟み、固める。妻は虹梁大瓶束で、蟇股風に作る。一軒疎垂木とし、拝みに鰭付猪目懸魚を飾る。屋敷正面に重厚感を与える。,https://bunka.nii.ac.jp/heritage/43967/_132520/43967_132520111225032943480_300.jpg
101,00008123,小島家住宅外塀,こじまけじゅうたくそとべい,1棟,,登録有形文化財(建造物),住宅,その他工作,,昭和前,昭和前期,1926-1988,土塀、瓦葺、延長18m,,21 － 0188,67,2010.05.20(平成22.05.20),2010.04.28(平成22.04.28),,20100428,,国土の歴史的景観に寄与しているもの,,岐阜県,岐阜県各務原市成清町2-76-2他,,,,,35.38609000000000,136.82560000000000,表門から東西に延び、折曲り総延長１８ｍを測る。自然石乱積基礎上の土塀で、腰モルタル洗い出しとし、その下端には緑色のタイルを貼る。上部は白漆喰仕上げで、表門際には片開の潜りを開け、要所に格子窓を穿ち、趣のある屋敷構えをつくる。,https://bunka.nii.ac.jp/heritage/43967/_132521/43967_132521111225032945119_300.jpg
101,00008124,小島家住宅中門及び庭塀,こじまけじゅうたくなかもんおよびにわべい,1棟,,登録有形文化財(建造物),住宅,その他工作,,昭和前,昭和前期,1926-1988,中門　木造、瓦葺、間口1.5m、庭塀　木造、銅板葺、延長7.1m,,21 － 0189,67,2010.05.20(平成22.05.20),2010.04.28(平成22.04.28),,20100428,,国土の歴史的景観に寄与しているもの,,岐阜県,岐阜県各務原市成清町2-76-2他,,,,,35.38616000000000,136.82570000000000,主屋南側の庭を画する。中門は南北中央に位置する、間口１．５ｍの腕木門。入母屋造桟瓦葺で軒先を銅板葺とする。軸部や垂木を丸太材とし、上部に欄間を飾る。庭塀は南北に延びる折曲り総延長７．１ｍ、銅板葺の板塀。数寄屋風意匠で品のある佇まいを見せる。,https://bunka.nii.ac.jp/heritage/43967/_132522/43967_132522111225032946867_300.jpg
101,00008125,旧岩崎家住宅主屋,きゅういわさきけじゅうたくしゅおく,1棟,,登録有形文化財(建造物),住宅,建築物,,江戸,江戸中期／昭和43年移築,1661-1750／1968移築,木造平屋建、茅葺、建築面積144㎡,,21 － 0190,67,2010.05.20(平成22.05.20),2010.04.28(平成22.04.28),,20100428,,造形の規範となっているもの,,岐阜県,岐阜県下呂市森字柿ヶ平2369,,下呂市,,,35.80869000000000,137.24990000000000,桁行１５ｍ梁間８．２ｍ規模、切妻造妻入茅葺。南面して建ち、南に土間を設け、北半部をデイやオエからなる田の字型四間取とし、オマエの背後に仏間を下屋で張り出す。正面に茅葺が葺きまわされ、入母屋風に復原できるなど、五箇山地方合掌造民家の古例である。,https://bunka.nii.ac.jp/heritage/43967/_132523/43967_132523111225032948749_300.jpg
101,00008126,旧遠山家住宅板倉,きゅうとおやまけじゅうたくいたくら,1棟,,登録有形文化財(建造物),住宅,建築物,,江戸,文化7年（1810）／昭和37年移築,1810／1962移築,木造平屋建、茅葺、建築面積25㎡,,21 － 0191,67,2010.05.20(平成22.05.20),2010.04.28(平成22.04.28),,20100428,,造形の規範となっているもの,,岐阜県,岐阜県下呂市森字柿ヶ平2369,,下呂市,,,35.80853000000000,137.24960000000000,南北棟の切妻造茅葺、桁行５．５ｍ梁間４．５ｍ。床は板敷で、根太天井を張る。南寄り桁行１．８ｍを物置とし、東面に引違い戸をたて、北側を倉とする。倉の外壁は壁貫の両面に板を張る二重の板壁にして気密性を高める。建築年代が明確な点でも貴重な近世板倉。,https://bunka.nii.ac.jp/heritage/43967/_132524/43967_132524111225032951726_300.jpg
101,00008459,三輪酒造北蔵,みわしゅぞうきたぐら,1棟,,登録有形文化財(建造物),産業2次,建築物,,明治,明治21年,1888,土蔵造2階建、瓦葺、建築面積398㎡,,21 － 0192,69,2011.01.26(平成23.01.26),2011.01.26(平成23.01.26),,20110126,,造形の規範となっているもの,,岐阜県,岐阜県大垣市南切石町1-45-1,,株式会社三輪酒造,,,35.35498000000000,136.61040000000000,運河を埋め立てた街路の南に占める敷地の中央南寄りに位置する。桁行二二メートル梁間一四メートル、南北棟の切妻造桟瓦葺の西側に、梁間四・六メートルの招屋根を付ける。土蔵造二階建で、外壁は下見板張、内壁は漆喰仕上げとする。大規模な醸造蔵の一例。,https://bunka.nii.ac.jp/heritage/43967/_134855/43967_134855111225034053918_300.jpg
101,00008460,三輪酒造南蔵,みわしゅぞうみなみぐら,1棟,,登録有形文化財(建造物),産業2次,建築物,,明治,明治20年,1887,土蔵造3階建、瓦葺、建築面積361㎡,,21 － 0193,69,2011.01.26(平成23.01.26),2011.01.26(平成23.01.26),,20110126,,国土の歴史的景観に寄与しているもの,,岐阜県,岐阜県大垣市南切石町1-45-1,,株式会社三輪酒造,,,35.35478000000000,136.61050000000000,敷地南端、小路に面する。東西棟で、棟高や梁間等が異なる三部分に分かれる。総桁行三三メートル梁間最大一四メートル、土蔵造三階建で、西端部のみ二階建。切妻造桟瓦葺とし、川石を積み上げた基礎上、鉢巻まで高く下見板を張り、重厚な街路景観をつくる。,https://bunka.nii.ac.jp/heritage/43967/_134856/43967_134856111225034057448_300.jpg
101,00008692,旧櫻井銘木店店舗兼主屋,きゅうさくらいめいぼくてんてんぽけんしゅおく,1棟,,登録有形文化財(建造物),産業3次,建築物,,明治,明治中期／昭和14年改修,,木造2階建、瓦葺、建築面積199㎡,,21 － 0194,70,2011.07.25(平成23.07.25),2011.07.25(平成23.07.25),,20110725,,国土の歴史的景観に寄与しているもの,,岐阜県,岐阜県岐阜市元浜町30-1他,,,,,35.43574000000000,136.76960000000000,通りに南面する町家。間口7.9ｍの切妻造桟瓦葺、木造2階建で、背面には居室や台所などの2階屋を付設する。正面は下屋が大きく引違い戸の開口を設け、東寄りを格子窓とする。上屋は格子窓に黒漆喰壁とし、袖ウダツを付ける。伝統的な町家の表構えを示す。,https://bunka.nii.ac.jp/heritage/43967/_149413/43967_149413140216024023985_300.jpg
101,00008693,旧櫻井銘木店土蔵,きゅうさくらいめいぼくてんどぞう,1棟,,登録有形文化財(建造物),産業3次,建築物,,明治,明治中期,,土蔵造2階建、瓦葺、建築面積78㎡,,21 － 0195,70,2011.07.25(平成23.07.25),2011.07.25(平成23.07.25),,20110725,,国土の歴史的景観に寄与しているもの,,岐阜県,岐阜県岐阜市元浜町30-1,,,,,35.43591000000000,136.76960000000000,主屋の北奥に位置する。梁間15ｍ桁行南4.7ｍ北5.8ｍの台形平面になる2階建土蔵。切妻造桟瓦葺。南・北中央に大きく開口を設け引込戸をたて、2階は南面に矩形の窓を穿つ。1、2階とも板床。材木商が集まった往時の長良川筋町並みの景観を伝える。,https://bunka.nii.ac.jp/heritage/43967/_149414/43967_149414140216024026150_300.jpg
101,00009018,都筑家住宅主屋,つづくけじゅうたくしゅおく,1棟,,登録有形文化財(建造物),住宅,建築物,,江戸,天保12年（1841）／安政3年（1856）増築,1841/1856増築,木造2階建、鉄板葺、建築面積384㎡,,21 － 0196,71,2011.10.28(平成23.10.28),2011.10.28(平成23.10.28),,20111028,,国土の歴史的景観に寄与しているもの,,岐阜県,岐阜県下呂市萩原町羽根字上段1344,,,,,35.88983000000000,137.20040000000000,山裾に南面して建つ。切妻造鉄板葺、桁行１８ｍ梁間１７ｍの木造二階建で、西北隅に奥座敷を付設する。奥座敷は十二畳半の主室や七畳半の次の間、仏間等からなり、主室にトコや棚等を備え、次の間には大トコを構える。近世における大規模農家。,https://bunka.nii.ac.jp/heritage/43967/_162378/43967_162378757001763549427_300.jpg
101,00009169,旅館かみなか本館,りょかんかみなかほんかん,1棟,,登録有形文化財(建造物),産業3次,建築物,,明治,明治中期／昭和33年改修,1883～1897／1958改修,木造2階建、鉄板葺、建築面積398㎡,,,72,2012.02.23(平成24.02.23),2012.02.23(平成24.02.23),,20120223,,国土の歴史的景観に寄与しているもの,,岐阜県,岐阜県高山市花岡町1-5-4,,,,,36.14335000000000,137.25260000000000,通りに西面し、木造2階建、建築面積398平方メートル、切妻造及び寄棟造、鉄板葺である。正面中央の玄関に唐破風造桟瓦葺の庇を付ける。上下階とも周囲に出格子を建て瀟洒な外観とする。内部造作も意匠を凝らしており、往時の賑わいを伝える。,https://bunka.nii.ac.jp/heritage/43967/_164722/43967_164722140222025018593_300.jpg
101,00009170,旅館かみなか土蔵,りょかんかみなかどぞう,1棟,,登録有形文化財(建造物),産業3次,建築物,,大正,大正期,1912～1926,土蔵造2階建、瓦葺、建築面積27㎡,,,72,2012.02.23(平成24.02.23),2012.02.23(平成24.02.23),,20120223,,国土の歴史的景観に寄与しているもの,,岐阜県,岐阜県高山市花岡町1-5-4,,,,,36.14348000000000,137.25260000000000,本館の北隣に建つ。桁行5.6メートル梁間4.8メートル、土蔵造2階建、切妻造桟瓦葺。外壁は漆喰塗で軒に鉢巻を廻らし、腰をモルタル洗出しとする。上下各階に本館への出入口を設け、土蔵内に階段を設けないという、特徴的なつくりになる土蔵。,https://bunka.nii.ac.jp/heritage/43967/_164723/43967_164723140222025020472_300.jpg
101,00009279,旧河合療院,きゅうかわいりょういん,1棟,,登録有形文化財(建造物),文化福祉,建築物,,昭和前,昭和前期,1926～1945,木造一部土蔵造2階建、鉄板葺、建築面積426㎡,,21 － 0200,73,2012.08.13(平成24.08.13),2012.08.13(平成24.08.13),,20120813,,国土の歴史的景観に寄与しているもの,,岐阜県,岐阜県飛騨市古川町弐之町3-19,,,,,36.23430000000000,137.18680000000000,通りに南面して診療所を設け、後方に居住部、病室の順に配し、土間に土蔵を建てる。木造二階建、建築面積三六五平方メートル。大オーダー風の柱形をドイツ壁とし、各間に縦長の上下窓と幾何意匠をあしらう。古川の町並みに映える瀟洒な洋風意匠の医院建築。,https://bunka.nii.ac.jp/heritage/43967/_194072/43967_194072011664828727721_300.jpg
101,00009280,河合家別邸主屋,かわいけべっていしゅおく,1棟,,登録有形文化財(建造物),住宅,建築物,,昭和前,昭和16年頃,1941頃,木造平屋一部2階建、鉄板葺、建築面積173㎡,,21 － 0201,73,2012.08.13(平成24.08.13),2012.08.13(平成24.08.13),,20120813,,国土の歴史的景観に寄与しているもの,,岐阜県,岐阜県飛騨市古川町壱之町5-16,,,,,36.23475000000000,137.18740000000000,敷地北側に建ち、建築面積一七三メートル。平面は土蔵を囲みＨ字形を呈し、北東・南西部は二階建切妻造、他は平屋建入母屋造。南東側に入母屋造の玄関を構える。南西部は南と東面に下屋を張出して縁を設け、窓を開ける。前庭の眺望に配慮した上質な数寄屋造。,https://bunka.nii.ac.jp/heritage/43967/_194073/43967_194073140222025338549_300.jpg
101,00009281,河合家別邸土蔵,かわいけべっていどぞう,1棟,,登録有形文化財(建造物),住宅,建築物,,明治,明治中期,1883～1897,土蔵造2階建、鉄板葺、建築面積40㎡,,21 － 0202,73,2012.08.13(平成24.08.13),2012.08.13(平成24.08.13),,20120813,,国土の歴史的景観に寄与しているもの,,岐阜県,岐阜県飛騨市古川町壱之町5-16,,,,,36.23484000000000,137.18750000000000,敷地北側中央に東西棟で建つ。桁行梁行とも六・四メートル、土蔵造二階建、切妻造、置屋根式の鉄板葺である。南面の主屋廊下側に戸口を開き、内側上部に黒漆喰で家紋をあしらった扉を吊る。小屋組は和小屋とし。主屋と一体となって良好な町家空間を醸す。,https://bunka.nii.ac.jp/heritage/43967/_194074/43967_194074140222025339625_300.jpg
101,00009282,河合家別邸門及び塀,かわいけべっていもんおよびへい,1棟,,登録有形文化財(建造物),住宅,その他工作物,,昭和前,昭和16年頃,1941頃,門　銅板葺、間口2.9m　板塀　銅板葺、総延長41m,,21 － 0203,73,2012.08.13(平成24.08.13),2012.08.13(平成24.08.13),,20120813,,国土の歴史的景観に寄与しているもの,,岐阜県,岐阜県飛騨市古川町壱之町5-16,,,,,36.23463000000000,137.18740000000000,敷地南面の中央東寄りに、通りから後退して門を開き、左右に折曲がりの塀を延ばす。門は一間腕木門、切妻造鉄板葺で、土壁に格子目の欄間を開ける。塀は腰高く竪板張とし、土塗りの小壁に窓を穿つ。落ち着いた雰囲気を醸し町並みの景観に寄与している。,https://bunka.nii.ac.jp/heritage/43967/_194075/43967_194075140222025340595_300.jpg
101,00009283,旧北岡田家住宅主屋,きゅうきたおかだけじゅうたくしゅおく,1棟,,登録有形文化財(建造物),住宅,建築物,,大正,大正5年,1916,木造2階建、瓦葺、建築面積432㎡,,21 － 0204,73,2012.08.13(平成24.08.13),2012.08.13(平成24.08.13),,20120813,,国土の歴史的景観に寄与しているもの,,岐阜県,岐阜県揖斐郡大野町大字相羽字村通282,,大野町,市区町村,,35.45511000000000,136.63470000000000,広大な敷地の中央に南面して建つ。建築面積四三二平方メートル。切妻造桟瓦葺で、深い下屋を廻す。正面東寄りに入母屋造の式台玄関を構える。西側には各一五畳の中の間と座敷が並び、入側を介して庭園を望む。上質な造作と豪壮な屋敷構えをもつ和風建築。,https://bunka.nii.ac.jp/heritage/43967/_194076/43967_194076891860358391859_300.jpg
101,00009456,清水屋原家住宅主屋,しみずやはらけじゅうたくしゅおく,1棟,,登録有形文化財(建造物),住宅,建築物,,明治,明治後期／昭和45年改修,1898～1912／1970改修,木造2階建、瓦葺、建築面積182㎡,,21 － 0205,74,2013.03.29(平成25.03.29),2013.03.29(平成25.03.29),,20130329,,国土の歴史的景観に寄与しているもの,,岐阜県,岐阜県中津川市馬籠4284,,,,,35.52574000000000,137.56620000000000,中山道馬籠宿の南西端に建つ。間口一三・九メートル、木造二階建、切妻造桟瓦葺で正背面に庇を付ける。正面は、右手のミセ部分や二階に出格子を設け、ほかを漆喰壁や下見板張とする。内部は豪壮な梁組を現す板間を中心に座敷を配する。宿場の大型町家である。,https://bunka.nii.ac.jp/heritage/43967/_194249/43967_194249140908092637323_300.jpg
101,00009457,清水屋原家住宅土蔵,しみずやはらけじゅうたくどぞう,1棟,,登録有形文化財(建造物),住宅,建築物,,明治,明治後期,1898～1912,土蔵造2階建、瓦葺、建築面積30㎡,,21 － 0206,74,2013.03.29(平成25.03.29),2013.03.29(平成25.03.29),,20130329,,国土の歴史的景観に寄与しているもの,,岐阜県,岐阜県中津川市馬籠4284,,,,,35.53168000000000,137.57160000000000,主屋後方に接続し中庭に面して南北棟で建つ。土蔵造二階建、桁行五・五メートル梁間四・五メートル、切妻造桟瓦葺で、東面の戸口に下屋を設ける。外壁は漆喰塗で腰を簓子下見板張とし、戸口に土戸を両開きに吊り、上階西面に小窓を穿つ。丁寧なつくりの土蔵。,https://bunka.nii.ac.jp/heritage/43967/_194250/43967_194250140908092638367_300.jpg
101,00009458,旧和良森林組合事務所,きゅうわらしんりんくみあいじむしょ,1棟,,登録有形文化財(建造物),産業1次,建築物,,昭和中,昭和26年／昭和37年移築,1951／1962移築,木造2階建、瓦葺、建築面積85㎡,,21 － 0207,74,2013.03.29(平成25.03.29),2013.03.29(平成25.03.29),,20130329,,国土の歴史的景観に寄与しているもの,,岐阜県,岐阜県郡上市和良町沢字堂ノ前1027-1他,,特定非営利活動法人つくしん棒,非営利法人,,35.74959000000000,137.08640000000000,通り沿いに建つ。木造二階建、妻入、建築面積八五平方メートル、切妻造桟瓦葺で正面を半切妻とする。外壁は横板張ペンキ塗で小庇を廻らせる。下階はカウンターを設けた事務室として上階に和室を配し、小屋は洋小屋を組む。和良の近代化を示す洋風の事務所建築。,https://bunka.nii.ac.jp/heritage/43967/_194251/43967_194251140908092639359_300.jpg
101,00009459,白川橋,しらかわばし,1基,,登録有形文化財(建造物),交通,土木構造物,,大正,大正15年,1926,鋼製補剛吊橋、橋長115m、幅員4.7m、袖高欄付,,21 － 0208,74,2013.03.29(平成25.03.29),2013.03.29(平成25.03.29),,20130329,,国土の歴史的景観に寄与しているもの,,岐阜県,岐阜県加茂郡白川町河岐500-7他,,白川町,市区町村,,35.57933000000000,137.18630000000000,飛騨川の中流域に架かる道路橋。橋長一一五メートル、幅員三・四メートル規模の鋼製補剛桁付三径間吊橋。両岸に花崗岩製の袖柱を残す。主塔を鋼製、橋脚を鉄筋コンクリート造とし、主ケーブルのサグ比は一〇分の一とする。現存する大正期の吊橋として貴重。,https://bunka.nii.ac.jp/heritage/43967/_194252/43967_194252140908092641924_300.jpg
101,00009460,松屋山田家住宅,まつややまだけじゅうたく,1棟,,登録有形文化財(建造物),住宅,建築物,,明治,明治30年／昭和8年増築,1897／1933増築,木造2階建、瓦葺、建築面積196㎡,,21 － 0209,74,2013.03.29(平成25.03.29),2013.03.29(平成25.03.29),,20130329,,国土の歴史的景観に寄与しているもの,,岐阜県,岐阜県可児郡御嵩町伏見字西町924-1,,,,,35.43887000000000,137.08460000000000,中山道伏見宿で、通りに北面して建つ。間口一五・一メートルの主体部は、木造二階建、切妻造桟瓦葺で正背面に庇を付ける。東側にモルタル塗で洋風意匠の旧郵便局を付属する。正面は下階全体に格子を、上階にガラス窓をたてる。宿場の名残を伝える近代の町家。,https://bunka.nii.ac.jp/heritage/43967/_194253/43967_194253402335744703712_300.jpg
101,00009601,空穂屋店舗兼主屋,うつぼやてんぽけんしゅおく,1棟,,登録有形文化財(建造物),産業3次,建築物,,明治,明治25頃／昭和初期・昭和中期増築,1892頃／1926～1945・1946～1965増築,木造2階建、瓦葺、建築面積307㎡,,21 － 0210,75,2013.06.21(平成25.06.21),2013.06.21(平成25.06.21),,20130621,,国土の歴史的景観に寄与しているもの,,岐阜県,岐阜県岐阜市靱屋町38他,,,,,35.43094000000000,136.76690000000000,金華山西麓の住宅地で、通りに東面して建つ二階建町家。切妻造桟瓦葺で、正面は一階腰を石貼とし、二階は格子を並べ、両端に袖うだつを設ける。敷地後方には茶室と二階建の紙倉庫を付属する。地元の伝統産業である紙問屋の特徴を良く示す大型町家。,https://bunka.nii.ac.jp/heritage/43967/_194597/43967_194597140916101238879_300.jpg
101,00009602,空穂屋土蔵,うつぼやどぞう,1棟,,登録有形文化財(建造物),産業3次,建築物,,明治,明治中期,1883～1897,土蔵造2階建、瓦葺、建築面積27㎡,,21 － 0211,75,2013.06.21(平成25.06.21),2013.06.21(平成25.06.21),,20130621,,国土の歴史的景観に寄与しているもの,,岐阜県,岐阜県岐阜市靱屋町39,,,,,35.43106000000000,136.76670000000000,敷地の奥北寄りに建つ。桁行五・六メートル梁間三・五メートル、土蔵造二階建、切妻造桟瓦葺で、東妻を戸口とし、下屋で主屋に接続する。外壁は軒廻り鉢巻付きの大壁とし、正面に一間の下屋を附す。明治二四年の濃尾地震以前に遡る土蔵の数少ない遺構。,https://bunka.nii.ac.jp/heritage/43967/_194598/43967_194598140916101239915_300.jpg
101,00009603,旧山岸写真館店舗兼主屋,きゅうやまぎししゃしんかんてんぽけんしゅおく,1棟,,登録有形文化財(建造物),産業3次,建築物,,昭和前,昭和初期／昭和63改修,1926～1945／1988改修,木造2階建、鉄板葺、建築面積75㎡,,21 － 0212,75,2013.06.21(平成25.06.21),2013.06.21(平成25.06.21),,20130621,,国土の歴史的景観に寄与しているもの,,岐阜県,岐阜県高山市馬場町1-61,,,,,36.14138000000000,137.26230000000000,城山公園への登り口に東面して建つ。写真館として建てられた木造二階建の建物で、正面のモルタル塗の外壁に意匠を凝らす。三連縦長窓の上に欠円アーチを連続させたコーニスを廻らし、入口上の商号など各所に左官細工による装飾を配するなど瀟洒な外観を持つ。,https://bunka.nii.ac.jp/heritage/43967/_194599/43967_194599140916101241096_300.jpg
101,00009604,旧山岸写真館土蔵,きゅうやまぎししゃしんかんどぞう,1棟,,登録有形文化財(建造物),産業3次,建築物,,昭和前,昭和初期,1926～1945,土蔵造2階建、鉄板葺、建築面積17㎡,,21 － 0213,75,2013.06.21(平成25.06.21),2013.06.21(平成25.06.21),,20130621,,国土の歴史的景観に寄与しているもの,,岐阜県,岐阜県高山市馬場町1-61,,,,,36.14141000000000,137.26230000000000,店舗兼主屋北に隣接して南北棟で建つ。桁行三・六メートル梁間五・八メートル、土蔵造二階建、切妻造、置屋根式の鉄板葺。外壁は腰高のモルタル洗出しで上部漆喰壁とする。小規模な土蔵であるが、店舗兼主屋の洋風意匠と対照的に通りの歴史的景観を形成する。,https://bunka.nii.ac.jp/heritage/43967/_194600/43967_194600140916101242234_300.jpg
101,00009605,酒波神社本殿,さかなみじんじゃほんでん,1棟,,登録有形文化財(建造物),宗教,建築物,,江戸,元禄15,1702,木造平屋建、銅板葺、建築面積13㎡,,21 － 0214,75,2013.06.21(平成25.06.21),2013.06.21(平成25.06.21),,20130621,,国土の歴史的景観に寄与しているもの,,岐阜県,岐阜県瑞浪市日吉町字南垣外4088,,酒波神社,宗教法人,,35.40734000000000,137.24350000000000,境内北方に建ち、三間社流造銅板葺で、三方に高欄付切目縁を廻し、正面に一間幅の木階を設ける。全体を赤色塗とし蟇股彫刻に彩色を施す。頭貫木鼻に雲紋を陽刻し、妻飾は虹梁を出組で二段持出し、意匠を凝らす。建立年代の判明する神社本殿として市内最古。,https://bunka.nii.ac.jp/heritage/43967/_194601/43967_194601140916101243808_300.jpg
101,00009606,酒波神社鐘楼,さかなみじんじゃしょうろう,1棟,,登録有形文化財(建造物),宗教,建築物,,江戸,江戸中期／明治42移築,1661～1751／1909移築,木造2階建、銅板葺、建築面積8.9㎡,,21 － 0215,75,2013.06.21(平成25.06.21),2013.06.21(平成25.06.21),,20130621,,国土の歴史的景観に寄与しているもの,,岐阜県,岐阜県瑞浪市日吉町字南垣外4088,,酒波神社,宗教法人,,35.40744000000000,137.24370000000000,本殿の東方に東西棟で建つ。方一間袴腰付鐘楼で、入母屋造とし、四周に縁を廻す。方柱を腰貫、頭貫と台輪で固め、三斗組とし、中備に平三斗を置く。軒は二軒繁垂木で、妻は豕扠首。廃仏毀釈により梵鐘を失った後は祭器蔵と称し、現在も下層に神輿を納める。,https://bunka.nii.ac.jp/heritage/43967/_194602/43967_194602140916101246282_300.jpg
101,00009757,長良川鉄道美濃市駅本屋,ながらがわてつどうみのしえきほんや,1棟,,登録有形文化財(建造物),交通,建築物,,大正,大正12／平成7・平成14改修,1923／1995・2002改修,木造平屋建、鉄板葺、建築面積189㎡、連絡通路用上屋付,,21 － 0216,76,2013.12.24(平成25.12.24),2013.12.24(平成25.12.24),,20131224,,国土の歴史的景観に寄与しているもの,,岐阜県,岐阜県美濃市字沓掛2946-6,,長良川鉄道株式会社,営利法人,,35.53949000000000,136.91510000000000,美濃市街地南東部に位置する鉄道駅舎。桁行二四メートル、切妻造平入の木造平屋建で、正面に車寄、背面に上屋付連絡通路を付ける。外壁は下見板張で、西寄りを待合室とし、東側に閉塞取扱所付の事務室や休憩所を配するなど、大正期の官鉄駅舎の姿を今に伝える。,https://bunka.nii.ac.jp/heritage/43967/_195586/43967_195586140905092429399_300.jpg
101,00009758,長良川鉄道美濃市駅プラットホーム及び待合所,ながらがわてつどうみのしえきぷらっとほーむおよびまちあいじょ,1棟,,登録有形文化財(建造物),交通,建築物,,大正,大正12／昭和12・昭和29改修,1923／1937・1954改修,プラットホーム　石造、延長98m、上屋2棟及び階段用上屋付　待合所　木造平屋建、スレート葺、建築面積20㎡,,21 － 0217,76,2013.12.24(平成25.12.24),2013.12.24(平成25.12.24),,20131224,,国土の歴史的景観に寄与しているもの,,岐阜県,岐阜県美濃市字沓掛2946-6,,長良川鉄道株式会社,営利法人,,35.53955000000000,136.91540000000000,駅舎の南側に位置する。延長九八メートル、側面玉石積の直線状構造物で、両端をスロープ状とする。ホーム上には桁行六・四メートル、梁間三・二メートル、下見板張の木造待合所一棟、古レールでつくった上屋二棟及び木造階段室を設け、歴史的な鉄道景観を創る。,https://bunka.nii.ac.jp/heritage/43967/_195587/43967_195587140905092431224_300.jpg
101,00009759,小林家住宅主屋,こばやしけじゅうたくしゅおく,1棟,,登録有形文化財(建造物),住宅,建築物,,江戸,江戸末期,1830～1868,木造平屋一部2階建、瓦葺、建築面積151㎡,,21 － 0218,76,2013.12.24(平成25.12.24),2013.12.24(平成25.12.24),,20131224,,国土の歴史的景観に寄与しているもの,,岐阜県,岐阜県不破郡垂井町字屋敷1268-1,,,,,35.37152000000000,136.52370000000000,中山道垂井宿に北面して建つ町家で、木造平屋一部二階建、切妻造桟瓦葺とし、正面に下屋を設ける。正面東側を戸口として土間を通し、西側に格子をたてる。二階正面は黒漆喰塗で虫籠窓を二所穿ち、袖うだつをあげる。中山道の宿場の面影を伝える近世の町家。,https://bunka.nii.ac.jp/heritage/43967/_195588/43967_195588140222025826637_300.jpg
101,00009954,美濃窯業株式会社瑞浪工場角型煙突,みのようぎょうかぶしきがいしゃみずなみこうじょうかくがたえんとつ,1基,,登録有形文化財(建造物),産業2次,その他工作,,大正,大正9／昭和7・平成17改修,1920／1932・2005改修,煉瓦造、高さ26m,,21 － 0219,77,2014.04.25(平成26.04.25),2014.04.25(平成26.04.25),,20140425,,国土の歴史的景観に寄与しているもの,,岐阜県,岐阜県瑞浪市寺河戸町字上門田921-4他,,美濃窯業株式会社,営利法人,,35.36422000000000,137.25300000000000,煉瓦造、イギリス積で、基部の平面は二・三メートル角の正方形とし、高さは二六メートルを測る。腰部に装飾的な帯状部を設け、現在は鉄製アングル材で補強している。窯業が盛んな東濃地方に残るものとして最大級の煉瓦煙突であり、当地の近代産業史を伝える。,https://bunka.nii.ac.jp/heritage/43967/_196101/43967_196101140718092057051_300.jpg
101,00009955,浅井銃砲火薬店店舗兼主屋,あさいじゅうほうかやくてんてんぽけんしゅおく,1棟,,登録有形文化財(建造物),産業3次,建築物,,昭和前,昭和初期,1926～1945,木造及び土蔵造2階建、瓦葺、建築面積270㎡,,21 － 0220,77,2014.04.25(平成26.04.25),2014.04.25(平成26.04.25),,20140425,,国土の歴史的景観に寄与しているもの,,岐阜県,岐阜県飛騨市神岡町船津字西町1196,,,,,36.33234000000000,137.29860000000000,通りに西面し、正面は二階建町家の立面をもち、右手にモルタル塗で内外とも洋風意匠の応接間を付属する。玄関後方に居室を連ねて最奥部に二階建の内蔵を建て、また応接間背後には丁寧な造作の客座敷を前庭に面して接続する。上質な和洋意匠の店舗兼用住宅。,https://bunka.nii.ac.jp/heritage/43967/_196102/43967_196102140718092059635_300.jpg
101,00009956,浅井銃砲火薬店土蔵,あさいじゅうほうかやくてんどぞう,1棟,,登録有形文化財(建造物),産業3次,建築物,,昭和前,昭和初期,1926～1945,土蔵造2階地下1階建、金属板葺、建築面積44㎡,,21 － 0221,77,2014.04.25(平成26.04.25),2014.04.25(平成26.04.25),,20140425,,国土の歴史的景観に寄与しているもの,,岐阜県,岐阜県飛騨市神岡町船津字西町1196,,,,,36.33234000000000,137.29860000000000,店舗兼主屋の北隣に並び建ち、土蔵造二階地下一階建、桁行四・八メートル梁間九・一メートル、切妻造金属板葺。周囲の土間を店舗兼主屋から張出した下屋で囲う。外壁は漆喰塗で二階北面に窓を穿つ。商家の屋敷構えを整える土蔵。,https://bunka.nii.ac.jp/heritage/43967/_196103/43967_196103140718092100847_300.jpg
101,00009957,浅井銃砲火薬店塀,あさいじゅうほうかやくてんへい,1棟,,登録有形文化財(建造物),産業3次,その他工作,,昭和前,昭和初期,1926～1945,木造、金属板葺、総延長18m,,21 － 0222,77,2014.04.25(平成26.04.25),2014.04.25(平成26.04.25),,20140425,,国土の歴史的景観に寄与しているもの,,岐阜県,岐阜県飛騨市神岡町船津字西町1196-1,,,,,36.33234000000000,137.29860000000000,敷地南西面に折曲がりにのびて前庭を囲む板塀。高さ一メートルほどのモルタル洗出しの基礎上に土台を伏せ、腕木で軒桁を支持して垂木を配り、金属板葺の屋根をかける。柱間を大和張として小壁に格子窓を並べる。落ち着いた佇まいの板塀が角地の景観を引立てる。,https://bunka.nii.ac.jp/heritage/43967/_196104/43967_196104140718092103586_300.jpg
101,00009958,玉泉堂酒造店舗兼主屋,ぎょくせんどうしゅぞうてんぽけんしゅおく,1棟,,登録有形文化財(建造物),産業2次,建築物,,明治,明治8,1875,木造2階建、瓦葺、建築面積262㎡,,21 － 0223,77,2014.04.25(平成26.04.25),2014.04.25(平成26.04.25),,20140425,,国土の歴史的景観に寄与しているもの,,岐阜県,岐阜県養老郡養老町高田字町126,,,,,35.31063000000000,136.55940000000000,街道沿いに北面して建つ。間口一九メートルを測る大型の店舗兼主屋で、東寄りに土間を通し、西側に三室を三列に並べる。正面は一階に出格子をたて、二階は黒漆喰塗で柱形を表し、格子窓を並べ、両端に袖壁を設ける。外観や軸部構成ともに重厚で良質な建物。,https://bunka.nii.ac.jp/heritage/43967/_196105/43967_196105140718092105643_300.jpg
101,00009959,玉泉堂酒造小売り場,ぎょくせんどうしゅぞうこうりば,1棟,,登録有形文化財(建造物),産業2次,建築物,,大正,大正13／昭和中期改修,1924／1946～1965改修,木造2階建、瓦葺、建築面積78㎡,,21 － 0224,77,2014.04.25(平成26.04.25),2014.04.25(平成26.04.25),,20140425,,国土の歴史的景観に寄与しているもの,,岐阜県,岐阜県養老郡養老町高田字町126他,,玉泉堂酒造株式会社,営利法人,,35.31063000000000,136.55940000000000,主屋の東側に並び建つ間口五・八メートルの二階建建物で、正面二階を黒漆喰塗として店舗兼主屋と調和させる。一階北半を小売り場とし、南半を物置とする。軸部は柱を半間毎に建て、隅には火打梁を設ける。戦前期の酒類小売りの様相を伝える建物。,https://bunka.nii.ac.jp/heritage/43967/_196106/43967_196106140718092106723_300.jpg
101,00009960,玉泉堂酒造土蔵,ぎょくせんどうしゅぞうどぞう,1棟,,登録有形文化財(建造物),産業2次,建築物,,昭和前,昭和3,1928,土蔵造2階建、瓦葺、建築面積30㎡,,21 － 0225,77,2014.04.25(平成26.04.25),2014.04.25(平成26.04.25),,20140425,,国土の歴史的景観に寄与しているもの,,岐阜県,岐阜県養老郡養老町高田字町126,,,,,35.31063000000000,136.55940000000000,主屋の東背面に位置する。内向きの家財道具のための蔵で、南北棟で北を正面とする。基礎は切石を三段積む。外壁は黒漆喰で塗り込め、正面出入口扉脇の腰壁を蜀江文様風の意匠に仕上げ、正面扉や二階の窓は掛子塗戸とするなど、高い左官技術を見せる。,https://bunka.nii.ac.jp/heritage/43967/_196107/43967_196107140718092109240_300.jpg
101,00009961,玉泉堂酒造南酒蔵,ぎょくせんどうしゅぞうみなみさかぐら,1棟,,登録有形文化財(建造物),産業2次,建築物,,大正,大正15,1926,土蔵造2階建、瓦葺、建築面積308㎡,,21 － 0226,77,2014.04.25(平成26.04.25),2014.04.25(平成26.04.25),,20140425,,国土の歴史的景観に寄与しているもの,,岐阜県,岐阜県養老郡養老町高田字町126他,,玉泉堂酒造株式会社,営利法人,,35.31063000000000,136.55940000000000,敷地南側に南北棟で建ち、北妻面は北酒蔵と接続する。桁行一二間梁間六間、土蔵造二階建である。貯蔵蔵で、もとは北酒蔵で作られた醪を、酒粕と清酒に分け、精製して熟成させ、瓶詰めする作業が行われていた。二重梁の和小屋を架けて広い梁間を確保する大型土蔵。,https://bunka.nii.ac.jp/heritage/43967/_196108/43967_196108140718092111333_300.jpg
101,00009962,玉泉堂酒造北酒蔵,ぎょくせんどうしゅぞうきたさかぐら,1棟,,登録有形文化財(建造物),産業2次,建築物,,大正,大正15,1926,土蔵造2階建、瓦葺、建築面積246㎡,,21 － 0227,77,2014.04.25(平成26.04.25),2014.04.25(平成26.04.25),,20140425,,国土の歴史的景観に寄与しているもの,,岐阜県,岐阜県養老郡養老町高田字町126他,,玉泉堂酒造株式会社,営利法人,,35.31063000000000,136.55940000000000,南蔵と接続して、東西棟で建つ。桁行一〇間梁間六間、土蔵造二階建である。もとは仕込蔵として酒の仕込みを行っていた。二階にはもと麹室があり、別棟で蒸した米を二階で広げて温度調整を行っていた。樽を多数並べるため、大空間を実現した大型の蔵である。,https://bunka.nii.ac.jp/heritage/43967/_196109/43967_196109140718092114826_300.jpg
101,00009963,玉泉堂酒造検査室及び税務事務室,ぎょくせんどうしゅぞうけんさしつおよびぜいむじむしつ,1棟,,登録有形文化財(建造物),産業2次,建築物,,大正,大正15,1926,木造2階建、瓦葺、建築面積43㎡,,21 － 0228,77,2014.04.25(平成26.04.25),2014.04.25(平成26.04.25),,20140425,,国土の歴史的景観に寄与しているもの,,岐阜県,岐阜県養老郡養老町高田字町126他,,玉泉堂酒造株式会社,営利法人,,35.31063000000000,136.55940000000000,北酒蔵の北正面東端に接続して建ち、南側を検査室、北側を税務事務室とする。検査室内部は真壁造、棹縁天井の和風とするのに対し、税務事務室は天井まで漆喰塗仕上げとして天井蛇腹を廻らし、腰を擬石塗とする洋風意匠である。当時の酒税事務を伝える遺構。,https://bunka.nii.ac.jp/heritage/43967/_196110/43967_196110140718092117507_300.jpg
101,00009964,玉泉堂酒造洗米所,ぎょくせんどうしゅぞうせんまいじょ,1棟,,登録有形文化財(建造物),産業2次,建築物,,大正,大正15,1926,木造平屋建、瓦葺、建築面積22㎡,,21 － 0229,77,2014.04.25(平成26.04.25),2014.04.25(平成26.04.25),,20140425,,国土の歴史的景観に寄与しているもの,,岐阜県,岐阜県養老郡養老町高田字町126他,,玉泉堂酒造株式会社,営利法人,,35.31063000000000,136.55940000000000,主屋背面、北酒蔵の北西側下屋の先に位置する。切妻造の比較的小規模な建物で、もとは洗米と蒸米を行った。南面と東面には壁を設けず開放的にし、キングポストトラス組の陸梁の上にベルトを掛けたプーリーが残る。酒類の製造工程を伝える建物。,https://bunka.nii.ac.jp/heritage/43967/_196111/43967_196111140718092118599_300.jpg
101,00010149,上の上田屋上田家住宅主屋,かみのうえだやうえだけじゅうたくしゅおく,1棟,,登録有形文化財(建造物),住宅,建築物,,明治,明治前期／昭和初期・平成16改修,1868～1882／1926～1945・2004改修,木造2階建一部地階付、瓦葺、建築面積200㎡,,21 － 0230,78,2014.10.07(平成26.10.07),2014.10.07(平成26.10.07),,20141007,,国土の歴史的景観に寄与しているもの,,岐阜県,岐阜県中津川市落合字落合町831,,,,,35.51285000000000,137.52370000000000,中山道落合宿で街道に南面する。二階正面を出梁で前方に持出し、出格子をたてる。内部は東側を土間とし、土間の奥寄りは奥部屋の床下を経て背面の庭へと抜ける。床上部は、前寄りを表間とし、奥に居室や座敷を二列並べる。中山道宿役人の格式を伝える町家。,https://bunka.nii.ac.jp/heritage/43967/_197982/43967_197982150317212621074_300.jpg
101,00010150,上の上田屋上田家住宅離れ,かみのうえだやうえだけじゅうたくはなれ,1棟,,登録有形文化財(建造物),住宅,建築物,,明治,明治前期／大正期・昭和後期改修,1868～1882／1912～1926・1966～1989改修,木造平屋建地階付、瓦葺、建築面積41㎡,,21 － 0231,78,2014.10.07(平成26.10.07),2014.10.07(平成26.10.07),,20141007,,国土の歴史的景観に寄与しているもの,,岐阜県,岐阜県中津川市落合字落合町831,,,,,35.51285000000000,137.52370000000000,主屋の北東に接続し、庭に面して建つ木造平屋建。北側の新座敷は、敷地の傾斜を活かし床高を上げて庭を望み、トコとトコ脇を設ける。同室の北東面は開放的な造作とし、高欄付の縁を廻らせる。地階北側は大壁造の味噌蔵とする。瀟洒な佇まいの離れ座敷。,https://bunka.nii.ac.jp/heritage/43967/_197983/43967_197983150317212621854_300.jpg
101,00010151,上の上田屋上田家住宅土蔵,かみのうえだやうえだけじゅうたくどぞう,1棟,,登録有形文化財(建造物),住宅,建築物,,明治,明治37,1904,土蔵造2階建、瓦葺、建築面積25㎡,,21 － 0232,78,2014.10.07(平成26.10.07),2014.10.07(平成26.10.07),,20141007,,国土の歴史的景観に寄与しているもの,,岐阜県,岐阜県中津川市落合字落合町831,,,,,35.51285000000000,137.52370000000000,街道に面して主屋の東に南北棟で建つ。土蔵造二階建、切妻造桟瓦葺で、鉢巻を廻らし、入口を北面に開く。街道に面する南面は下半を海鼠壁、上半を黒漆喰塗とし、二階窓には土戸を開き、持送付きの瓦葺の庇を設ける。主屋とともに宿場町の景観を伝える。,https://bunka.nii.ac.jp/heritage/43967/_197984/43967_197984150317212622644_300.jpg
101,00010152,千歳楼本館,せんざいろうほんかん,1棟,,登録有形文化財(建造物),産業3次,建築物,,明治,明治13／昭和36頃改修,1880／1961頃改修,木造2階建、瓦葺及び鉄板葺、建築面積409㎡,,21 － 0233,78,2014.10.07(平成26.10.07),2014.10.07(平成26.10.07),,20141007,,国土の歴史的景観に寄与しているもの,,岐阜県,岐阜県養老郡養老町養老字松原1079他,,株式会社養老,営利法人,,35.28428000000000,136.54090000000000,養老公園北端の山際に位置する旅館建築。木造二階建で正面に車寄を張出す。二室の一五畳を中心とする一階は南東面に縁を廻らし、二階に二八畳の大広間を配する。浴室には養老の滝に見立てた模様の大理石を飾る。濃尾平野を望む景勝地に建つ、瀟洒な木造旅館。,https://bunka.nii.ac.jp/heritage/43967/_197985/43967_197985070048624212532_300.jpg
101,00010153,千歳楼流芳閣,せんざいろうりゅうほうかく,1棟,,登録有形文化財(建造物),産業3次,建築物,,大正,大正期,1912～1926,木造平屋一部3階建、瓦葺及び鉄板葺、建築面積216㎡,,21 － 0234,78,2014.10.07(平成26.10.07),2014.10.07(平成26.10.07),,20141007,,国土の歴史的景観に寄与しているもの,,岐阜県,岐阜県養老郡養老町養老字松原1079他,,株式会社養老,営利法人,,35.28446000000000,136.54110000000000,本館北方に雁行して接続し、東面を懸造とする。客室のほか洗面所、三階建の月見台からなり、外壁は真壁とし、赤色の漆喰で仕上げる。客室は桜の間、竹の間、楓の間などと称し、それぞれの室名と室内意匠等との調和を図っている。風雅な趣の数寄屋座敷である。,https://bunka.nii.ac.jp/heritage/43967/_197986/43967_197986493497350871034_300.jpg
101,00010154,千歳楼栖鳳閣,せんざいろうせいほうかく,1棟,,登録有形文化財(建造物),産業3次,建築物,,昭和前,昭和初期,1926～1945,木造平屋建、瓦葺、建築面積196㎡,,21 － 0235,78,2014.10.07(平成26.10.07),2014.10.07(平成26.10.07),,20141007,,造形の規範となっているもの,,岐阜県,岐阜県養老郡養老町養老字松原1079他,,株式会社養老,営利法人,,35.28465000000000,136.54120000000000,流芳閣から廊下を介して北方に接続して建ち、東側を懸造として座敷からの眺望を得る。十畳の袖の間と、二室の八畳を中心として縁を廻らす。袖の間は竹内栖鳳筆と伝える絹本を天井に貼る。ガラス障子などを多用し、外光を積極的に取入れた室内空間を実現する。,https://bunka.nii.ac.jp/heritage/43967/_197987/43967_197987327667402480583_300.jpg
101,00010302,日下部味噌醤油醸造煉瓦館,くさかべみそしょうゆじょうぞうれんがかん,1棟,,登録有形文化財(建造物),産業2次,建築物,,大正,大正11年／昭和50年頃・平成2年改修,1922年／1975年頃・1990改修,煉瓦造2階建、瓦葺、建築面積86㎡,,21-0236,79,2014.12.19(平成26.12.19),2014.12.19(平成26.12.19),,20141219,,国土の歴史的景観に寄与しているもの,,岐阜県,岐阜県高山市上一之町93-1,,,,,36.14109400000000,137.26109700000000,醤油醸造所の醤油蔵として建てられた。煉瓦造二階建、妻入りで、軒蛇腹を廻らしてデンティルを飾り、西正面にコーニスを設け、水平アーチ窓を三所穿ち鉄扉を開く。町家主体の街並み景観に変化を与える存在で、市内で数少ない煉瓦造建築としても価値がある。,https://bunka.nii.ac.jp/heritage/43967/_199075/43967_199075889420112961428_300.jpg
101,00010303,吉田家住宅主屋,よしだけじゅうたくしゅおく,1棟,,登録有形文化財(建造物),産業3次,建築物,,江戸,江戸末期／明治中期改修,1830～1868年／1883～1897年改修,木造2階建、瓦葺、建築面積188㎡,,21-0237,79,2014.12.19(平成26.12.19),2014.12.19(平成26.12.19),,20141219,,国土の歴史的景観に寄与しているもの,,岐阜県,岐阜県美濃加茂市太田本町2丁目字上町3799,,,,,35.43812000000000,137.01590000000000,中山道太田宿のもと旅籠で旧道に北面して建つ。間口六間で前面に下屋を設けて出格子をたて、正側面の上部は軒まで漆喰で塗込め、正面では長押や軒の腕木を表し、両端に袖壁を設ける。内部は西寄りに居室を並べる。太田宿に残る近世の旅籠として貴重な遺構。,https://bunka.nii.ac.jp/heritage/43967/_199076/43967_199076150807110500278_300.jpg
101,00010596,美濃窯業株式会社瑞浪工場丸型煙突,みのようぎょうかぶしきがいしゃみずなみこうじょうまるがたえんとつ,1基,,登録有形文化財(建造物),産業2次,その他工作物,,昭和前,昭和10年／昭和62年・平成16年改修,1935／1987・2004改修,煉瓦造、高さ24m,,21－0238,81,2015.08.04(平成27.08.04),2015.08.04(平成27.08.04),,20150804,,国土の歴史的景観に寄与しているもの,,岐阜県,岐阜県瑞浪市寺河戸町字上門田924-1,,美濃窯業株式会社,営利法人,,35.36537000000000,137.24990000000000,工場建物の南東寄りに位置する。小口積の煉瓦造で、基部平面は直径三メートルの円形とし、高さは二四メートルを測る。現在は鉄製アングル材で補強される。窯業が盛んな当地の歴史を物語る遺構として価値があり、同工場の角形煙突とともにランドマークとなる。,https://bunka.nii.ac.jp/heritage/43967/_201170/43967_201170151228153431893_300.jpg
