台帳ID,管理対象ID,名称,ふりがな,員数,棟名,文化財種類,種別1,種別2,国,時代,年代,西暦,構造及び形式等,その他参考となるべき事項,登録番号,登録回,登録告示年月日,登録年月日,追加年月日,重文指定年月日,国宝指定年月日,登録基準1,登録基準2,都道府県,所在地,保管施設の名称,所有者名,所有者種別,管理団体又は責任者,緯度,経度,解説文,画像URL
101,00000172,徳島市水道局佐古配水場ポンプ場,とくしましすいどうきょくさこはいすいじょうぽんぷじょう,1棟,,登録有形文化財(建造物),生活関連,建築物,,大正,大正15,1926,鉄筋コンクリート造平屋建，瓦葺，建築面積272㎡,,36 － 0001,2,1997.05.29(平成9.05.29),1997.05.07(平成9.05.07),,19970507,,国土の歴史的景観に寄与しているもの,,徳島県,徳島県徳島市南佐古6-3-11,,徳島市水道局,,,34.07408000000000,134.52800000000000,煉瓦造のポンプ場で，イギリス積みの煉瓦壁で四周を囲む。内部は一室で漆喰仕上げとし，小屋組は軽量鉄骨のトラス組である。外観は簡素であるが，入り口部分のうち特にペディメント風の飾りは特異である。「佐古の浄水場」として広く市民に親しまれている。,https://bunka.nii.ac.jp/heritage/43967/_101162/43967_101162111225010437630_300.jpg
101,00000271,高原ビル,たかはらびる,1棟,,登録有形文化財(建造物),産業3次,建築物,,昭和前,昭和7,1932,鉄筋コンクリート造3階建，建築面積87㎡,,36 － 0007,4,1997.07.30(平成9.07.30),1997.07.15(平成9.07.15),,19970715,,造形の規範となっているもの,,徳島県,徳島県徳島市東船場町1-13,,株式会社国際,,,34.07031000000000,134.54880000000000,通りに面して建つＲＣ造のビル。一部を塔屋風に３階建てとし，他は２階建てとする。スクラッチタイルの外壁，パラペットの装飾，塔屋風の部分の窓廻りの装飾等に特徴がある。昭和初期の都市部における洋風の意匠を持つ小規模なビルの好例である。,https://bunka.nii.ac.jp/heritage/43967/_101261/43967_101261111225010540513_300.jpg
101,00000905,徳島市水道局佐古配水場源水井,とくしましすいどうきょくさこはいすいじょうげんすいせい,1棟,,登録有形文化財(建造物),生活関連,建築物,,大正,大正15,1926,鉄筋コンクリート造上屋，内部源水井附属，建築面積21㎡,,36 － 0008,14,1998.10.26(平成10.10.26),1998.10.09(平成10.10.09),,19981009,,国土の歴史的景観に寄与しているもの,,徳島県,徳島県徳島市南佐古6-3-11,,徳島市水道局,,,34.07449000000000,134.52750000000000,鉄筋コンクリート造の箱形の井に上屋をかけた形式。上屋は方形平面で，外壁に煉瓦を用いて，パラペットや窓廻り等の要所に花崗岩を配す，ポンプ場と同様の意匠になる。市民生活の近代化の様子を物語る貴重な建物のひとつである。,https://bunka.nii.ac.jp/heritage/43967/_101895/43967_101895111225011301017_300.jpg
101,00000906,徳島市水道局佐古配水場集合井,とくしましすいどうきょくさこはいすいじょうしゅうごうせい,1棟,,登録有形文化財(建造物),生活関連,建築物,,大正,大正15,1926,鉄筋コンクリート造上屋，内部集合井附属，高さ5.1m,,36 － 0009,14,1998.10.26(平成10.10.26),1998.10.09(平成10.10.09),,19981009,,国土の歴史的景観に寄与しているもの,,徳島県,徳島県徳島市南佐古6-3-11,,徳島市水道局,,,34.07411000000000,134.52790000000000,鉄筋コンクリート造の井の側壁上縁に上屋をかけた形になる。上屋は，ポンプ場，源水井上屋と構造・意匠は類似するが，平面を円形とする点や入口上部の浮き彫り装飾，壁面の柱型，窓上部の枠石等の意匠に特徴がある。,https://bunka.nii.ac.jp/heritage/43967/_101896/43967_101896111225011302549_300.jpg
101,00000907,青木家住宅主屋,あおきけじゅうたくしゅおく,1棟,,登録有形文化財(建造物),住宅,建築物,,大正,大正4,1915,木造2階建，瓦葺，建築面積149㎡,,36 － 0010,14,1998.10.26(平成10.10.26),1998.10.09(平成10.10.09),,19981009,,造形の規範となっているもの,,徳島県,徳島県美馬市美馬町字宮前225,,美馬市,,,34.04633000000000,134.00480000000000,もと藍の生産を行った農家で，近代に入り建設業を営み栄えた。主屋は広大な屋敷地のほぼ中央に建つ。入母屋造の大屋根の四方に庇を付けた堂々とした外観や，鼠漆喰仕上げの壁，２階窓の意匠等に特徴がある。近代の農村部における住宅建築の変容を示す好例。,https://bunka.nii.ac.jp/heritage/43967/_101897/43967_101897111225011303700_300.jpg
101,00000908,青木家住宅土蔵（１）,あおきけじゅうたくどぞう（いち）,1棟,,登録有形文化財(建造物),住宅,建築物,,大正,大正4,1915,土蔵造２階建，瓦葺，建築面積30㎡,,36 － 0011,14,1998.10.26(平成10.10.26),1998.10.09(平成10.10.09),,19981009,,国土の歴史的景観に寄与しているもの,,徳島県,徳島県美馬市美馬町字宮前225,,美馬市,,,34.04644000000000,134.00450000000000,藍の生産に使用した蔵で，主屋の北西，道路に面して土蔵(２)に接続して建つ。比較的にせいの低い２階建の蔵で，北面と東面を漆喰で塗り込め，南面は真壁とする。北面は腰から下をなまこ壁とし，道路側の意匠を整え，屋敷構えの主要な構成要素となっている。,https://bunka.nii.ac.jp/heritage/43967/_101898/43967_101898111225011304208_300.jpg
101,00000909,青木家住宅土蔵（２）,あおきけじゅうたくどぞう（に）,1棟,,登録有形文化財(建造物),住宅,建築物,,大正,大正4,1915,土蔵造２階建，瓦葺，建築面積50㎡,,36 － 0012,14,1998.10.26(平成10.10.26),1998.10.09(平成10.10.09),,19981009,,国土の歴史的景観に寄与しているもの,,徳島県,徳島県美馬市美馬町字宮前225,,美馬市,,,34.04640000000000,134.00430000000000,藍の生産に使用した蔵で，屋敷地の北西隅に建つ。Ｌ字形の平面を持ち，外観上は南北棟の蔵の北端東側に東西棟の蔵が取り付いた形になる。北側と西側では腰になまこ壁を貼り，道路側の意匠を土蔵(１)とあわせている。,https://bunka.nii.ac.jp/heritage/43967/_101899/43967_101899111225011304725_300.jpg
101,00000910,青木家住宅倉庫,あおきけじゅうたくそうこ,1棟,,登録有形文化財(建造物),住宅,建築物,,大正,大正4,1915,木造２階建，瓦葺，建築面積104㎡,,36 － 0013,14,1998.10.26(平成10.10.26),1998.10.09(平成10.10.09),,19981009,,国土の歴史的景観に寄与しているもの,,徳島県,徳島県美馬市美馬町字宮前225,,美馬市,,,34.04627000000000,134.00430000000000,主屋の西方，土蔵(２)の南に接続して建つ使用人の住まいを兼ねた倉庫。高さを低く押さえた長大な建物で，屋敷地の西側を区切る役割を果たしている。西面と南面は下見板貼り，東面は真壁で，土蔵と意匠をかえ，屋敷構えの景観に変化をもたせている。,https://bunka.nii.ac.jp/heritage/43967/_101900/43967_101900111225011306196_300.jpg
101,00000911,青木家住宅納屋,あおきけじゅうたくなや,1棟,,登録有形文化財(建造物),住宅,建築物,,大正,大正4,1915,木造平屋建，瓦葺，建築面積40㎡,,36 － 0014,14,1998.10.26(平成10.10.26),1998.10.09(平成10.10.09),,19981009,,国土の歴史的景観に寄与しているもの,,徳島県,徳島県美馬市美馬町字宮前225,,美馬市,,,34.04627000000000,134.00450000000000,主屋と倉庫の間に建つ切妻造，桟瓦葺，平屋建の建物。左右を土間の納屋，中央を便所とする。小規模で横長の簡素な建物だが，壁を鼠漆喰で仕上げ腰に板を貼ることによって主屋と意匠をあわせるなど，屋敷構えの景観によく溶け込んでいる。,https://bunka.nii.ac.jp/heritage/43967/_101901/43967_101901111225011306717_300.jpg
101,00000912,青木家住宅門,あおきけじゅうたくもん,1棟,,登録有形文化財(建造物),住宅,その他工作,,大正,大正4,1915,木造四脚門，瓦葺,,36 － 0015,14,1998.10.26(平成10.10.26),1998.10.09(平成10.10.09),,19981009,,国土の歴史的景観に寄与しているもの,,徳島県,徳島県美馬市美馬町字宮前225,,美馬市,,,34.04651000000000,134.00480000000000,主屋の北方，道路に面して建つ四脚門。左右に塀が取り付く。本来は庭を通って主屋の座敷へと通じる裏側の門にあたるが，塀よりわずかに庭側に下がった所に位置し，道路側の屋根だけを本瓦で葺く（庭側は桟瓦）など意匠に工夫をこらして屋敷構えを整えている。,https://bunka.nii.ac.jp/heritage/43967/_101902/43967_101902111225011306981_300.jpg
101,00000913,青木家住宅土塀,あおきけじゅうたくどべい,1棟,,登録有形文化財(建造物),住宅,その他工作,,大正,大正4,1915,土塀，延長44m,,36 － 0016,14,1998.10.26(平成10.10.26),1998.10.09(平成10.10.09),,19981009,,国土の歴史的景観に寄与しているもの,,徳島県,徳島県美馬市美馬町字宮前225,,美馬市,,,34.04653000000000,134.00490000000000,屋敷地の北側（道路側）と東側の境を仕切る塀。下方を石積み，上方は屋敷側に控え壁を約１間おきに付けた形式で，道路側は漆喰仕上げ，東側はモルタル仕上げとする。道路側の頂部は斜めに並べた煉瓦の上に笠木を置き意匠に特段の工夫がほどこされている。,https://bunka.nii.ac.jp/heritage/43967/_132570/43967_132570111225011307506_300.jpg
101,00000914,青木家住宅煉瓦塀,あおきけじゅうたくれんがべい,1基,,登録有形文化財(建造物),住宅,その他工作,,大正,大正4,1915,煉瓦造，延長42m,,36 － 0017,14,1998.10.26(平成10.10.26),1998.10.09(平成10.10.09),,19981009,,国土の歴史的景観に寄与しているもの,,徳島県,徳島県美馬市美馬町字宮前225,,美馬市,,,34.04640000000000,134.00500000000000,屋敷地南側境を仕切る塀。東方は屋敷への進入斜路にそって登る形で，西方は周辺より一段高い場所に位置する。約１間おきに控え壁がある点は土塀と似るが，形式はより簡略で控え壁を外側にみせる点は対照的。一部改造はあるが屋敷構えの主要な構成要素である。,https://bunka.nii.ac.jp/heritage/43967/_132571/43967_132571111225011307791_300.jpg
101,00001296,勢玉酒蔵Ａ,せいぎょくしゅぞうえー,1棟,,登録有形文化財(建造物),産業2次,建築物,,明治,明治35頃,1902頃,木造２階建，瓦葺，建築面積188㎡,,36 － 0018,19,1999.09.07(平成11.09.07),1999.08.23(平成11.08.23),,19990823,,国土の歴史的景観に寄与しているもの,,徳島県,徳島県徳島市福島1-4-9,,株式会社勢玉,,,34.07186000000000,134.56320000000000,株式会社勢玉は，地元出身の勢井種蔵が明治３５年に創業を始めた造り酒屋で，市内西方の市街地に位置する。酒蔵Ａは，東西に道路が走る敷地の東南隅にある。道路に面して妻をみせた形の比較的に規模の大きな土蔵で，ひときわ目立つ木造建築となっている。,https://bunka.nii.ac.jp/heritage/43967/_102286/43967_102286111225011654241_300.jpg
101,00001297,勢玉酒蔵Ｂ,せいぎょくしゅぞうびー,1棟,,登録有形文化財(建造物),産業2次,建築物,,明治,明治35頃,1902頃,木造平屋建，瓦葺，建築面積85㎡,,36 － 0019,19,1999.09.07(平成11.09.07),1999.08.23(平成11.08.23),,19990823,,国土の歴史的景観に寄与しているもの,,徳島県,徳島県徳島市福島1-4-9,,株式会社勢玉,,,34.07197000000000,134.56330000000000,酒蔵Ａとともに創業時につくられたと伝える蔵で，酒蔵Ａの北に建つ。東側を走る道路に平側をみせて建ち，道路側は腰を押縁の板張りとするなど酒蔵Ａと意匠をあわせ，屋敷地側には作業空間として広い庇を設けている。,https://bunka.nii.ac.jp/heritage/43967/_102287/43967_102287111225011654764_300.jpg
101,00001298,勢玉事務所棟,せいぎょくじむしょとう,1棟,,登録有形文化財(建造物),産業2次,建築物,,昭和前,昭和初期,1926-1988,木造２階建，瓦葺，建築面積45㎡,,36 － 0020,19,1999.09.07(平成11.09.07),1999.08.23(平成11.08.23),,19990823,,国土の歴史的景観に寄与しているもの,,徳島県,徳島県徳島市福島1-4-9,,株式会社勢玉,,,34.07190000000000,134.56290000000000,西側を走る道路に面して建つ２階建，平入の町家。酒蔵Ａの西に位置する。比較的に簡素な意匠になるが，第２次世界大戦による火災で数多くの木造建築が失われた福島地区の中で，現存する数少ない町家のひとつとして貴重。,https://bunka.nii.ac.jp/heritage/43967/_102288/43967_102288111225011655285_300.jpg
101,00001299,勢玉煙突,せいぎょくえんとつ,1基,,登録有形文化財(建造物),産業2次,その他工作,,明治,明治35頃,1902頃,煉瓦造，高さ10m,,36 － 0021,19,1999.09.07(平成11.09.07),1999.08.23(平成11.08.23),,19990823,,国土の歴史的景観に寄与しているもの,,徳島県,徳島県徳島市福島1-4-9,,株式会社勢玉,,,34.07195000000000,134.56300000000000,勢玉創業時に建設された施設のひとつ。事務所の東北に位置する煉瓦造，方形断面の煙突。現在上部をモルタルで補修されており，比較的にせいが低いため町の中では目立たない存在となっているが，酒造業を営んだ家のシンボル的な施設として貴重である。,https://bunka.nii.ac.jp/heritage/43967/_102289/43967_102289111225011655553_300.jpg
101,00001300,高橋家住宅主屋,たかはしけじゅうたくしゅおく,1棟,,登録有形文化財(建造物),住宅,建築物,,江戸,寛政11,1799,木造平屋建，瓦葺，建築面積138㎡,,36 － 0022,19,1999.09.07(平成11.09.07),1999.08.23(平成11.08.23),,19990823,,造形の規範となっているもの,,徳島県,徳島県徳島市南矢三町2-5-22,,,,,34.08270000000000,134.52520000000000,高橋家はもと徳島藩士で，明治維新後に現在の住宅の土地・家屋を購入し藍の製造を行ったと伝える。主屋は棟札により寛政１１年の建立が明らかで，茅葺の主体部四方に瓦葺の庇を設ける「四方蓋」と呼ばれるこの地方特有の形式をもつ。,https://bunka.nii.ac.jp/heritage/43967/_102290/43967_102290111225011655817_300.jpg
101,00001301,高橋家住宅藍寝床（東納屋）,たかはしけじゅうたくあいねどこ（ひがしなや）,1棟,,登録有形文化財(建造物),産業2次,建築物,,明治,明治初期,1868-1911,木造２階建，瓦葺，建築面積121㎡,,36 － 0023,19,1999.09.07(平成11.09.07),1999.08.23(平成11.08.23),,19990823,,国土の歴史的景観に寄与しているもの,,徳島県,徳島県徳島市南矢三町2-5-22,,,,,34.08258000000000,134.52540000000000,主屋の南東，屋敷地の南東隅に建つ藍製造のために用いた建物。２階建，瓦葺の主体部の南と西に広い作業用の庇を設けた形。外壁に下見板を貼った建物で，一部の外壁に近年の改造がみられるが，藍製造農家の屋敷構えを示す主要建物のひとつである。,https://bunka.nii.ac.jp/heritage/43967/_102291/43967_102291862726516414908_300.jpg
101,00001302,高橋家住宅西納屋,たかはしけじゅうたくにしなや,1棟,,登録有形文化財(建造物),産業2次,建築物,,明治,明治初期,1868-1911,土蔵造平屋建，瓦葺，建築面積58㎡,,36 － 0024,19,1999.09.07(平成11.09.07),1999.08.23(平成11.08.23),,19990823,,国土の歴史的景観に寄与しているもの,,徳島県,徳島県徳島市南矢三町2-5-22,,,,,34.08263000000000,134.52510000000000,主屋の南西，屋敷地の西側境に建つ。２階建，瓦葺の長大な土蔵造の建物で，藍製造に用いられた。石積みの基礎を高くつくり，小規模な窓をわずかに開くだけの外観に，藍製造施設としての特徴がよくあらわれている。,https://bunka.nii.ac.jp/heritage/43967/_102292/43967_102292747841927112101_300.jpg
101,00001303,高橋家住宅蔵,たかはしけじゅうたくくら,1棟,,登録有形文化財(建造物),産業2次,建築物,,明治,明治初期,1868-1911,土蔵造平屋建，瓦葺，建築面積60㎡,,36 － 0025,19,1999.09.07(平成11.09.07),1999.08.23(平成11.08.23),,19990823,,国土の歴史的景観に寄与しているもの,,徳島県,徳島県徳島市南矢三町2-5-22,,,,,34.08285000000000,134.52520000000000,主屋の北方，屋敷地の北西隅境に建つ２階建，瓦葺，平入の長大な土蔵。藍の製造用に使われた土蔵で，石積みの高い基礎，小さく数の少ない窓，外側の腰下にある板張りなど外観の構成・意匠は西納屋と非常によく似ている。,https://bunka.nii.ac.jp/heritage/43967/_102293/43967_102293111225011658093_300.jpg
101,00001304,高橋家住宅表門,たかはしけじゅうたくおもてもん,1棟,,登録有形文化財(建造物),住宅,その他工作,,明治,明治20代,1887-1896,木造一間薬医門，瓦葺,,36 － 0026,19,1999.09.07(平成11.09.07),1999.08.23(平成11.08.23),,19990823,,国土の歴史的景観に寄与しているもの,,徳島県,徳島県徳島市南矢三町2-5-22,,,,,34.08253000000000,134.52520000000000,屋敷地の正面中央にある瓦葺の薬医門。屋敷地正面の境界よりもわずかに引き込んで建てるなど，小規模ながら丁寧なつくりになる武家風の意匠をもった門で，もと藩士であったという高橋家の出自をしのばせている。,https://bunka.nii.ac.jp/heritage/43967/_102294/43967_102294111225011658615_300.jpg
101,00001305,高橋家住宅練塀,たかはしけじゅうたくねりべい,1棟,,登録有形文化財(建造物),住宅,その他工作,,明治,明治20代,1887-1896,練塀，瓦葺，延長39.1m,,36 － 0027,19,1999.09.07(平成11.09.07),1999.08.23(平成11.08.23),,19990823,,再現することが容易でないもの,,徳島県,徳島県徳島市南矢三町2-5-22,,,,,34.08253000000000,134.52510000000000,表門の左右に連なる塀で，西側は折れ曲がって西納屋南面へと繋がり，東側は東納屋の西面に接続している。地元産の緑泥片岩等の小規模な石を多数積み上げて上部を漆喰塗りとした特徴ある構法が用いられており，美しい外観意匠がつくりだされている。,https://bunka.nii.ac.jp/heritage/43967/_102295/43967_102295111225011659130_300.jpg
101,00001306,旧樫野家住宅,きゅうかしのけじゅうたく,1棟,,登録有形文化財(建造物),住宅,建築物,,大正,大正14,1925,木造２階建，瓦葺，建築面積381㎡,,36 － 0028,19,1999.09.07(平成11.09.07),1999.08.23(平成11.08.23),,19990823,,再現することが容易でないもの,,徳島県,徳島県板野郡松茂町広島字北川向四ノ越29-1,,株式会社ときわ,,,34.14184000000000,134.58120000000000,徳島空港に近い阿波之里に移築保存され迎賓館として利用されている。樫野家は石灰販売で栄えた家で，住宅は入母屋造，２階建の大規模な建物。良質な材料をふんだんに用いた建物で，１階に広間を持つことや２階のせいが高い外観等に特徴がある。,https://bunka.nii.ac.jp/heritage/43967/_102296/43967_102296111225011700412_300.jpg
101,00001307,旧大磯家住宅,きゅうおおいそけじゅうたく,1棟,,登録有形文化財(建造物),住宅,建築物,,江戸,天保年間,1830-1843,木造平屋建，瓦葺，建築面積186㎡,,36 － 0029,19,1999.09.07(平成11.09.07),1999.08.23(平成11.08.23),,19990823,,再現することが容易でないもの,,徳島県,徳島県板野郡松茂町広島字北川向四ノ越29-1,,株式会社ときわ,,,34.14176000000000,134.58170000000000,阿波之里に移築保存され工芸館として利用されている。大磯家は藍製造とその商取引で栄えた家として知られる。住宅は切妻造，瓦葺で漆喰で塗り込めた主体部の四方に瓦葺の庇を廻した形になる。太い柱梁を用いた架構に特徴がある。,https://bunka.nii.ac.jp/heritage/43967/_102297/43967_102297111225011700673_300.jpg
101,00001647,原田家住宅主屋,はらだけじゅうたくしゅおく,1棟,,登録有形文化財(建造物),住宅,建築物,,江戸,江戸後期／明治15移築,1751-1829／1882移築,木造2階建、瓦葺、建築面積204㎡,,36 － 0030,23,2000.05.17(平成12.05.17),2000.04.28(平成12.04.28),,20000428,,造形の規範となっているもの,,徳島県,徳島県徳島市かちどき橋3-43,,,,,34.06070058000000,134.55441683000000,明治初期に名東県の大属を努めた原田一平が元徳島藩主蜂須賀茂韶から譲り受けたと伝え，約１０年を費やして明治１５年に現在地に移築した。前後３列に居室を並べて，一部二階建とし，屋根は切妻造の本屋の四周に庇を廻す。大規模武家住宅の姿を良く伝える。,https://bunka.nii.ac.jp/heritage/43967/_102637/43967_102637991541270430388_300.jpg
101,00002023,三井翠松園（旧三井高達別荘）別館,みついすいしょうえん（きゅうみついたかみちべっそう）べっかん,1棟,,登録有形文化財(建造物),住宅,建築物,,昭和前,昭和5／昭和30頃・平成18移築,1930／1955頃・2006移築,木造平屋建、瓦葺、建築面積196㎡,,14 － 0048,27,2000.12.20(平成12.12.20),2000.12.04(平成12.12.04),,20001204,,造形の規範となっているもの,,徳島県,徳島県鳴門市瀬戸町室字在所谷12-1,,株式会社小山裕久事務所,,,35.24007000000000,139.04830000000000,本館の西方に建つ。東京代々木に所在した深川の材木商の邸宅を移築したものと伝える。主室部は木造平屋建，寄棟造で，１２畳半２室を主室とし，その周囲三方に１間幅の畳廊下を巡らす。材木商の邸宅らしく吟味された素材と欄間等の凝った意匠に特色がある。平成１８年３月に、神奈川県箱根町から徳島県鳴門市に移築された。,https://bunka.nii.ac.jp/heritage/43967/_103013/43967_103013111225012448783_300.jpg
101,00002683,大谷川堰堤,おおたにがわえんてい,1基,,登録有形文化財(建造物),治山治水,土木構造物,,明治,明治22頃／昭和初期増築,1889頃／1926-1988増築,石造堰堤、堤長60m、堤高3.3m,,36 － 0031,32,2002.03.12(平成14.03.12),2002.02.14(平成14.02.14),,20020214,,国土の歴史的景観に寄与しているもの,,徳島県,徳島県美馬市脇町大字北庄字柴床91-3地先,,徳島県,,,34.07383000000000,134.15070000000000,吉野川の左岸側に合流する大谷川の下流域にある。デ・レーケの計画と伝わり，緩曲線平面を有す堤長６０ｍの大規模な石造堰堤。内務省による吉野川改修工事の代表的遺構の一つで，土砂流出防止及び河床安定の機能を維持しつつ，公園施設として活用されている。,https://bunka.nii.ac.jp/heritage/43967/_103673/43967_103673111225013137610_300.jpg
101,00002982,大谷焼元山窯（旧納田丈五郎窯）,おおたにやきもとやまがま（きゅうのうだじょうごろうがま）,1基,,登録有形文化財(建造物),産業2次,その他工作,,明治,明治3／明治後期改造,1870／1868-1911改造,煉瓦造、奥行27m、幅6.8m,,36 － 0032,34,2002.09.03(平成14.09.03),2002.08.21(平成14.08.21),,20020821,,造形の規範となっているもの,,徳島県,徳島県鳴門市大麻町大谷字山田甲18地先,,田村商事株式会社,,,34.16395000000000,134.53760000000000,民陶開祖納田窯４代目丈五郎が建設し，明治後期田村基蔵が継承。大谷川右岸の西方山麓裾に位置する。５．６ｍ×２．８ｍ高２ｍ規模の室を８房連ね，最下段に焚き口，最上段に煙突を配し，全長約２７ｍとする登窯で，藍瓶等大型製陶の焼成窯形式を今に伝える。,https://bunka.nii.ac.jp/heritage/43967/_103972/43967_103972111225013442411_300.jpg
101,00002983,本家松浦酒造場長屋門,ほんけまつうらしゅぞうじょうながやもん,1棟,,登録有形文化財(建造物),産業2次,建築物,,江戸,江戸後期／明治後期改造,1751-1829／1868-1911改造,木造2階建、瓦葺、建築面積54㎡,,36 － 0033,34,2002.09.03(平成14.09.03),2002.08.21(平成14.08.21),,20020821,,国土の歴史的景観に寄与しているもの,,徳島県,徳島県鳴門市大麻町池谷字柳ノ本19,,株式会社本家松浦酒造場,,,34.15877000000000,134.53770000000000,撫養街道に北面して建つ。桁行４間半，梁行３間規模，東西棟，切妻造，本瓦葺の２階建で，西端を間口１間半の門とする。東妻面は上部を漆喰壁の大壁，階下を煉瓦壁とし，北東隅に雲形状の袖壁を付けるなど防火的なつくりとする点に特徴がある。,https://bunka.nii.ac.jp/heritage/43967/_103973/43967_103973111225013443960_300.jpg
101,00002984,本家松浦酒造場東酒蔵,ほんけまつうらしゅぞうじょうひがしさかぐら,1棟,,登録有形文化財(建造物),産業2次,建築物,,江戸,江戸後期,1751-1829,土蔵造2階建、瓦葺、建築面積169㎡,,36 － 0034,34,2002.09.03(平成14.09.03),2002.08.21(平成14.08.21),,20020821,,国土の歴史的景観に寄与しているもの,,徳島県,徳島県鳴門市大麻町池谷字柳ノ本19,,株式会社本家松浦酒造場,,,34.15872000000000,134.53750000000000,長屋門の西隣に位置する南北棟，切妻造，本瓦葺の２階建酒蔵で，東桁行面に下屋を差掛け南端に出入口を設ける。桁行８間，梁行６間規模で，砂岩系の土台石の上に建ち，腰は目板張，上部は漆喰大壁に鉄格子付き小窓と水切りを配した北妻面を撫養街道に見せる。,https://bunka.nii.ac.jp/heritage/43967/_103974/43967_103974111225013444464_300.jpg
101,00002985,本家松浦酒造場仲酒蔵,ほんけまつうらしゅぞうじょうなかさかぐら,1棟,,登録有形文化財(建造物),産業2次,建築物,,江戸,江戸後期,1751-1829,土蔵造2階建、瓦葺、建築面積223㎡,,36 － 0035,34,2002.09.03(平成14.09.03),2002.08.21(平成14.08.21),,20020821,,国土の歴史的景観に寄与しているもの,,徳島県,徳島県鳴門市大麻町池谷字柳ノ本19,,株式会社本家松浦酒造場,,,34.15872000000000,134.53740000000000,東酒蔵の西に並び建つ。桁行１１間，梁間５間規模，南北棟，切妻造，本瓦葺の２階建酒蔵で，南方は釜屋が取り付く。北妻面は，東酒蔵と同様，石土台，目板張の腰，漆喰大壁に小窓と水切りを配したつくりとし，撫養街道沿いに展開する酒蔵景観の主要素となる。,https://bunka.nii.ac.jp/heritage/43967/_103975/43967_103975111225013444725_300.jpg
101,00002986,本家松浦酒造場西酒蔵,ほんけまつうらしゅぞうじょうにしさかぐら,1棟,,登録有形文化財(建造物),産業2次,建築物,,明治,明治初期,1868-1911,土蔵造2階建、瓦葺、建築面積248㎡,,36 － 0036,34,2002.09.03(平成14.09.03),2002.08.21(平成14.08.21),,20020821,,国土の歴史的景観に寄与しているもの,,徳島県,徳島県鳴門市大麻町池谷字柳ノ本19,,株式会社本家松浦酒造場,,,34.15871000000000,134.53730000000000,仲酒蔵の西に並び建つ。桁行１２間，梁間４間規模，南北棟，切妻造，本瓦葺の２階建とし，東桁面には下屋を差し掛けて仲酒蔵と連絡する。撫養街道からやや奥まって建つが，東酒蔵・仲酒蔵とともに「阿波の灘」と称された鳴門の酒蔵景観をつくりだしている。,https://bunka.nii.ac.jp/heritage/43967/_103976/43967_103976111225013444995_300.jpg
101,00002987,本家松浦酒造場精米蔵,ほんけまつうらしゅぞうじょうせいまいぐら,1棟,,登録有形文化財(建造物),産業2次,建築物,,明治,明治後期,1868-1911,木造平屋建、瓦葺、建築面積151㎡,,36 － 0037,34,2002.09.03(平成14.09.03),2002.08.21(平成14.08.21),,20020821,,国土の歴史的景観に寄与しているもの,,徳島県,徳島県鳴門市大麻町池谷字大石10,,株式会社本家松浦酒造場,,,34.15900000000000,134.53750000000000,三棟構え酒蔵の北方，撫養街道を隔てた向かいの敷地に東西棟で建つ。桁行１０間，梁間２間規模，切妻造で，南面に１間半幅の下屋を差し出し，ともに本瓦葺とする。棟には越屋根を２箇所載せ，南面には漆喰鏝絵で「銘酒」「鳴門鯛精米所」を描く。,https://bunka.nii.ac.jp/heritage/43967/_103977/43967_103977111225013445262_300.jpg
101,00003131,大谷焼森窯登窯,おおたにやきもりがまのぼりがま,1基,,登録有形文化財(建造物),産業2次,その他工作,,大正,大正期,1912-1925,煉瓦造、奥行40m、幅15m,,36 － 0038,35,2003.02.26(平成15.02.26),2003.01.31(平成15.01.31),,20030131,,国土の歴史的景観に寄与しているもの,,徳島県,徳島県鳴門市大麻町大谷字井利ノ肩22,,森陶器株式会社,,,34.16090000000000,134.54150000000000,平地に傾斜地を造成して築かれた登窯。全長約２８ｍ規模で，奥行約７．４ｍ，幅約２．８ｍの房室を８房連ねる。吉野川支流の大谷川左岸沿いに位置し，道路に面する間口４０ｍ高１０ｍ規模の擁壁とともに類例のない景観をつくりだしている。,https://bunka.nii.ac.jp/heritage/43967/_104121/43967_104121111225013616804_300.jpg
101,00003132,大谷焼大西窯登窯,おおたにやきおおにしがまのぼりがま,1基,,登録有形文化財(建造物),産業2次,その他工作,,明治,明治40頃,1907頃,煉瓦造、奥行30m、幅9.0m,,36 － 0039,35,2003.02.26(平成15.02.26),2003.01.31(平成15.01.31),,20030131,,国土の歴史的景観に寄与しているもの,,徳島県,徳島県鳴門市大麻町大谷字山田16地先,,,,,34.16423000000000,134.53810000000000,大谷川右岸西方の山裾斜面に建つ。旧藩窯である元山窯登窯の北方に位置し，東端を焚口として奥行７．５ｍ，幅３ｍの房室を西方へ８房連ね全長約３０ｍ，幅９ｍ，高３ｍ規模とする。大谷焼登窯中北端の窯で，作業場等とともに窯元景観を構成する主要素になる。,https://bunka.nii.ac.jp/heritage/43967/_104122/43967_104122111225013617461_300.jpg
101,00003135,大谷焼大西窯石垣,おおたにやきおおにしがまいしがき,1所,,登録有形文化財(建造物),産業2次,その他工作,,明治,明治後期,1868-1911,石造、延長50m,,36 － 0042,35,2003.02.26(平成15.02.26),2003.01.31(平成15.01.31),,20030131,,国土の歴史的景観に寄与しているもの,,徳島県,徳島県鳴門市大麻町大谷字山田17地先,,,,,34.16413000000000,134.53810000000000,登窯と収納庫との間の斜面地を割石を用いたＬ字形の石積擁壁で２段に造成し，登窯への搬入および焼成品の搬出作業等のための平場を提供する。登窯に南方に位置し，登窯と収納庫とともに窯元の屋敷景観を構成する主要素のひとつになる。,https://bunka.nii.ac.jp/heritage/43967/_104125/43967_104125111225013619341_300.jpg
101,00003136,大谷焼元山窯水簸場,おおたにやきもとやまがますいひば,1棟,,登録有形文化財(建造物),産業2次,その他工作,,昭和前,昭和初期,1926-1988,煉瓦造及びコンクリート造、面積55㎡,,36 － 0043,35,2003.02.26(平成15.02.26),2003.01.31(平成15.01.31),,20030131,,国土の歴史的景観に寄与しているもの,,徳島県,徳島県鳴門市大麻町大谷字山田37,,田村商事株式会社,,,34.16286000000000,134.53760000000000,旧藩窯である元山窯の作業場に付属する。粘土を精製して陶土とするための施設で，原土撹拌槽・Ｓ字状の誘水路と沈澄槽・分離槽・４つの沈殿槽から成る。藍瓶など大型焼物用陶土に対応した水簸施設で，大谷焼の製作工程近代化の一端を伝え貴重である。,https://bunka.nii.ac.jp/heritage/43967/_104126/43967_104126111225013619868_300.jpg
101,00003313,旅館たおか主屋,りょかんたおかしゅおく,1棟,,登録有形文化財(建造物),住宅,建築物,,明治,明治中期,1868-1911,木造2階建、瓦葺、建築面積262㎡,,36 － 0044,36,2003.04.08(平成15.04.08),2003.03.18(平成15.03.18),,20030318,,造形の規範となっているもの,,徳島県,徳島県美馬市脇町大字脇町字北町165-1,,田岡観光有限会社,,,34.06853000000000,134.14810000000000,もと呉服商の別邸で，大正末期より旅館となった。主屋は東向きの主体部と，この西北に建つ北西棟からなり，ともに木造２階建である。主体部は西側に角屋を突出してＴ字型棟の本瓦葺屋根で，正面は南端に式台玄関を持つが，切妻造・平入の町家風外観を呈する。,https://bunka.nii.ac.jp/heritage/43967/_104303/43967_104303111225013809690_300.jpg
101,00003315,旅館たおか蔵屋,りょかんたおかくらや,1棟,,登録有形文化財(建造物),住宅,建築物,,明治,明治中期,1868-1911,土蔵造2階建、瓦葺、建築面積60㎡,,36 － 0046,36,2003.04.08(平成15.04.08),2003.03.18(平成15.03.18),,20030318,,国土の歴史的景観に寄与しているもの,,徳島県,徳島県美馬市脇町大字脇町字北町165-1,,田岡観光有限会社,,,34.06843000000000,134.14820000000000,２階建の土蔵造で，南北棟の切妻造・本瓦葺，平入になり，西面中央を庇付の出入口とし，小窓には銅板扉を設ける。外壁は漆喰塗とするが，街路に面した腰を簓子下見板張とする。屋敷の東南隅にあり，西に接している表門とともに，街路景観の要素となっている。,https://bunka.nii.ac.jp/heritage/43967/_104305/43967_104305111225013810206_300.jpg
101,00004423,船本家牧舎（旧富田畜産部牧舎）,ふなもとけぼくしゃ（きゅうとみたちくさんぶぼくしゃ）,1棟,,登録有形文化財(建造物),産業1次,建築物,,大正,大正6／大正8増築,1917／1919増築,木造及び煉瓦造2階建、瓦葺、建築面積246㎡,,36 － 0047,44,2004.11.29(平成16.11.29),2004.11.08(平成16.11.08),,20041108,,再現することが容易でないもの,,徳島県,徳島県鳴門市大麻町桧字野神ノ北40,,,,,34.15612000000000,134.49560000000000,南西隅を突出したＬ字型平面の建物で，西半が大正６年，東半が同８年の増築である。１階煉瓦造，２階真壁造の混構造になり，トラス小屋組で桟瓦葺屋根を架ける。牛などの牧舎用途の他，食品加工も行われた。ドイツ人の設計・施工になるという稀少な農業施設。,https://bunka.nii.ac.jp/heritage/43967/_105413/43967_105413111225015010167_300.jpg
101,00004424,安藝家バラッケ（旧板東俘虜収容所）,あきけばらっけ（きゅうばんどうふりょしゅうようじょ）,1棟,,登録有形文化財(建造物),その他,建築物,,大正,大正6／昭和43移築,1917／1968移築,木造平屋建、瓦葺、建築面積199㎡,,36 － 0048,44,2004.11.29(平成16.11.29),2004.11.08(平成16.11.08),,20041108,,造形の規範となっているもの,,徳島県,徳島県鳴門市大麻町桧字椎尾谷37,,,,,34.16816000000000,134.49250000000000,桁行１５間梁間４間，木造平屋建，切妻造，桟瓦葺である。現在は改造され農業用倉庫となっているが，当初は桁行４０間の規模を有し，内部は中央の土間通路を挟み，左右に低い板床を張って２間毎に間仕切られていた。簡素な建物であるが，軍関係営舎の一例。,https://bunka.nii.ac.jp/heritage/43967/_105414/43967_105414111225015011287_300.jpg
101,00004425,柿本家バラッケ（旧板東俘虜収容所）,かきもとけばらっけ（きゅうばんどうふりょしゅうようじょ）,1棟,,登録有形文化財(建造物),その他,建築物,,大正,大正6／昭和43移築／平成18移築,1917／1968移築／2006移築,木造平屋建、スレート葺、建築面積198㎡,,36 － 0049,44,2004.11.29(平成16.11.29),2004.11.08(平成16.11.08),,20041108,,造形の規範となっているもの,,徳島県,徳島県鳴門市大麻町桧字東山田53,,鳴門市,,,34.15399000000000,134.52100000000000,桁行１５間梁間４間，木造平屋建，切妻造，スレート葺である。当初は桁行４０間の規模を有し，内部は中央の土間通路を挟み，左右に低い板床を張って２間毎に間仕切られていた。簡素な建物であるが，軍関係営舎の一例。平成18年に道の駅「第九の里」公園内に移築されている。,https://bunka.nii.ac.jp/heritage/43967/_105415/43967_105415111225015011542_300.jpg
101,00004636,萬福寺本堂,まんぷくじほんどう,1棟,,登録有形文化財(建造物),宗教,建築物,,江戸,江戸末期,1830-1867,木造平屋建、茅葺（鉄板仮葺）一部瓦葺、建築面積181㎡,,36 － 0050,45,2005.02.28(平成17.02.28),2005.02.09(平成17.02.09),,20050209,,造形の規範となっているもの,,徳島県,徳島県那賀郡那賀町延野字寺前20,,宗教法人萬福寺,,,33.82295000000000,134.47570000000000,東西に長い境内に南面して建ち，東の庫裏との間に玄関を設ける。方丈形式の６間取平面で，南と西に広縁を設け，柱は角柱，側廻りは舟肘木とする。屋根は寄棟造，もと茅葺で，４周に本瓦葺の下屋を廻す。いわゆる四方蓋民家風の外観に地域性が現れている。,https://bunka.nii.ac.jp/heritage/43967/_105626/43967_105626111225015500005_300.jpg
101,00004637,萬福寺鐘楼,まんぷくじしょうろう,1棟,,登録有形文化財(建造物),宗教,その他工作,,江戸,江戸後期,1751-1829,木造、瓦葺、面積8.7㎡,,36 － 0051,45,2005.02.28(平成17.02.28),2005.02.09(平成17.02.09),,20050209,,造形の規範となっているもの,,徳島県,徳島県那賀郡那賀町延野字寺前20,,宗教法人萬福寺,,,33.82285000000000,134.47550000000000,本堂西南にある。方１間の吹放し鐘楼で，二軒繁垂木，入母屋造，本瓦葺である。軸部は角柱を内転びに建て，腰貫・内法貫・頭貫・台輪で結び，三斗を組み，中備蟇股を配する。蟇股や木鼻は独特な形状で地方色があるが，絵様細部は１８世紀中期の特徴を見せる。,https://bunka.nii.ac.jp/heritage/43967/_105627/43967_105627111225015502573_300.jpg
101,00004638,萬福寺蔵,まんぷくじくら,1棟,,登録有形文化財(建造物),宗教,建築物,,江戸,江戸末期,1830-1867,土蔵造2階建、瓦葺、建築面積23㎡,,36 － 0052,45,2005.02.28(平成17.02.28),2005.02.09(平成17.02.09),,20050209,,造形の規範となっているもの,,徳島県,徳島県那賀郡那賀町延野字寺前20,,宗教法人萬福寺,,,33.82283000000000,134.47600000000000,境内東方にあり，構造手法から江戸末期と推定される。土蔵造２階建，南北棟の切妻造，桟瓦葺の置屋根式とし，西面に庇付の戸口を設ける。外壁は丁寧な漆喰塗で，腰を押縁下見板張とし，頂部には蛇腹を廻し，妻面の拝みには珍しい松の鰭を付けた懸魚を飾る。,https://bunka.nii.ac.jp/heritage/43967/_105628/43967_105628111225015504293_300.jpg
101,00004639,萬福寺鎮守堂,まんぷくじちんじゅどう,1棟,,登録有形文化財(建造物),宗教,建築物,,明治,明治22,1889,木造平屋建、鉄板葺、建築面積1.0㎡,,36 － 0053,45,2005.02.28(平成17.02.28),2005.02.09(平成17.02.09),,20050209,,造形の規範となっているもの,,徳島県,徳島県那賀郡那賀町延野字寺前20,,宗教法人萬福寺,,,33.82311000000000,134.47550000000000,本堂西に南面してあり，棟札から年代が判明する。乱石積基壇上に建つ１間社見世棚造，板軒，鉄板葺である。身舎は円柱で台輪上に大斗肘木を組み，庇は角柱を虹梁型頭貫で結び，連三斗と中備蟇股をあげる。全体は簡素なつくりだが，境内構成に欠かせない要素。,https://bunka.nii.ac.jp/heritage/43967/_105629/43967_105629111225015506020_300.jpg
101,00005506,織本屋（旧折目家住宅）主屋,おりもとや（きゅうおりめけじゅうたく）しゅおく,1棟,,登録有形文化財(建造物),産業3次,建築物,,江戸,明和9,1772,木造2階建、瓦葺、建築面積276㎡,,36 － 0060,50,2006.04.12(平成18.04.12),2006.03.27(平成18.03.27),,20060327,,造形の規範となっているもの,,徳島県,徳島県美馬郡つるぎ町貞光字町83-2,,つるぎ町,,,34.03347000000000,134.06270000000000,南北に通る街道に東を正面として建つ商家建築で，古い部分は棟札から年代が判る。切妻造，平入の２階建で，正面に下屋を設ける。本瓦葺の屋根や漆喰塗の外壁など全体に重厚感があり，両側面のうだつは斜めの下段と水平の上段からなる古い形式が特徴的である。,https://bunka.nii.ac.jp/heritage/43967/_106494/43967_106494111225021542583_300.jpg
101,00006728,鎌村家住宅主屋,かまむらけじゅうたくしゅおく,1棟,,登録有形文化財(建造物),住宅,建築物,,江戸,天保10,1839,木造平屋建、瓦葺、建築面積281㎡,,36 － 0061,57,2007.12.19(平成19.12.19),2007.12.05(平成19.12.05),,20071205,,国土の歴史的景観に寄与しているもの,,徳島県,徳島県美馬市美馬町字坊僧231,,,,,34.06345000000000,134.07700000000000,敷地中央に南面して建つ、木造つし２階建の切妻造平入。表側の下屋とも本瓦葺で、西面と北面に鉄板葺庇が巡る。当初は桁行７間規模の四間取平面と推定され、西に座敷８畳と次の間を増築した。外壁は妻壁を含め漆喰塗大壁で、重厚な造りになる。,https://bunka.nii.ac.jp/heritage/43967/_107711/43967_107711111225024754571_300.jpg
101,00006729,鎌村家住宅蔵,かまむらけじゅうたくくら,1棟,,登録有形文化財(建造物),住宅,建築物,,明治,明治24,1891,土蔵造2階建、瓦葺、建築面積189㎡,,36 － 0062,57,2007.12.19(平成19.12.19),2007.12.05(平成19.12.05),,20071205,,国土の歴史的景観に寄与しているもの,,徳島県,徳島県美馬市美馬町字坊僧231,,,,,34.06344000000000,134.07670000000000,主屋西に位置する土蔵造２階建の南北棟。桁行８間梁間３間規模で、屋根は切妻造本瓦葺。内部は南寄り３間を間仕切り倉庫、北を米蔵とし、それぞれ東面に戸口を設け、本瓦葺小庇をつける。小屋組は登梁である。外壁は中塗仕上げで、特徴的な外観を呈す。,https://bunka.nii.ac.jp/heritage/43967/_107712/43967_107712111225024756571_300.jpg
101,00006730,鎌村家住宅納屋,かまむらけじゅうたくなや,1棟,,登録有形文化財(建造物),住宅,建築物,,明治,明治30頃,1897頃,木造2階建、瓦葺、建築面積194㎡,,36 － 0063,57,2007.12.19(平成19.12.19),2007.12.05(平成19.12.05),,20071205,,国土の歴史的景観に寄与しているもの,,徳島県,徳島県美馬市美馬町字坊僧231,,,,,34.06334000000000,134.07720000000000,主屋東に位置する木造２階建の南北棟。桁行８間梁間２間半、西面に１間半幅の下屋がつく。屋根は本瓦葺で、南入母屋造、北切妻造とする。内部は南端２間分を居室、北端を馬舎と牛舎とした。東の水田側に設けた切石積の石垣の上に建ち、特色ある屋敷構えをなす。,https://bunka.nii.ac.jp/heritage/43967/_107713/43967_107713111225024757443_300.jpg
101,00006731,鎌村家住宅風呂,かまむらけじゅうたくふろ,1棟,,登録有形文化財(建造物),住宅,建築物,,明治,明治中期,1868-1911,木造平屋建、瓦葺、建築面積5.1㎡,,36 － 0064,57,2007.12.19(平成19.12.19),2007.12.05(平成19.12.05),,20071205,,国土の歴史的景観に寄与しているもの,,徳島県,徳島県美馬市美馬町字坊僧231,,,,,34.06339000000000,134.07720000000000,主屋の東方、納屋の北に隣接する木造平屋建。桁行１４尺梁間４尺の東西棟で、切妻造本瓦葺とする。切石の基礎上に建ち、外壁は真壁造の中塗仕上げである。西から６尺が風呂で、北面に窓、西面に開戸を設ける。東から４尺は大便所で、北面に開戸が付く。,https://bunka.nii.ac.jp/heritage/43967/_107714/43967_107714111225024758256_300.jpg
101,00006732,鎌村家住宅便所,かまむらけじゅうたくべんじょ,1棟,,登録有形文化財(建造物),住宅,建築物,,明治,明治中期,1868-1911,木造平屋建、瓦葺、建築面積6.0㎡,,36 － 0065,57,2007.12.19(平成19.12.19),2007.12.05(平成19.12.05),,20071205,,国土の歴史的景観に寄与しているもの,,徳島県,徳島県美馬市美馬町字坊僧231,,,,,34.06331000000000,134.07680000000000,主屋の西、土蔵の南に位置する木造平屋建。桁行１１尺梁間６尺規模の東西棟で、切妻造本瓦葺とする。東から４尺ずつに仕切り、大便所２室とし、西端は小便所と推定される。戸口は北面にあり、南面の外壁下部に開口をとって汲取口とする。,https://bunka.nii.ac.jp/heritage/43967/_107715/43967_107715111225024800428_300.jpg
101,00006733,鎌村家住宅中庭土塀,かまむらけじゅうたくなかにわどべい,1棟,,登録有形文化財(建造物),住宅,その他工作,,江戸,江戸末期,1830-1867,土塀、瓦葺、延長16m,,36 － 0068,57,2007.12.19(平成19.12.19),2007.12.05(平成19.12.05),,20071205,,国土の歴史的景観に寄与しているもの,,徳島県,徳島県美馬市美馬町字坊僧231,,,,,34.06330000000000,134.07690000000000,主屋の東、風呂の北方に位置する石組井戸。石材は地元産の青石である。板石４枚を相欠に組み、高さ０．５ｍ、１．０ｍ四方の角形井筒。井戸は直径０．８ｍで、深さ７ｍ。井戸まわりに石を敷き、北には方１．５ｍの洗い場があり、縁石を立てる。,https://bunka.nii.ac.jp/heritage/43967/_107716/43967_107716111225024802270_300.jpg
101,00006734,鎌村家住宅西土塀,かまむらけじゅうたくにしどべい,1棟,,登録有形文化財(建造物),住宅,その他工作,,江戸,江戸末期,1830-1867,土塀、瓦葺、延長14m,,36 － 0069,57,2007.12.19(平成19.12.19),2007.12.05(平成19.12.05),,20071205,,国土の歴史的景観に寄与しているもの,,徳島県,徳島県美馬市美馬町字坊僧231,,,,,34.06333000000000,134.07680000000000,便所の西方にあり、宅地の西端を限る土塀である。蔵の南妻面から南へ１４ｍ延びる。南端は取り壊された土蔵に達していた。基底幅０．５ｍ、総高１．５ｍで、頂部を桟瓦葺とする。北端も、もとは蔵の前身建物に取りついていたと推定される。,https://bunka.nii.ac.jp/heritage/43967/_107717/43967_107717111225024804092_300.jpg
101,00006738,鎌村家住宅東井戸,かまむらけじゅうたくひがしいど,1棟,,登録有形文化財(建造物),住宅,その他工作,,明治,明治中期,1868-1911,石造、面積0.64㎡、洗い場付,,36 － 0067,57,2007.12.19(平成19.12.19),2007.12.05(平成19.12.05),,20071205,,国土の歴史的景観に寄与しているもの,,徳島県,徳島県美馬市美馬町字坊僧231,,,,,34.06345000000000,134.07720000000000,主屋の東、風呂の北方に位置する石組井戸。石材は地元産の青石である。板石４枚を相欠に組み、高さ０．５ｍ、１．０ｍ四方の角形井筒。井戸は直径０．８ｍで、深さ７ｍ。井戸まわりに石を敷き、北には方１．５ｍの洗い場があり、縁石を立てる。,https://bunka.nii.ac.jp/heritage/43967/_107721/43967_107721111225024809779_300.jpg
101,00006739,鎌村家住宅北井戸,かまむらけじゅうたくきたいど,1棟,,登録有形文化財(建造物),住宅,その他工作,,明治,明治中期,1868-1911,石造、面積1.0㎡、洗い場付,,36 － 0066,57,2007.12.19(平成19.12.19),2007.12.05(平成19.12.05),,20071205,,国土の歴史的景観に寄与しているもの,,徳島県,徳島県美馬市美馬町字坊僧231,,,,,34.06351000000000,134.07700000000000,主屋の北に位置する石組井戸である。地元産の青石４枚を相欠に組む、高さ０．５ｍ、方０．８ｍの角形井筒。井戸は直径０．７ｍで、深さ３．３ｍを測り、内壁を石積とする。井戸まわりに南北２．１ｍ、東西２．８ｍの石敷の洗い場を作る。,https://bunka.nii.ac.jp/heritage/43967/_107722/43967_107722111225024810664_300.jpg
101,00007408,西教寺本堂,さいきょうじほんどう,1棟,,登録有形文化財(建造物),宗教,建築物,,江戸,安政5,1858,木造平屋建、瓦葺、建築面積240㎡,,36 － 0070,61,2008.11.10(平成20.11.10),2008.10.23(平成20.10.23),,20081023,,造形の規範となっているもの,,徳島県,徳島県美馬市美馬町字宮西13-1,,宗教法人西教寺,,,34.05298000000000,134.06130000000000,境内西寄りに東面して建つ。桁行１４ｍ梁間１６ｍ規模で、入母屋造本瓦葺とし、正面に一間向拝、背面に縋破風を付ける。浄土真宗本堂の標準的な平面構成になるが、正面広縁を外陣と一体的に扱う。三斗組を重ねる妻飾りや、向拝の龍虎の彫刻など見応えがある。,https://bunka.nii.ac.jp/heritage/43967/_108390/43967_108390111225030926884_300.jpg
101,00007409,西教寺経蔵,さいきょうじきょうぞう,1棟,,登録有形文化財(建造物),宗教,建築物,,昭和前,昭和5,1930,土蔵造平屋建、瓦葺、建築面積47㎡,,36 － 0071,61,2008.11.10(平成20.11.10),2008.10.23(平成20.10.23),,20081023,,国土の歴史的景観に寄与しているもの,,徳島県,徳島県美馬市美馬町字宮西13-1,,宗教法人西教寺,,,34.05277000000000,134.06130000000000,本堂の南に東面して建つ。正面に千鳥破風を付ける入母屋造本瓦葺で、唐破風造の前室を設ける。桁行７．１ｍ梁間５．３ｍの土蔵造平屋建で、切石積基礎上を漆喰仕上げとする。前室正面は方柱で柱上に皿斗付三斗を組み、虹梁絵様や笈形などに独特の意匠を見せる。,https://bunka.nii.ac.jp/heritage/43967/_108391/43967_108391111225030928503_300.jpg
101,00007410,西教寺山門,さいきょうじさんもん,1棟,,登録有形文化財(建造物),宗教,その他工作,,江戸,天保14,1843,木造、瓦葺、間口3.1m,,36 － 0072,61,2008.11.10(平成20.11.10),2008.10.23(平成20.10.23),,20081023,,国土の歴史的景観に寄与しているもの,,徳島県,徳島県美馬市美馬町字宮西13-1,,宗教法人西教寺,,,34.05299000000000,134.06170000000000,本堂の前方に建つ、南北棟の三間薬医門。中央に両開桟唐戸を吊り、北間に潜りを設ける。切妻造本瓦葺。本柱上に冠木、男梁を架し、三斗を組み、軒桁や妻の虹梁大瓶束を支える。軒は二軒で、飛檐を雲彫刻の板軒とする特徴的な意匠を見せる。重厚で風格ある山門。,https://bunka.nii.ac.jp/heritage/43967/_108392/43967_108392111225030932063_300.jpg
101,00007594,願勝寺山門,がんしょうじさんもん,1棟,,登録有形文化財(建造物),宗教,その他工作,,明治,明治期,1868-1911,木造、瓦葺、間口3.6m,,36 － 0073,62,2009.01.22(平成21.01.22),2009.01.08(平成21.01.08),,20090108,,造形の規範となっているもの,,徳島県,徳島県美馬市美馬町字願勝寺8,,宗教法人願勝寺,,,34.05162000000000,134.06010000000000,東面する三間一戸八脚門。入母屋造本瓦葺。礎盤上に円柱を建て、出三斗で中備に彫物を置く。柱上部に台輪状の部材を上下２段に設け、その間に笈形付大瓶束や、蓮弁状に上下を作る束などを配する。中央間を花頭形に開け植物文様を飾る。独創的な意匠になる山門。,https://bunka.nii.ac.jp/heritage/43967/_108576/43967_108576111225031448022_300.jpg
101,00007802,安楽寺本堂,あんらくじほんどう,1棟,,登録有形文化財(建造物),宗教,建築物,,昭和前,昭和13,1938,木造平屋建、瓦葺、建築面積517㎡,,36-0074,64,2009.08.25(平成21.08.25),2009.08.07(平成21.08.07),,20090807,,造形の規範となっているもの,,徳島県,徳島県美馬市美馬町字宮西11,,宗教法人安楽寺,,,34.05261000000000,134.06170000000000,境内地西寄りに南面して建つ。入母屋造本瓦葺の七間堂、周囲に庇柱を建て、正面に三間向拝を付ける。内部は外陣と矢来の間、内陣等からなる典型的な浄土真宗本堂の形式をもつ。向拝や内外陣境の欄間などに多くの彫物が施される。近代の大規模な真宗本堂の一例。,https://bunka.nii.ac.jp/heritage/43967/_108783/43967_108783111225032038548_300.jpg
101,00007803,安楽寺書院,あんらくじしょいん,1棟,,登録有形文化財(建造物),宗教,建築物,,大正,大正14,1925,木造平屋建、瓦葺、建築面積94㎡,,36-0075,64,2009.08.25(平成21.08.25),2009.08.07(平成21.08.07),,20090807,,国土の歴史的景観に寄与しているもの,,徳島県,徳島県美馬市美馬町字宮西11,,宗教法人安楽寺,,,34.05282000000000,134.06180000000000,本堂の北東に東西棟で建つ。入母屋造本瓦葺で、桟瓦葺の下屋庇をまわす。東西に十畳と十二畳半の二室を配し、東・南・西に縁、背面に榑縁を付け、各室にトコやトコ脇、付書院を構え、室境に彫刻欄間を飾る。軽快ながら安定感のある外観をもつ良質な書院座敷。,https://bunka.nii.ac.jp/heritage/43967/_108784/43967_108784111225032039488_300.jpg
101,00007804,安楽寺鐘楼,あんらくじしょうろう,1棟,,登録有形文化財(建造物),宗教,その他工作,,明治,明治44,1911,木造、瓦葺、面積21㎡,,36-0076,64,2009.08.25(平成21.08.25),2009.08.07(平成21.08.07),,20090807,,国土の歴史的景観に寄与しているもの,,徳島県,徳島県美馬市美馬町字宮西11,,宗教法人安楽寺,,,34.05237000000000,134.06200000000000,本堂の東南に位置する。切石積の高い基壇上に建つ方一間吹放ち鐘楼。入母屋造本瓦葺で棟に鯱を飾り、撞木を吊る西側に軒唐破風を付ける。湾曲した方柱を四方転びに建て、三斗組で中備に蟇股を置く。二軒扇垂木とし、内部に格天井を張る。風格のある鐘楼。,https://bunka.nii.ac.jp/heritage/43967/_108785/43967_108785111225032040430_300.jpg
101,00007805,安楽寺山門,あんらくじさんもん,1棟,,登録有形文化財(建造物),宗教,その他工作,,江戸,宝暦6／昭和11改修,1756／1936改修,木造、瓦葺、面積41㎡,,36-0077,64,2009.08.25(平成21.08.25),2009.08.07(平成21.08.07),,20090807,,造形の規範となっているもの,,徳島県,徳島県美馬市美馬町字宮西11,,宗教法人安楽寺,,,34.05224000000000,134.06170000000000,本堂の南方に建つ、三間三戸二階二重門。入母屋造本瓦葺。上重二軒扇垂木、下重二軒繁垂木。上重が本格的な禅宗様三手先詰組であるのに対し、下重は斗を使わず、肘木や直材を組み合わせる奇抜な組物を用いる。扉上部の中備には奇矯な表情の鬼面を飾る。,https://bunka.nii.ac.jp/heritage/43967/_108786/43967_108786111225032041384_300.jpg
101,00007806,蓮光寺山門,れんこうじさんもん,1棟,,登録有形文化財(建造物),宗教,その他工作,,江戸,江戸後期,1751-1829,木造、瓦葺、面積6.3㎡,,36-0078,64,2009.08.25(平成21.08.25),2009.08.07(平成21.08.07),,20090807,,国土の歴史的景観に寄与しているもの,,徳島県,徳島県名西郡石井町石井字重松531-1,,宗教法人蓮光寺,,,34.07180000000000,134.43200000000000,境内地の南辺中央に建つ。一間一戸楼門で、上部に鐘を吊る。入母屋造本瓦葺。間口２．６ｍに方柱を建て、前寄りに扉口を設ける。上層は円柱で、三斗組、中備蟇股、二軒繁垂木。縁を腕木で支持し、逆蓮の擬宝珠高欄を付ける。端正な外観をもつ小規模の鐘楼門。,https://bunka.nii.ac.jp/heritage/43967/_108787/43967_108787111225032042496_300.jpg
101,00007807,安楽寺方丈,あんらくじほうじょう,1棟,,登録有形文化財(建造物),宗教,建築物,,江戸,江戸後期,1751-1829,木造平屋建、茅葺一部瓦葺、建築面積240㎡,,36-0079,64,2009.08.25(平成21.08.25),2009.08.07(平成21.08.07),,20090807,,国土の歴史的景観に寄与しているもの,,徳島県,徳島県板野郡上板町引野字寺ノ西北8他,,宗教法人安楽寺,,,34.11833000000000,134.38850000000000,東面する本堂の東北に南面して建つ。屋根は周囲を本瓦葺とする入母屋造茅葺。方柱で、大斗肘木を置き、中備は束で笈形風に彫物を飾る。一軒半繁垂木。内部は田字型に四室を配し、周囲に広縁をまわす。上段の間は藩主の座所と伝える。穏やかな外観になる座敷。,https://bunka.nii.ac.jp/heritage/43967/_108788/43967_108788111225032044431_300.jpg
101,00008067,旧三野町役場庁舎,きゅうみのまちやくばちょうしゃ,1棟,,登録有形文化財(建造物),官公庁舎,建築物,,昭和前,昭和9／昭和52改修,1934／1977改修,木造2階建、スレート葺、建築面積155㎡,,36-0080,66,2010.02.03(平成22.02.03),2010.01.15(平成22.01.15),,20100115,,国土の歴史的景観に寄与しているもの,,徳島県,徳島県三好市三野町芝生1039,,,,,34.04202000000000,133.97050000000000,旧三野町を東西に貫く旧県道に南面して建つ。正面１５ｍの木造２階建で、中央及び両翼の正面側に張出部をつける。正面外観は左右対称で、２階には半円アーチ窓を開ける。中央張出部の腰折屋根や、独特の意匠をもつ付柱などが異彩を放つ洋風庁舎である。,https://bunka.nii.ac.jp/heritage/43967/_128898/43967_128898111225032756678_300.jpg
101,00008376,旧川口郵便局局舎及び主屋,きゅうかわぐちゆうびんきょくきょくしゃおよびしゅおく,1棟,,登録有形文化財(建造物),官公庁舎,建築物,,明治,明治38年／昭和54年改修,1905／1979改修,木造2階一部地下1階建、瓦葺、建築面積120㎡,,36 － 0081,68,2010.09.10(平成22.09.10),2010.09.10(平成22.09.10),,20100910,,国土の歴史的景観に寄与しているもの,,徳島県,徳島県三好市山城町大川持字中ハシ584-1,,,,,33.96176000000000,133.75410000000000,川沿いの集落中央に、通りに西面して建つ。南に洋館の局舎、北に和館の主屋を配する。木造２階建で、洋館の寄棟屋根に切妻屋根がＴ字型に取り付く。洋館は下見板張のペンキ塗、窓や軒まわりに意匠を凝らし、和館は出格子などを構え、落ち着きのある外観とする。,https://bunka.nii.ac.jp/heritage/43967/_134018/43967_134018111225033812651_300.jpg
101,00008377,百年蔵旧酒蔵,ひゃくねんぐらきゅうさかぐら,1棟,,登録有形文化財(建造物),産業2次,建築物,,大正,大正11年／平成15年改修,1922／2003改修,木造2階建、瓦葺、建築面積437㎡,,36 － 0082,68,2010.09.10(平成22.09.10),2010.09.10(平成22.09.10),,20100910,,国土の歴史的景観に寄与しているもの,,徳島県,徳島県三好市池田町川崎宮ノ前156-6,,,,,33.96662000000000,133.77460000000000,吉野川と祖谷川が合流する川崎集落に所在する。桁行３０ｍ梁間９．９ｍの大規模な木造２階建で、北面に梁間４．９ｍの下屋を付ける。切妻造桟瓦葺。真壁造で漆喰仕上げとし、要所に窓を穿つ。内部は半間毎に柱をたて、貫を現さず、上昇感のある空間とする。,https://bunka.nii.ac.jp/heritage/43967/_134019/43967_134019111225033815410_300.jpg
101,00008378,百年蔵煙突,ひゃくねんぐらえんとつ,1基,,登録有形文化財(建造物),産業2次,その他工作,,大正,大正11年,1922,煉瓦造、高さ9.6m,,36 － 0083,68,2010.09.10(平成22.09.10),2010.09.10(平成22.09.10),,20100910,,国土の歴史的景観に寄与しているもの,,徳島県,徳島県三好市池田町川崎宮ノ前156-6,,,,,33.96675000000000,133.77460000000000,旧酒蔵の北に位置する煉瓦造の煙突。基礎部分で方０．９０ｍで、上方に逓減し、上端で方０．６４ｍとなる。高さ９．６ｍを測る。長手積とし、上部に二段に帯状の突起をつくる。「義士心」と銘柄名が記され、往時を偲ばせる。地域のシンボルとして親しまれる。,https://bunka.nii.ac.jp/heritage/43967/_134020/43967_134020111225033817151_300.jpg
101,00008379,松坂隧道,まつさかずいどう,1基,,登録有形文化財(建造物),交通,土木構造物,,大正,大正10年,1921,コンクリート造、延長87m、幅員5.8m,,36 － 0084,68,2010.09.10(平成22.09.10),2010.09.10(平成22.09.10),,20100910,,国土の歴史的景観に寄与しているもの,,徳島県,徳島県海部郡牟岐町大字内妻,,牟岐町,,,33.65904000000000,134.39790000000000,四国東南部の海岸近くを通る旧幹線道路の施設。延長８７ｍ、幅員５．８ｍの直線状の隧道で、全体をコンクリートでつくる。アーチは三心円アーチで、坑門と覆工の一部をモルタル仕上げとする。大正期につくられたコンクリート造隧道の一例。,https://bunka.nii.ac.jp/heritage/43967/_134021/43967_134021111225033818876_300.jpg
101,00008582,和田の屋本館下棟,わだのやほんかんしもとう,1棟,,登録有形文化財(建造物),産業3次,建築物,,昭和中,昭和28年／昭和31年増築,1953／1956増築,木造2階建、瓦葺、建築面積91㎡,,36 － 0085,69,2011.01.26(平成23.01.26),2011.01.26(平成23.01.26),,20110126,,国土の歴史的景観に寄与しているもの,,徳島県,徳島県徳島市眉山町大滝山5-5他,,,,,34.07238000000000,134.54260000000000,大滝山山麓、登り口に北面する。東西一三メートル南北五・六メートル、西面に増築部を付設。東西棟を主棟とし、東端に南北棟の入母屋屋根を造るなど複雑な屋根とする。一階は土間で、餅の焼き場や販売所、二階に座敷を設ける。観光地に残る老舗店舗の一例。,https://bunka.nii.ac.jp/heritage/43967/_134978/43967_134978111225034500242_300.jpg
101,00008583,近藤家住宅主屋,こんどうけじゅうたくしゅおく,1棟,,登録有形文化財(建造物),産業3次,建築物,,明治,明治中期／昭和26年・昭和30年改修,1883-1897／1951・1955改修,木造平屋建、瓦葺、建築面積96㎡,,36 － 0086,69,2011.01.26(平成23.01.26),2011.01.26(平成23.01.26),,20110126,,国土の歴史的景観に寄与しているもの,,徳島県,徳島県鳴門市大麻町板東字北条86-1,,,,,34.15669000000000,134.50220000000000,四国霊場霊山寺の門前、参道と撫養街道の角に東西棟で建つ。入母屋造本瓦葺で、四方に下屋を付設するが、北と東で軒高を違え変化を付ける。間口一二メートル奥行八・一メートルの木造つし二階建で、上屋を大壁とし、軒まで塗り込めるなど、重厚な構えとする。,https://bunka.nii.ac.jp/heritage/43967/_134979/43967_134979111225034502007_300.jpg
101,00008584,奥村家住宅主屋,おくむらけしゅおくじゅうたく,1棟,,登録有形文化財(建造物),住宅,建築物,,明治,明治前期,1868-1882,木造平屋建、茅葺（鉄板仮葺）、建築面積128㎡,,36 － 0087,69,2011.01.26(平成23.01.26),2011.01.26(平成23.01.26),,20110126,,国土の歴史的景観に寄与しているもの,,徳島県,徳島県板野郡藍住町徳命字前須西166-1-1,,,,,34.11571000000000,134.48280000000000,敷地北寄りに南面して建つ。入母屋造茅葺で周囲に桟瓦葺庇をまわす。間口一五メートル奥行七・八メートルで、西寄りに土間を設ける。床上は南北二列からなり、前列東端の八畳にはトコを設け、土間側の六畳正面は窓とする。四方蓋造の穏やかな外観が印象的。,https://bunka.nii.ac.jp/heritage/43967/_134980/43967_134980111225034503852_300.jpg
101,00008585,奥村家住宅蔵,おくむらけじゅうたくくら,1棟,,登録有形文化財(建造物),住宅,建築物,,明治,明治前期,1868-1882,土蔵造2階建、瓦葺、建築面積38㎡,,36 － 0088,69,2011.01.26(平成23.01.26),2011.01.26(平成23.01.26),,20110126,,国土の歴史的景観に寄与しているもの,,徳島県,徳島県板野郡藍住町徳命字前須西166-1-1,,,,,34.11580000000000,134.48270000000000,主屋の西北に位置する。切石積基礎上に建つ土蔵造二階建。桁行七・六メートル梁間四・九メートルで、南面に石段を付ける。切妻造本瓦葺。内部は壁板張とし、小屋は和小屋。瓦頭に蜂須賀家定紋があり、徳島城の建物を購入した藍商の繁栄を伝える。,https://bunka.nii.ac.jp/heritage/43967/_134981/43967_134981111225034507021_300.jpg
101,00008586,地蔵寺本堂,じぞうじほんどう,1棟,,登録有形文化財(建造物),宗教,建築物,,江戸,正徳年間(1711-1716）,1711-1716,木造平屋建、瓦葺、建築面積82㎡,,36 － 0089,69,2011.01.26(平成23.01.26),2011.01.26(平成23.01.26),,20110126,,造形の規範となっているもの,,徳島県,徳島県板野郡板野町羅漢字林東5,,宗教法人荘厳院地蔵寺,,,34.13685000000000,134.43170000000000,境内地の西南に東面して建つ。桁行三間梁間三間で、正面に一間向拝を付け、背面半間通りを取り込む。入母屋造本瓦葺。正面一間通りを外陣、その奥を内陣とし、後方中央に須弥壇を構える。柱は方柱で、隅に絵様肘木を置く。近世に遡る四国札所本堂の好例。,https://bunka.nii.ac.jp/heritage/43967/_134982/43967_134982111225034509173_300.jpg
101,00008587,地蔵寺不動堂,じぞうじふどうどう,1棟,,登録有形文化財(建造物),宗教,建築物,,江戸,江戸後期,1751-1830,木造平屋建、瓦葺、建築面積59㎡,,36 － 0090,69,2011.01.26(平成23.01.26),2011.01.26(平成23.01.26),,20110126,,国土の歴史的景観に寄与しているもの,,徳島県,徳島県板野郡板野町羅漢字林東5,,宗教法人荘厳院地蔵寺,,,34.13694000000000,134.43170000000000,本堂の北側に接して建つ。桁行三間梁間三間で、正面に一間向拝、背面に仏壇を付設する。切妻造本瓦葺。内部は一室で、板敷とし、棹縁天井を張り、中央に護摩壇を置く。方柱で、大斗肘木を置き、一軒繁垂木。二重虹梁大瓶束の妻面に飾られる彫刻が親しまれる。,https://bunka.nii.ac.jp/heritage/43967/_134983/43967_134983111225034511098_300.jpg
101,00008588,地蔵寺大師堂,じぞうじだいしどう,1棟,,登録有形文化財(建造物),宗教,建築物,,江戸,正徳年間（1711-1716）／江戸末期改修,1711-1716／1830-1868改修,木造平屋建、瓦葺、建築面積96㎡,,36 － 0091,69,2011.01.26(平成23.01.26),2011.01.26(平成23.01.26),,20110126,,国土の歴史的景観に寄与しているもの,,徳島県,徳島県板野郡板野町羅漢字林東5,,宗教法人荘厳院地蔵寺,,,34.13682000000000,134.43230000000000,本堂の東方に対面して建つ。桁行三間梁間三間、入母屋造本瓦葺で、正面中央に唐破風造の一間向拝を付設。方柱で平三斗とし、彫刻欄間を飾る。二軒繁垂木。内部は後方一間通りを柱列や小壁で間仕切り、厨子を安置する。鏡天井に天女を描くなど、装飾性が強い。,https://bunka.nii.ac.jp/heritage/43967/_134984/43967_134984111225034512924_300.jpg
101,00008589,地蔵寺経蔵,じぞうじきょうぐら,1棟,,登録有形文化財(建造物),宗教,建築物,,江戸,文化7年（1810）,1810,土蔵造平屋建、瓦葺、建築面積31㎡、輪蔵付,,36 － 0092,69,2011.01.26(平成23.01.26),2011.01.26(平成23.01.26),,20110126,,国土の歴史的景観に寄与しているもの,,徳島県,徳島県板野郡板野町羅漢字林東5,,宗教法人荘厳院地蔵寺,,,34.13738000000000,134.43170000000000,本堂の北方に南面して建つ。桁行五・九メートル梁間四・九メートル、寄棟造本瓦葺。切石積基礎上に建つ土蔵で、外壁を漆喰仕上げとし、側面に花頭形の格子窓を穿つ。堂内は板敷で、壁板張、鏡天井を張り、中央に八角の輪蔵を置く。丁寧なつくりの小規模経蔵。,https://bunka.nii.ac.jp/heritage/43967/_134985/43967_134985111225034514717_300.jpg
101,00008590,地蔵寺五百羅漢堂,じぞうじごひゃくらかんどう,1棟,,登録有形文化財(建造物),宗教,建築物,,大正,大正11年,1922,木造平屋建、瓦葺、建築面積674㎡,,36 － 0093,69,2011.01.26(平成23.01.26),2011.01.26(平成23.01.26),,20110126,,造形の規範となっているもの,,徳島県,徳島県板野郡板野町羅漢字林東5,,宗教法人荘厳院地蔵寺,,,34.13830000000000,134.43140000000000,本堂など主要伽藍の北方高台に位置する。釈迦堂を中心に大師堂と弥勒堂を対面してコ字形に配し、この間を回廊が繋ぐ。建築面積六七四平方メートル。本瓦葺とし、回廊には背面に接して壇を設けて、羅漢像を安置する。庶民の信仰を集める大規模な境内仏堂。,https://bunka.nii.ac.jp/heritage/43967/_134986/43967_134986111225034517489_300.jpg
101,00008591,大山寺本堂,たいさんじほんどう,1棟,,登録有形文化財(建造物),宗教,建築物,,江戸,江戸中期／寛政8年（1796）移築・昭和27年・昭和60年改修,1661-1751／1796移築・1952・1985改修,木造平屋建、銅板葺、建築面積155㎡,,36 － 0094,69,2011.01.26(平成23.01.26),2011.01.26(平成23.01.26),,20110126,,国土の歴史的景観に寄与しているもの,,徳島県,徳島県板野郡上板町神宅字大山4,,宗教法人大山寺,,,34.15927000000000,134.39960000000000,大山の中腹に伽藍を構える。東面して建つ三間仏堂で、正・側面に縁柱をたてる。入母屋造とし、正面に一間向拝を付設。正面一間通りを外陣、奥を内陣とし、後方に須弥壇や脇壇を置く。木鼻や手挟を龍や貘、植物の彫刻として飾るなど近世らしい装飾をもつ。,https://bunka.nii.ac.jp/heritage/43967/_134987/43967_134987111225034519153_300.jpg
101,00008592,大山寺大師堂,たいさんじだいしどう,1棟,,登録有形文化財(建造物),宗教,建築物,,江戸,文久3年（1863）／昭和60年改修,1863／1985改修,木造平屋建、鉄板葺、建築面積34㎡,,36 － 0095,69,2011.01.26(平成23.01.26),2011.01.26(平成23.01.26),,20110126,,国土の歴史的景観に寄与しているもの,,徳島県,徳島県板野郡上板町神宅字大山4,,宗教法人大山寺,,,34.15945000000000,134.39960000000000,本堂の北方に東面して建つ。正面三間側面二間で、背面に須弥壇を付設し、正・側面に縁をまわす。宝形造で正面に一間向拝を設ける。堂内は板敷、棹縁天井の一室。方柱で、出三斗組とし、軒は一軒の吹寄垂木とする。江戸末期に建立された標準的な弘法大師堂。,https://bunka.nii.ac.jp/heritage/43967/_134988/43967_134988111225034521021_300.jpg
101,00008593,大山寺回廊,たいさんじかいろう,1棟,,登録有形文化財(建造物),宗教,建築物,,江戸,江戸末期,1830-1868,木造平屋建、瓦葺、建築面積45㎡,,36 － 0096,69,2011.01.26(平成23.01.26),2011.01.26(平成23.01.26),,20110126,,国土の歴史的景観に寄与しているもの,,徳島県,徳島県板野郡上板町神宅字大山4,,宗教法人大山寺,,,34.15936000000000,134.39960000000000,本堂と大師堂を繋ぐ南北棟の廊下。桁行四間梁間三間、切妻造桟瓦葺。梁行に三分し、中央通りを正面に腰壁や格子戸、背面に板壁をたてて間仕切り、壇を設け、三十三観音を安置。正面一間通りを拜所とし、棹縁天井を張る。回廊を信仰の場とした特殊な堂宇である。,https://bunka.nii.ac.jp/heritage/43967/_134989/43967_134989111225034522681_300.jpg
101,00008594,大山寺鐘楼門,たいさんじしょうろうもん,1棟,,登録有形文化財(建造物),宗教,建築物,,江戸,江戸末期／昭和60年改修,1830-1868／1985改修,木造2階建、銅板葺、建築面積22㎡,,36 － 0097,69,2011.01.26(平成23.01.26),2011.01.26(平成23.01.26),,20110126,,国土の歴史的景観に寄与しているもの,,徳島県,徳島県板野郡上板町神宅字大山4,,宗教法人大山寺,,,34.15921000000000,134.40010000000000,本堂の前方、石段を降りた位置に東面して建つ。入母屋造の三間一戸楼門で、下層は正面に虹梁を架け間柱を省略する。上層は円柱で、出三斗組、二軒扇垂木。周囲に連子をたてるなど開放的な扱いとし、擬宝珠高欄付縁を張る。大柄で落ち着きのある鐘楼門。,https://bunka.nii.ac.jp/heritage/43967/_134990/43967_134990111225034524340_300.jpg
101,00008783,常楽寺本堂,じょうらくじほんどう,1棟,,登録有形文化財(建造物),宗教,建築物,,江戸,江戸後期／弘化2年(1845)・昭和63年改修,,木造平屋建、瓦葺、建築面積112㎡,,36 － 0098,70,2011.07.25(平成23.07.25),2011.07.25(平成23.07.25),,20110725,,造形の規範となっているもの,,徳島県,徳島県徳島市国府町延命606,,宗教法人常楽寺,,,34.05035000000000,134.47560000000000,辰ヶ山の中腹に東面して建つ。入母屋造本瓦葺の3間堂。正面に1間向拝を付ける。方柱で、平三斗、中備蟇股、二軒繁垂木。内部は正面1間通りを外陣、その奥を内陣とし、中央に須弥壇を構え、厨子を置く。外陣鏡天井に龍が描かれる。近世四国札所本堂の好例。,https://bunka.nii.ac.jp/heritage/43967/_149504/43967_149504140216024413085_300.jpg
101,00008784,常楽寺大師堂,じょうらくじだいしどう,1棟,,登録有形文化財(建造物),宗教,建築物,,江戸,文化9年(1812)／平成15年改修,,木造平屋建、瓦葺、建築面積41㎡,,36 － 0099,70,2011.07.25(平成23.07.25),2011.07.25(平成23.07.25),,20110725,,国土の歴史的景観に寄与しているもの,,徳島県,徳島県徳島市国府町延命606,,宗教法人常楽寺,,,34.05035000000000,134.47590000000000,本堂の東北に南面して建つ。宝形造本瓦葺の3間堂。正面に1間向拝を付ける。方柱、木鼻付平三斗、中備蟇股、二軒繁垂木。正面の小壁に彫物を飾る。内部は正面1間通りを外陣、奥を内陣とする。江戸後期に遡る本堂と大師堂が残り、近世四国札所の景観を伝える。,https://bunka.nii.ac.jp/heritage/43967/_149505/43967_149505140216024416318_300.jpg
101,00008785,尾崎家住宅石倉,おざきけじゅうたくいしぐら,1棟,,登録有形文化財(建造物),住宅,建築物,,江戸,明治34年,,石造2階建、瓦葺、建築面積31㎡,,36 － 0100,70,2011.07.25(平成23.07.25),2011.07.25(平成23.07.25),,20110725,,国土の歴史的景観に寄与しているもの,,徳島県,徳島県吉野川市美郷字中谷189,,,,,34.02024000000000,134.30570000000000,四国山地の山間に位置する。桁行7.1ｍ梁間6.5ｍの石造2階建、切妻造桟瓦葺。近くを流れる東谷川の青石を積み上げ、東面に出入口を穿つ。厚さは足下で1.4ｍ。隅は算木積。内部は三和土で、荒壁塗。山の木立を背景として安らぎある景観をなす。,https://bunka.nii.ac.jp/heritage/43967/_149506/43967_149506140216024418645_300.jpg
101,00009066,箸蔵寺高灯籠,はしくらじたかとうろう,1棟,,登録有形文化財(建造物),宗教,建築物,,明治,明治17年,1884,木造二重灯籠、瓦葺、建築面積15㎡,,36 － 0101,71,2011.10.28(平成23.10.28),2011.10.28(平成23.10.28),,20111028,,国土の歴史的景観に寄与しているもの,,徳島県,徳島県三好市池田町州津蔵谷1006他,,宗教法人箸蔵寺,非営利法人,,34.04395000000000,133.84180000000000,吉野川を俯瞰する丘上に建つ。木造二重灯籠、袴腰付、宝形造桟瓦葺で、北面の出入口に唐破風屋根をかける。下重組物は出組で軒を扇垂木、上重は絵様肘木と二軒繁垂木とする。上層は方一間で、柱や天井を漆喰塗込めとし、四面に花頭窓を開く。特異な形式の木造灯籠。,https://bunka.nii.ac.jp/heritage/43967/_162426/43967_162426140216024902785_300.jpg
101,00009067,箸蔵寺手水舎,はしくらじちょうずや,1棟,,登録有形文化財(建造物),宗教,その他工作,,明治,明治29年,1896,木造、瓦葺、面積6.4㎡、手水鉢付,,36 － 0102,71,2011.10.28(平成23.10.28),2011.10.28(平成23.10.28),,20111028,,国土の歴史的景観に寄与しているもの,,徳島県,徳島県三好市池田町州津蔵谷1006他,,宗教法人箸蔵寺,非営利法人,,34.03623000000000,133.88780000000000,本殿東南に位置する。方一間で四方を吹放しとし、軒は二軒繁垂木、屋根は南北棟の入母屋造桟瓦葺である。礎盤上に立てた角柱を頭貫と台輪で固め、組物は出組詰組とする。琵琶板に植物紋様を飾り、手水鉢の四隅を邪鬼で支えるなど、装飾性に富む手水舎である。,https://bunka.nii.ac.jp/heritage/43967/_162427/43967_162427140216024905120_300.jpg
101,00009068,箸蔵寺中門,はしくらじちゅうもん,1棟,,登録有形文化財(建造物),宗教,その他工作,,明治,明治前期,1868～1882,木造、瓦葺、間口3.6m、左右袖塀付,,36 － 0103,71,2011.10.28(平成23.10.28),2011.10.28(平成23.10.28),,20111028,,国土の歴史的景観に寄与しているもの,,徳島県,徳島県三好市池田町州津蔵谷1006他,,宗教法人箸蔵寺,非営利法人,,34.04751000000000,133.84090000000000,方丈前に東西棟で建つ。切妻造桟瓦葺の一間薬医門で、両脇に袖塀を付ける。五平の本柱を冠木や虹梁形の?で固め、男梁を四通りに架す。男梁上に大斗肘木を置き、梁や桁を支持。一軒疎垂木で、妻虹梁大瓶束、全面に格天井を張る。規模が大きく威厳ある構え。,https://bunka.nii.ac.jp/heritage/43967/_162428/43967_162428140216024907485_300.jpg
101,00009069,箸蔵寺仁王門,はしくらじにおうもん,1棟,,登録有形文化財(建造物),宗教,建築物,,明治,明治13年,1880,木造二階建、瓦葺、建築面積56㎡,,36 － 0104,71,2011.10.28(平成23.10.28),2011.10.28(平成23.10.28),,20111028,,国土の歴史的景観に寄与しているもの,,徳島県,徳島県三好市池田町州津蔵谷1006他,,宗教法人箸蔵寺,非営利法人,,34.04461000000000,133.84200000000000,山の中腹に位置し、南面する。三間一戸二重門、入母屋造桟瓦葺。上・下重とも出組詰組、二軒繁垂木。上重は桁行三間梁間二間、正面中央に両開桟唐戸、両脇間に花頭窓を穿つ。内部は一室で、側・背面に接して壇を構える。近代における禅宗様二重門の優品である。,https://bunka.nii.ac.jp/heritage/43967/_162429/43967_162429140216024909871_300.jpg
101,00009222,東福寺本堂,とうふくじほんどう,1棟,,登録有形文化財(建造物),宗教,建築物,,江戸,天保4年(1833)／昭和40年改修,1833／1965改修,木造平屋建、瓦葺、建築面積374㎡,,,72,2012.02.23(平成24.02.23),2012.02.23(平成24.02.23),,20120223,,国土の歴史的景観に寄与しているもの,,徳島県,徳島県美馬郡つるぎ町貞光字木屋341,,宗教法人東福寺,非営利法人,,34.00313000000000,134.07750000000000,境内中央に東面する。桁行26.2メートル梁間13.1メートル、寄棟造本瓦葺で、周囲に下屋を廻らし、正面に唐破風造銅板葺の玄関を構える。東面に広縁を通しその奥を8間取とし、後列南第2間を内陣とする。北寄りはもと庫裏。風格ある外観の真言宗本堂である。,https://bunka.nii.ac.jp/heritage/43967/_164775/43967_164775140222025147116_300.jpg
101,00009666,太龍寺本堂,たいりゅうじほんどう,1棟,,登録有形文化財(建造物),宗教,建築物,,江戸,嘉永5,1852,木造平屋建、銅板葺、建築面積180㎡,,36 － 0106,75,2013.06.21(平成25.06.21),2013.06.21(平成25.06.21),,20130621,,国土の歴史的景観に寄与しているもの,,徳島県,徳島県阿南市加茂町竜山1他,,宗教法人太龍寺,宗教法人,,33.88140000000000,134.52030000000000,境内の西方に南面して建つ。五間堂規模で正面のみ柱間を広くとり三間とする。入母屋造銅板葺、四方に縁を廻し、正面向拝一間付。内部三間四方を内陣とし、前一間を広い外陣とする。要所を彫刻化した蟇股などで飾り、全体に木太く、当地域の札所の好例である。,https://bunka.nii.ac.jp/heritage/43967/_194662/43967_194662140916101439144_300.jpg
101,00009667,太龍寺大師堂,たいりゅうじたいしどう,1棟,,登録有形文化財(建造物),宗教,建築物,,明治,明治10,1877,木造平屋建、銅板葺、建築面積108㎡,,36 － 0107,75,2013.06.21(平成25.06.21),2013.06.21(平成25.06.21),,20130621,,国土の歴史的景観に寄与しているもの,,徳島県,徳島県阿南市加茂町竜山1他,,宗教法人太龍寺,宗教法人,,33.88166000000000,134.51990000000000,境内北西方、御影堂の前に東面する。方三間正面向拝一間付で四方に縁を廻す。入母屋造銅板葺、千鳥破風及び軒唐破風付。御影堂を礼拝するための堂で、奥二間を内陣、前一間を外陣とする。虹梁や欄間など随所に瑞獣や波紋などの彫刻を充溢させ装飾的につくる。,https://bunka.nii.ac.jp/heritage/43967/_194663/43967_194663140916101441299_300.jpg
101,00009668,太龍寺御影堂,たいりゅうじみえいどう,1棟,,登録有形文化財(建造物),宗教,建築物,,明治,明治11,1878,木造平屋建、銅板葺、建築面積16㎡,,36 － 0108,75,2013.06.21(平成25.06.21),2013.06.21(平成25.06.21),,20130621,,国土の歴史的景観に寄与しているもの,,徳島県,徳島県阿南市加茂町竜山1他,,宗教法人太龍寺,宗教法人,,33.88165000000000,134.51980000000000,境内北西方、大師堂の西方に東面する。正面三間側面二間、宝形造銅板葺で、正側面に縁を廻す。円柱を立て出三斗組、二軒扇垂木とする。堂内は前後二分して内外陣とし、漆塗の厨子を安置する。大師堂とあわせて境内景観に欠かせない堂で、厳粛な雰囲気を醸す。,https://bunka.nii.ac.jp/heritage/43967/_194664/43967_194664140916101443377_300.jpg
101,00009669,太龍寺護摩堂,たいりゅうじごまどう,1棟,,登録有形文化財(建造物),宗教,建築物,,明治,明治34,1901,木造平屋建、銅板葺、建築面積111㎡,,36 － 0109,75,2013.06.21(平成25.06.21),2013.06.21(平成25.06.21),,20130621,,国土の歴史的景観に寄与しているもの,,徳島県,徳島県阿南市加茂町竜山1他,,宗教法人太龍寺,宗教法人,,33.88244000000000,134.52210000000000,境内東方に南面して建ち、本坊西に接続する。正面三間側面四間、入母屋造銅板葺で、正面向拝一間付、南東面に縁を廻す。前一間を外陣、奥三間は中央間の内陣及び厨子と脇間からなる。粽付円柱を立て、側廻りは台輪上に出組詰組とし、向拝廻りの彫刻密度を高める。,https://bunka.nii.ac.jp/heritage/43967/_194665/43967_194665140916101446137_300.jpg
101,00009670,太龍寺多宝塔,たいりゅうじたほうとう,1棟,,登録有形文化財(建造物),宗教,建築物,,江戸,文久元,1861,木造多宝塔、銅板葺、建築面積40㎡,,36 － 0110,75,2013.06.21(平成25.06.21),2013.06.21(平成25.06.21),,20130621,,国土の歴史的景観に寄与しているもの,,徳島県,徳島県阿南市加茂町竜山1他,,宗教法人太龍寺,宗教法人,,33.88159000000000,134.52030000000000,本堂北側の高台に建つ。下層は方三間の周囲に縁を廻らし、組物出組、二軒繁垂木とし、上層は円形平面、四手先組物で二軒扇垂木の軒を支え、上下層とも銅板葺とする。四天柱内を折上格天井とし虚空蔵菩薩を安置する。安定感ある塔姿で、伽藍景観を引立てる。,https://bunka.nii.ac.jp/heritage/43967/_194666/43967_194666140916101448324_300.jpg
101,00009671,太龍寺六角経蔵,たいりゅうじろっかくきょうぞう,1棟,,登録有形文化財(建造物),宗教,建築物,,江戸,安政3,1856,木造平屋建、銅板葺、建築面積35㎡、輪蔵付,,36 － 0111,75,2013.06.21(平成25.06.21),2013.06.21(平成25.06.21),,20130621,,国土の歴史的景観に寄与しているもの,,徳島県,徳島県阿南市加茂町竜山1他,,宗教法人太龍寺,宗教法人,,33.88231000000000,134.52220000000000,境内東方に西面して建つ。六角円堂、銅板葺。各隅に五角柱を立て、外壁は腰高に竪板張とし背面三方に棚を張出す。内部の八角輪蔵は禅宗様でまとめられ、二軒扇垂木で極彩色を施し、随所に錺金具を散らす。幕末の華やかな意匠で荘厳された内部空間が印象的。,https://bunka.nii.ac.jp/heritage/43967/_194667/43967_194667140916101451026_300.jpg
101,00009672,太龍寺本坊,たいりゅうじほんぼう,1棟,,登録有形文化財(建造物),宗教,建築物,,明治,明治28,1895,木造平屋建、銅板葺、建築面積944㎡,,36 － 0112,75,2013.06.21(平成25.06.21),2013.06.21(平成25.06.21),,20130621,,国土の歴史的景観に寄与しているもの,,徳島県,徳島県阿南市加茂町竜山1他,,宗教法人太龍寺,宗教法人,,33.88246000000000,134.52170000000000,東半の方丈と西半の庫裏からなり、いずれも入母屋造銅板葺で、間を唐破風屋根の式台玄関で繋ぐ。方丈は九間取の中央を持仏堂とし、前面に入側を配し、欄間には手の込んだ彫刻欄間を入れる。簡素な外観になる大型の本坊で、落ち着いた境内空間を実現している。,https://bunka.nii.ac.jp/heritage/43967/_194668/43967_194668140916101453165_300.jpg
101,00009673,太龍寺仁王門,たいりゅうじにおうもん,1棟,,登録有形文化財(建造物),宗教,その他工作,,江戸,文化3,1806,木造、銅板葺、間口7.7m,,36 － 0113,75,2013.06.21(平成25.06.21),2013.06.21(平成25.06.21),,20130621,,国土の歴史的景観に寄与しているもの,,徳島県,徳島県阿南市加茂町竜山1他,,宗教法人太龍寺,宗教法人,,33.88360000000000,134.52380000000000,境内東端に東面して建ち、三間一戸八脚門、入母屋造銅板葺で、両脇間後方に仁王像を安置する。円柱を頭貫と腰貫で固め、台輪上に出三斗を据え、軒は二軒繁垂木とする。中央間には絵様虹梁を架け装飾性を高める。山上伽藍の入口を画すに相応しい意匠を持つ。,https://bunka.nii.ac.jp/heritage/43967/_194669/43967_194669140916101455740_300.jpg
101,00009674,太龍寺鐘楼門,たいりゅうじしょうろうもん,1棟,,登録有形文化財(建造物),宗教,その他工作,,明治,明治36,1903,木造、銅板葺、間口5.3m,,36 － 0114,75,2013.06.21(平成25.06.21),2013.06.21(平成25.06.21),,20130621,,国土の歴史的景観に寄与しているもの,,徳島県,徳島県阿南市加茂町竜山1他,,宗教法人太龍寺,宗教法人,,33.88213000000000,134.52120000000000,本坊から本堂に上る石段途中に東面して建つ。三間一戸楼門、入母屋造銅板葺。下層は貫で固め、台輪上に出組とし、門扉を持たない。梵鐘を吊る上層は周囲竪板壁とし、正背面中央間に花頭窓を開く。組物出三斗、軒は二軒扇垂木とし、彫刻は時代的特色を表す。,https://bunka.nii.ac.jp/heritage/43967/_194670/43967_194670140916101458491_300.jpg
101,00010069,佐藤家住宅隠居屋,さとうけじゅうたくいんきょや,1棟,,登録有形文化財(建造物),住宅,建築物,,昭和前,昭和3／平成25改修,1928／2013改修,鉄筋コンクリート造2階建、建築面積56㎡、塔屋付,,36 － 0115,77,2014.04.25(平成26.04.25),2014.04.25(平成26.04.25),,20140425,,再現することが容易でないもの,,徳島県,徳島県徳島市入田町笠木200-6,,,,,34.04084000000000,134.44440000000000,敷地西面北寄りに位置する鉄筋コンクリート造の隠居屋。北半を蔵、南半を畳敷の座敷とし、浴室を突出させる。外壁は腰廻りや入口上部の庇、塔屋を含め、モルタル洗出しで石造風に仕上げる。県内初期の鉄筋コンクリート造技術と伝統的左官技法が融合した建築。,https://bunka.nii.ac.jp/heritage/43967/_196216/43967_196216140718092501416_300.jpg
101,00010070,佐藤家住宅門柱,さとうけじゅうたくもんちゅう,1基,,登録有形文化財(建造物),住宅,その他工作,,昭和前,昭和3頃,1928頃,コンクリート造門柱2基、間口2.8m,,36 － 0116,77,2014.04.25(平成26.04.25),2014.04.25(平成26.04.25),,20140425,,国土の歴史的景観に寄与しているもの,,徳島県,徳島県徳島市入田町笠木200-1,,,,,34.04084000000000,134.44440000000000,敷地南面の中央に位置する正門。高さ三メートルのコンクリート造の門柱で、表面は洗出し仕上げとし、柱頂部は皿斗に似た形の柱頭飾りを付す。門柱上部には鉄製のアーチを架け、中央に飾り付きの照明を付す。隠居屋とともに昭和初期の佇まいを示す。,https://bunka.nii.ac.jp/heritage/43967/_196217/43967_196217140718092502596_300.jpg
101,00010355,大日孁神社本殿,おおひるめじんじゃほんでん,1棟,,登録有形文化財(建造物),宗教,建築物,,明治,明治31年,1898年,木造平屋建、銅板葺、建築面積12㎡,,36-0117,79,2014.12.19(平成26.12.19),2014.12.19(平成26.12.19),,20141219,,造形の規範となっているもの,,徳島県,徳島県三好市山城町光兼字光兼558,,宗教法人大日孁神社,非営利法人,,33.93215000000000,133.72260000000000,境内奥の石垣に建つ流造本殿。尾垂木付三手先で軒や妻を大きく迫出し、腰組を出組で受け、脇障子を隅行に振る。随所を龍や動植物の彫刻で飾り、特に頭貫木鼻は籠彫の中に人物を彫出し、破風は龍を巻付けた立体的な造形とするなど、高い彫刻技法に見応えがある。,https://bunka.nii.ac.jp/heritage/43967/_199273/43967_199273150807110613062_300.jpg
101,00010356,大日孁神社拝殿,おおひるめじんじゃはいでん,1棟,,登録有形文化財(建造物),宗教,建築物,,明治,明治31年,1898年,木造平屋建、銅板葺、建築面積56㎡,,36-0118,79,2014.12.19(平成26.12.19),2014.12.19(平成26.12.19),,20141219,,国土の歴史的景観に寄与しているもの,,徳島県,徳島県三好市山城町光兼字光兼558,,宗教法人大日孁神社,非営利法人,,33.93217000000000,133.72250000000000,本殿前の一段低い位置の石積基壇上に建つ。桁行三間梁間二間、入母屋造で、内部は畳敷で三室に分かれ、欄間に瓢箪や竹の透彫を嵌める。背面張出しに内拝殿と物入を設ける。木鼻も含めた向拝虹梁彫刻に巻付く龍を表す技法などに、本殿と共通の意匠を見せる。,https://bunka.nii.ac.jp/heritage/43967/_199128/43967_199128150807110614748_300.jpg
101,00010514,森本家住宅主屋,もりもとけじゅうたくしゅおく,1棟,,登録有形文化財(建造物),住宅,建築物,,江戸,江戸末期／明治後期改修,1830～1868／1898～1912改修,木造平屋建、茅葺（鉄板仮葺）、建築面積176㎡,,36 － 0119,80,2015.03.26(平成27.03.26),2015.03.26(平成27.03.26),,20150326,,国土の歴史的景観に寄与しているもの,,徳島県,徳島県勝浦郡勝浦町大字坂本字生実32,,,,,33.93225000000000,134.44630000000000,黄檗川支流の谷あいの敷地に南面する。桁行八間梁間五間半、寄棟造茅葺（鉄板仮葺）で、下屋は本瓦葺とし、土間の竈上部に切妻の煙出を付す。平面は西を土間とし、床上部は前後二列に部屋を並べ南東を主座敷として縁を廻らす。山間地の近世民家の特徴を伝える。,https://bunka.nii.ac.jp/heritage/43967/_199455/43967_199455151005165740989_300.jpg
101,00010515,森本家住宅離れ,もりもとけじゅうたくはなれ,1棟,,登録有形文化財(建造物),住宅,建築物,,明治,明治後期,1898～1912,木造平屋建、瓦葺、建築面積57㎡,,36 － 0120,80,2015.03.26(平成27.03.26),2015.03.26(平成27.03.26),,20150326,,造形の規範となっているもの,,徳島県,徳島県勝浦郡勝浦町大字坂本字生実32,,,,,33.93225000000000,134.44650000000000,主屋の南西に建つ離れ。入母屋造及び切妻造桟瓦葺で東面以外の三方に縁を廻らし本瓦葺の下屋とする。八畳と六畳を並べ、ケヤキやツガ、屋久杉などの良材を使うほか、サルスベリの落掛、技巧的な床脇、精緻な透彫欄間など、見応えある上質な近代和風建築。,https://bunka.nii.ac.jp/heritage/43967/_199456/43967_199456151005165741970_300.jpg
101,00010516,森本家住宅納屋,もりもとけじゅうたくなや,1棟,,登録有形文化財(建造物),住宅,建築物,,明治,明治期,1868～1912,木造2階建、瓦葺、建築面積74㎡,,36 － 0121,80,2015.03.26(平成27.03.26),2015.03.26(平成27.03.26),,20150326,,国土の歴史的景観に寄与しているもの,,徳島県,徳島県勝浦郡勝浦町大字坂本字生実32,,,,,33.93206000000000,134.44630000000000,主屋の南西に東面して建つ。建ちの低い二階建で、北面切妻造南面入母屋造、本瓦葺とし、東と南に下屋、北東に風呂を附属する。一階内部はほぼ同規模の二室とし、二階は北を大部屋とした二室である。主屋正面を囲む納屋であり、屋敷地の景観を引き締める。,https://bunka.nii.ac.jp/heritage/43967/_199457/43967_199457151005165742894_300.jpg
101,00010517,森本家住宅古蔵,もりもとけじゅうたくふるぐら,1棟,,登録有形文化財(建造物),住宅,建築物,,江戸,文化6(1809),1809,土蔵造2階建、瓦葺、建築面積22㎡,,36 － 0122,80,2015.03.26(平成27.03.26),2015.03.26(平成27.03.26),,20150326,,国土の歴史的景観に寄与しているもの,,徳島県,徳島県勝浦郡勝浦町大字坂本字生実32,,,,,33.93224000000000,134.44620000000000,主屋北側西寄りに南面して建つ。土蔵造二階建、切妻造本瓦葺で、南面戸口に下屋を付す。外壁は漆喰塗で鉢巻を廻らし、腰を簓子下見板張とする。二階南面と西面に窓を配し、片開の鉄扉を付ける。内部は板床で壁は竪板張とする。近世の庄屋の屋敷構えを伝える。,https://bunka.nii.ac.jp/heritage/43967/_199458/43967_199458151005165743847_300.jpg
101,00010518,森本家住宅新蔵,もりもとけじゅうたくしんぐら,1棟,,登録有形文化財(建造物),住宅,建築物,,明治,明治40,1907,土蔵造2階建、瓦葺、建築面積31㎡,,36 － 0123,80,2015.03.26(平成27.03.26),2015.03.26(平成27.03.26),,20150326,,国土の歴史的景観に寄与しているもの,,徳島県,徳島県勝浦郡勝浦町大字坂本字生実32,,,,,33.93230000000000,134.44630000000000,主屋北側東寄り、古蔵に並んで建つ。土蔵造二階建、切妻造本瓦葺で南面戸口に下屋を付す。外壁漆喰塗で腰を簓子下見板張とし、内部は竪板張とする。鉢巻の妻面拝みに鰭付懸魚を模した鏝細工を飾り、窓額縁にも鏝絵を付すなど、意匠的工夫が施される。,https://bunka.nii.ac.jp/heritage/43967/_199459/43967_199459151005165744792_300.jpg
101,00010519,森本家住宅表門,もりもとけじゅうたくおもてもん,1棟,,登録有形文化財(建造物),住宅,その他工作物,,明治,明治後期,1898～1912,木造、瓦葺、間口2.0m,,36 － 0124,80,2015.03.26(平成27.03.26),2015.03.26(平成27.03.26),,20150326,,国土の歴史的景観に寄与しているもの,,徳島県,徳島県勝浦郡勝浦町大字坂本字生実32,,,,,,,離れの南の通路に建つ、一間薬医門、切妻造本瓦葺。棟は青海波として鬼瓦に鳥衾を載せ、破風拝に鰭付懸魚を吊る。柱間は板戸両開とし、北側柱は離れ南側の板塀に接し、南は本柱と控柱の間に下見板を張り、石垣に接続する。谷あいの屋敷地入口を飾る門。,https://bunka.nii.ac.jp/heritage/43967/_199460/43967_199460151005165745767_300.jpg
101,00010689,徳島県立城北高等学校人形会館,とくしまけんりつじょうほくこうとうがっこうにんぎょうかいかん,1棟,,登録有形文化財(建造物),学校,建築物,,昭和中,昭和40年,1965,木造平屋建、瓦葺、建築面積282㎡,,36－0125,81,2015.08.04(平成27.08.04),2015.08.04(平成27.08.04),,20150804,,国土の歴史的景観に寄与しているもの,,徳島県,徳島県徳島市北田宮4-13-6,,徳島県,都道府県,,34.08888000000000,134.53120000000000,人形浄瑠璃の盛んな当地で、学校に併設された本格的な芝居小屋。舞台は二段構成とし、右手前に太夫座を張出す。舞台上部に葡萄棚を設けて舞台裏に控室などを配し、客席は升席とする。海鼠壁と赤塗の高欄ともに特徴的な外観になり、伝統芸能の伝承拠点となる。,https://bunka.nii.ac.jp/heritage/43967/_201263/43967_201263151228153650382_300.jpg
101,00010690,炭米穀店店舗兼主屋,すみべいこくてんてんぽけんしゅおく,1棟,,登録有形文化財(建造物),産業3次,建築物,,大正,大正元年,1912,木造2階建、瓦葺、建築面積164㎡,,36－0126,81,2015.08.04(平成27.08.04),2015.08.04(平成27.08.04),,20150804,,国土の歴史的景観に寄与しているもの,,徳島県,徳島県鳴門市撫養町南浜字蛭子前東41,,,,,34.17475000000000,134.60330000000000,通り沿いに建つ、米穀店の店舗兼用住宅。木造二階建で屋根を本瓦葺とし、正面の上下階とも出格子を配する。内部は一階前面を広いミセとし、東寄りに二室続きの座敷を並べて座敷飾を設え、東の庭側に廊下を付す。四国の玄関口としての賑わいを伝える商家建築。,https://bunka.nii.ac.jp/heritage/43967/_201264/43967_201264151228153651991_300.jpg
101,00010691,西圓寺本堂,さいえんじほんどう,1棟,,登録有形文化財(建造物),宗教,建築物,,昭和前,昭和7年,1932,木造平屋建、瓦葺、建築面積222㎡,,36－0127,81,2015.08.04(平成27.08.04),2015.08.04(平成27.08.04),,20150804,,国土の歴史的景観に寄与しているもの,,徳島県,徳島県吉野川市鴨島町麻植塚365,,宗教法人西圓寺,学校法人,,34.07165000000000,134.37590000000000,洋行した当時の住職が椅子式仏堂への指向を提唱し、外観にも洋風意匠を取り入れた。内陣部は和風の入母屋造平入とするが、外陣部分は正面入母屋の妻を半切妻形式とし、正面に車寄を付ける。壁は洋風の横板張で壁面に上下窓を配する。独創的な形式の真宗本堂。,https://bunka.nii.ac.jp/heritage/43967/_201265/43967_201265151228153652799_300.jpg
101,00010692,村田旅館本館,むらたりょかんほんかん,1棟,,登録有形文化財(建造物),産業3次,建築物,,昭和前,昭和5年頃,1930頃,木造2階建、瓦葺、建築面積69㎡,,36－0128,81,2015.08.04(平成27.08.04),2015.08.04(平成27.08.04),,20150804,,国土の歴史的景観に寄与しているもの,,徳島県,徳島県吉野川市美郷字古土地134-2,,,,,34.03172000000000,134.29900000000000,四国山地の山間部に位置する店舗兼旅館。一階に店舗、二階に客室用の座敷を配し、二階は敷地の高低差のため、背面側から直接に出入りができるようになっている。座敷は八畳と六畳からなり、外廻りに高欄をまわすなど山間地における旅館の風情を醸している。,https://bunka.nii.ac.jp/heritage/43967/_201266/43967_201266151228153654386_300.jpg
101,00010693,村田旅館蔵,むらたりょかんくら,1棟,,登録有形文化財(建造物),産業3次,建築物,,大正,大正5年,1916,土蔵造2階建、瓦葺、建築面積25㎡,,36－0129,81,2015.08.04(平成27.08.04),2015.08.04(平成27.08.04),,20150804,,国土の歴史的景観に寄与しているもの,,徳島県,徳島県吉野川市美郷字古土地131-4,,,,,34.03188000000000,134.29880000000000,本館から客室棟を挟んで背後の西方に建つ。土蔵造二階建で、桁行五・七メートル梁間四・三メートルである。小屋組は登梁形式とし、二階内法が比較的高い。東正面一階には腕木を出して庇を設ける。敷地形状を利用し、背後の川と相まって、歴史的景観をなす。,https://bunka.nii.ac.jp/heritage/43967/_201267/43967_201267151228153655209_300.jpg
101,00011214,今宮神社本殿,いまみやじんじゃほんでん,1棟,,登録有形文化財(建造物),宗教,建築物,,大正,大正4,1915,木造平屋建、銅板葺、建築面積6.0㎡,,36 - 0130,84,2016.08.01(平成28.08.01),2016.08.01(平成28.08.01),,20160801,,国土の歴史的景観に寄与しているもの,,徳島県,徳島県三好市井川町辻316-1,,宗教法人今宮神社,宗教法人,,34.02760000000000,133.88050000000000,伊予街道の旧道から石段を上がった傾斜地に境内を構える。一間社流造の小規模社殿。舟肘木で桁を受け、妻は豕扠首とし、破風に懸魚を付けるほかは装飾要素を抑えた簡素な外観を持つ。設計は徳島県立工業学校の福永嘉吉。煙草産業での繁栄を伝える。,https://bunka.nii.ac.jp/heritage/43967/_205321/43967_205321001061630713548_300.jpg
101,00011215,今宮神社拝殿,いまみやじんじゃはいでん,1棟,,登録有形文化財(建造物),宗教,建築物,,大正,大正4,1915,木造平屋建、銅板葺、建築面積16㎡,,36 - 0131,84,2016.08.01(平成28.08.01),2016.08.01(平成28.08.01),,20160801,,国土の歴史的景観に寄与しているもの,,徳島県,徳島県三好市井川町辻316-1,,宗教法人今宮神社,宗教法人,,34.02768000000000,133.88030000000000,本殿の正面に建つ方一間入母屋造妻入の建物で、柱間を吹き放して床を張る。天井は格天井、妻には木連格子を嵌める。舞殿とも称され、神楽殿のような使い方も想定されていたとみられる。本殿同様、装飾を抑えた簡明な外観とする。近代の社頭景観を構成する。,https://bunka.nii.ac.jp/heritage/43967/_205322/43967_205322887993167138593_300.jpg
101,00011216,今宮神社神門及び瑞垣,いまみやじんじゃしんもんおよびみずがき,1棟,,登録有形文化財(建造物),宗教,その他工作物,,大正,大正4,1915,神門　木造、銅板葺、間口2.7m　瑞垣　木造、鉄板葺、延長48m,,36 - 0132,84,2016.08.01(平成28.08.01),2016.08.01(平成28.08.01),,20160801,,国土の歴史的景観に寄与しているもの,,徳島県,徳島県三好市井川町辻316-1,,宗教法人今宮神社,宗教法人,,34.02765000000000,133.88040000000000,本殿と拝殿の間に神門を開け、神門に続いて本殿を囲繞する瑞垣を廻らす。神門は切妻造妻入の一間一戸門で、前面柱筋に上部を菱格子とする桟唐戸を吊る。瑞垣は切石積基壇上に木造で建て、上部を、正面側で菱格子、側背面では縦格子として正面を飾り立てる。,https://bunka.nii.ac.jp/heritage/43967/_205323/43967_205323209828361773701_300.jpg
101,00011404,地蔵寺寳珠院主屋,じぞうじほうじゅいんしゅおく,1棟,,登録有形文化財(建造物),住宅,建築物,,明治,明治37,1904,木造2階建、瓦葺、建築面積160㎡、塀付,,36－0133,85,2016.11.29(平成28.11.29),2016.11.29(平成28.11.29),,20161129,,造形の規範となっているもの,,徳島県,徳島県小松島市松島町字松島104,,宗教法人地蔵寺,非営利法人,,34.00847000000000,134.58230000000000,徳島の外港として栄えた小松島市街地に建つ、切妻造本瓦葺の二階建で、南面し、四方に桟瓦葺下屋を設ける。東寄りに玄関土間を配し、庭に面する南西隅表座敷には二方に内縁をとる。二階も全体を居室とし、南東隅を一二畳座敷とする。近代和風住宅の秀作。,https://bunka.nii.ac.jp/heritage/43967/_209241/43967_209241458432991519090_300.jpg
101,00011405,地蔵寺寳珠院釜屋,じぞうじほうじゅいんかまや,1棟,,登録有形文化財(建造物),住宅,建築物,,大正,大正期,1912～1926,木造2階建、瓦葺、建築面積73㎡、塀付,,36－0134,85,2016.11.29(平成28.11.29),2016.11.29(平成28.11.29),,20161129,,造形の規範となっているもの,,徳島県,徳島県小松島市松島町字松島104,,宗教法人地蔵寺,非営利法人,,34.00848000000000,134.58240000000000,主屋の東にほぼ接する形で建つ。木造二階建、切妻造本瓦葺で、下屋は主屋と同じく桟瓦葺とする。一階南半は石敷土間で竈を設け、北半は物置等とする。二階は中央の吹き抜けを挟んで南に女衆部屋、北に男衆部屋を取る。主屋の土間部の機能が分離したもの。,https://bunka.nii.ac.jp/heritage/43967/_209242/43967_209242249082271433343_300.jpg
101,00011406,地蔵寺寳珠院離れ,じぞうじほうじゅいんはなれ,1棟,,登録有形文化財(建造物),住宅,建築物,,大正,大正期,1912～1926,木造2階建、瓦葺、建築面積24㎡,,36－0135,85,2016.11.29(平成28.11.29),2016.11.29(平成28.11.29),,20161129,,造形の規範となっているもの,,徳島県,徳島県小松島市松島町字松島104,,宗教法人地蔵寺,非営利法人,,34.00855000000000,134.58240000000000,主屋の背面側東寄りに建ち、主屋の内縁に接続する。木造二階建、寄棟造桟瓦葺で、一階には居室と便所、湯殿を配し、二階は八畳半の一室として屋久杉を用いた棹縁天井、紙貼の壁などで意匠を凝らしている。上質な内容を持つ離れで、住宅機能拡張の過程を示す。,https://bunka.nii.ac.jp/heritage/43967/_209243/43967_209243507416644887211_300.jpg
101,00011407,地蔵寺寳珠院蔵,じぞうじほうじゅいんくら,1棟,,登録有形文化財(建造物),住宅,建築物,,明治,明治36,1903,土蔵造2階建、瓦葺、建築面積54㎡、塀付,,36－0136,85,2016.11.29(平成28.11.29),2016.11.29(平成28.11.29),,20161129,,国土の歴史的景観に寄与しているもの,,徳島県,徳島県小松島市松島町字松島104,,宗教法人地蔵寺,非営利法人,,34.00861000000000,134.58230000000000,主屋背面側に建ち、敷地の北西隅を画す。土蔵造二階建、切妻造で本瓦葺とする。桁行一一メートル、梁間四・八メートルの規模で、南面には縁を設け、離れや主屋とつなぐ。内部は一階を二室、二階を一室とし、家財道具等を収める。敷地景観を形成している。,https://bunka.nii.ac.jp/heritage/43967/_209244/43967_209244706557212600322_300.jpg
101,00011408,地蔵寺寳珠院便所,じぞうじほうじゅいんべんじょ,1棟,,登録有形文化財(建造物),住宅,建築物,,大正,大正期,1912～1926,木造平屋建、瓦葺、建築面積8.6㎡,,36－0137,85,2016.11.29(平成28.11.29),2016.11.29(平成28.11.29),,20161129,,造形の規範となっているもの,,徳島県,徳島県小松島市松島町字松島104,,宗教法人地蔵寺,非営利法人,,34.00849000000000,134.58220000000000,主屋表座敷内縁の北端に接続する来客用便所。桟瓦葺で、西側を切妻、主屋側を寄棟でまとめる。入口脇には飾棚を設け、天井の一部を網代張とする。外部も南面小庇を皮付丸太垂木の銅板葺とし、東・北の腰部を丸竹張とするなど、小ぶりながら意匠を凝らしている。,https://bunka.nii.ac.jp/heritage/43967/_209245/43967_209245689673077656977_300.jpg
101,00011409,地蔵寺寳珠院表門及び塀,じぞうじほうじゅいんおもてもんおよびへい,1棟,,登録有形文化財(建造物),住宅,その他工作物,,大正,大正期,1912～1926,門　木造、瓦葺、間口2.3m　塀　木造、銅板葺、総延長34m,,36－0138,85,2016.11.29(平成28.11.29),2016.11.29(平成28.11.29),,20161129,,造形の規範となっているもの,,徳島県,徳島県小松島市松島町字松島104,,宗教法人地蔵寺,非営利法人,,34.00834000000000,134.58250000000000,敷地の南面を画す。表門は間口二・三メートルで、切妻造本瓦葺。塀は竪羽目板で、笠木を銅板で覆い、門脇は基礎石を含め曲線状に納める。表門欄間に雲形の透かし彫りを施し、二枚建の連子格子戸は二枚とも東側の戸袋に引き込むなど、細かな細工が見られる。,https://bunka.nii.ac.jp/heritage/43967/_209246/43967_209246981849157912600_300.jpg
101,00011410,地蔵寺寳珠院中門及び塀,じぞうじほうじゅいんちゅうもんおよびへい,1棟,,登録有形文化財(建造物),住宅,その他工作物,,大正,大正期,1912～1926,門　木造、瓦葺、間口1.2m　塀　木造、瓦葺、総延長5.9m,,36－0139,85,2016.11.29(平成28.11.29),2016.11.29(平成28.11.29),,20161129,,国土の歴史的景観に寄与しているもの,,徳島県,徳島県小松島市松島町字松島104,,宗教法人地蔵寺,非営利法人,,34.00837000000000,134.58240000000000,主屋玄関脇から真南に伸びて表側の塀とを結び、内庭を区画する。総延長七・一メートルの桟瓦葺で、基礎石上に竪板を羽重ねに張り、上部は漆喰塗として竹連子の欄間を設ける。中央部には間口一間、両開き板戸の塀中門を開く。敷地の景観を整える塀である。,https://bunka.nii.ac.jp/heritage/43967/_209247/43967_209247928003028729980_300.jpg
101,00011411,地蔵寺寳珠院西塀,じぞうじほうじゅいんにしべい,1棟,,登録有形文化財(建造物),住宅,その他工作物,,大正,大正期,1912～1926,土塀、瓦葺、延長25m,,36－0140,85,2016.11.29(平成28.11.29),2016.11.29(平成28.11.29),,20161129,,国土の歴史的景観に寄与しているもの,,徳島県,徳島県小松島市松島町字松島104,,宗教法人地蔵寺,非営利法人,,34.00846000000000,134.58220000000000,敷地の西側を画す土塀。北端は蔵の西南隅に、南端は正面側の塀に接する。延長二五メートルで、高さは三・六メートル。表側の塀の高さまでの腰部を竪板張、上部を漆喰塗とし、桟瓦を葺く。長い白漆喰塗の壁で、地域の景観を形づくっている。,https://bunka.nii.ac.jp/heritage/43967/_209248/43967_209248029820132005993_300.jpg
101,00011412,内田家住宅主屋,うちだけじゅうたくしゅおく,1棟,,登録有形文化財(建造物),住宅,建築物,,明治,明治33,1900,木造2階建、瓦葺、建築面積160㎡,,36－0141,85,2016.11.29(平成28.11.29),2016.11.29(平成28.11.29),,20161129,,造形の規範となっているもの,,徳島県,徳島県三好市池田町サラダ1731-1,,,,,34.02825000000000,133.81160000000000,池田の町並みのやや東寄りに西面して建つ。南寄りに土間を通して北半を床上部四室とし、ミセ、座敷を連ねる。土間奥には台所等を突出させる。正面は重厚な袖うだつや出格子窓を構えるほか、室内も良材を用いて意匠を凝らす。地域の特色をよく備える町家である。,https://bunka.nii.ac.jp/heritage/43967/_209249/43967_209249816809822122612_300.jpg
101,00011413,内田家住宅蔵,うちだけじゅうたくくら,1棟,,登録有形文化財(建造物),住宅,建築物,,明治,明治後期,1898～1912,土蔵造2階建、瓦葺、建築面積85㎡,,36－0142,85,2016.11.29(平成28.11.29),2016.11.29(平成28.11.29),,20161129,,国土の歴史的景観に寄与しているもの,,徳島県,徳島県三好市池田町サラダ1731-1,,,,,34.02836000000000,133.81160000000000,主屋の北側、敷地の西北隅に建ち、主屋と並んで妻面を見せる。土蔵造二階建で、腰部は板張とする。主屋に面した南側に下屋をかけ、扉口を開き、内部は一・二階とも東寄りを別室に区画する。角地に立ち、刻み煙草製造等で栄えた往時をしのばせる。,https://bunka.nii.ac.jp/heritage/43967/_209250/43967_209250401638662626907_300.jpg
101,00011414,住吉家住宅主屋,すみよしけじゅうたくしゅおく,1棟,,登録有形文化財(建造物),住宅,建築物,,明治,明治中期,1883～1897,木造2階建、瓦葺、建築面積216㎡,,36－0143,85,2016.11.29(平成28.11.29),2016.11.29(平成28.11.29),,20161129,,造形の規範となっているもの,,徳島県,徳島県三好市池田町マチ2223,,,,,34.02930000000000,133.80910000000000,間口一六メートル強の大規模商家。正面向かって左に広い土間を取り、右を床上部とし、背面に内庭を構えてその奥を渡り廊下を介した便所等とする。重厚な袖うだつを構え、一階の座敷一〇畳は棹縁天井を曲線状に張るなど内部意匠にも贅を尽くした建物である。,https://bunka.nii.ac.jp/heritage/43967/_209251/43967_209251506121705618534_300.jpg
101,00011415,亀長家住宅主屋,かめながけじゅうたくしゅおく,1棟,,登録有形文化財(建造物),住宅,建築物,,明治,明治40,1907,木造2階建、瓦葺、建築面積157㎡,,36－0144,85,2016.11.29(平成28.11.29),2016.11.29(平成28.11.29),,20161129,,造形の規範となっているもの,,徳島県,徳島県三好市池田町マチ2266-2他,,,,,34.02886000000000,133.81200000000000,長方形敷地に南面して建つ。木造二階建、切妻造の平入で、正面西寄りに土間を設けてマエノマ（ミセ）とし、居室四室の背後には中庭を設け、その奥にヌレエンを介して浴室等を配する。袖うだつを構える外観や、豪壮な根太天井など意匠を凝らす。,https://bunka.nii.ac.jp/heritage/43967/_209252/43967_209252521268876810481_300.jpg
101,00011416,亀長家住宅蔵,かめながけじゅうたくくら,1棟,,登録有形文化財(建造物),住宅,建築物,,明治,明治後期,1898～1912,木造2階建、瓦葺、建築面積62㎡,,36－0145,85,2016.11.29(平成28.11.29),2016.11.29(平成28.11.29),,20161129,,国土の歴史的景観に寄与しているもの,,徳島県,徳島県三好市池田町マチ2266-2他,,,,,34.02904000000000,133.81200000000000,主屋の背面西寄りに南北棟で建つ土蔵。桁行一三メートル、梁間五メートルで屋根は桟瓦葺。砂岩の切石を基礎とし、東面に扉口を開いて一・二階とも一室とする。二階には天井を張り、小屋組を見せない。煙草製造や物資の集積地として栄えた地域の歴史を伝える。,https://bunka.nii.ac.jp/heritage/43967/_209253/43967_209253992940540998430_300.jpg
101,00011417,宮本家住宅主屋,みやもとけじゅうたくしゅおく,1棟,,登録有形文化財(建造物),住宅,建築物,,明治,明治後期,1898～1912,木造2階建、瓦葺、建築面積149㎡,,36－0146,85,2016.11.29(平成28.11.29),2016.11.29(平成28.11.29),,20161129,,造形の規範となっているもの,,徳島県,徳島県三好市池田町マチ2339-1,,,,,34.02962000000000,133.81220000000000,南面して建つ。左に通り土間を取り、床上部正面土間側をミセとし、居室四室の背後に中庭を配する構成はこの地域の標準的な姿。二階も四室とする。袖うだつを備え伝統的な意匠でまとめるが、正面出格子下や中庭側の二階手摺子などに洋風意匠も取り入れている。,https://bunka.nii.ac.jp/heritage/43967/_209254/43967_209254555099800348054_300.jpg
101,00011418,佐藤家住宅主屋,さとうけじゅうたくしゅおく,1棟,,登録有形文化財(建造物),住宅,建築物,,明治,明治29,1896,木造2階建、瓦葺、建築面積119㎡,,36－0147,85,2016.11.29(平成28.11.29),2016.11.29(平成28.11.29),,20161129,,造形の規範となっているもの,,徳島県,徳島県三好市池田町マチ2343,,,,,34.02961000000000,133.81210000000000,木造二階建、本瓦葺平入の町家。正面右手にミセを配し、通り土間は半間幅で左手に通す。ミセの背後に一〇畳間を介して中庭を取り、二階は四室とする。正面に袖うだつを備え、一階袖壁も漆喰塗とし、その脇を海鼠壁とするなど、地域の中で特色ある外観を示す。,https://bunka.nii.ac.jp/heritage/43967/_209255/43967_209255038811628906458_300.jpg
101,00011419,藤田家住宅主屋,ふじたけじゅうたくしゅおく,1棟,,登録有形文化財(建造物),住宅,建築物,,昭和前,昭和2頃,1927頃,木造2階建、瓦葺、建築面積180㎡,,36－0148,85,2016.11.29(平成28.11.29),2016.11.29(平成28.11.29),,20161129,,国土の歴史的景観に寄与しているもの,,徳島県,徳島県板野郡北島町新喜来字南古田57,,,,,34.12888000000000,134.54600000000000,吉野川河口域の三角州平野に建つ農家。敷地中央に南面して建つ。切妻造本瓦葺で、四方に下屋をかける。土間を三室に区画し、二階南端に季節ごとに建具を入れ替えるための七畳大納戸を設ける。近代における農家の好例で、地域の農村景観を今に伝える。,https://bunka.nii.ac.jp/heritage/43967/_209256/43967_209256839456760531708_300.jpg
101,00011420,藤田家住宅裏納屋兼離れ,ふじたけじゅうたくうらなやけんはなれ,1棟,,登録有形文化財(建造物),住宅,建築物,,大正,大正12頃,1923頃,木造2階一部平屋建、瓦葺、建築面積122㎡,,36－0149,85,2016.11.29(平成28.11.29),2016.11.29(平成28.11.29),,20161129,,国土の歴史的景観に寄与しているもの,,徳島県,徳島県板野郡北島町新喜来字南古田57,,,,,34.12898000000000,134.54580000000000,主屋背面、敷地の北西隅に建つ。西半の納屋は外壁下見板張の切妻造二階建。東半の離れは入母屋の平屋で、主屋と渡廊下を介して接続し、東と南に内縁を廻らして六畳間と八畳座敷を置く。内縁天井は磨き丸太の扇垂木を疎らに配すなど内部意匠にも意を凝らす。,https://bunka.nii.ac.jp/heritage/43967/_209257/43967_209257001893056856592_300.jpg
101,00011421,藤田家住宅納屋,ふじたけじゅうたくなや,1棟,,登録有形文化財(建造物),住宅,建築物,,大正,大正後期,1919～1926,木造2階建、瓦葺、建築面積38㎡,,36－0150,85,2016.11.29(平成28.11.29),2016.11.29(平成28.11.29),,20161129,,国土の歴史的景観に寄与しているもの,,徳島県,徳島県板野郡北島町新喜来字南古田57,,,,,34.12887000000000,134.54610000000000,敷地東端の中ほどに建つ納屋。後補の下屋を介して主屋の南東隅に接する。木造二階建、切妻造本瓦葺で、桁行七・八メートル、梁間四・九メートルの規模を有する。小屋は登梁と水平梁を混用する。農作業の用具等を納め、屋敷の機能上欠くことのできない建物。,https://bunka.nii.ac.jp/heritage/43967/_209258/43967_209258475321997041121_300.jpg
101,00011422,藤田家住宅蔵,ふじたけじゅうたくくら,1棟,,登録有形文化財(建造物),住宅,建築物,,明治,明治28,1895,土蔵造2階建、瓦葺、建築面積23㎡,,36－0151,85,2016.11.29(平成28.11.29),2016.11.29(平成28.11.29),,20161129,,国土の歴史的景観に寄与しているもの,,徳島県,徳島県板野郡北島町新喜来字南古田57,,,,,34.12887000000000,134.54580000000000,主屋西方に建つ。柱を密に立てる土蔵造二階建、切妻造本瓦葺で、内部は一・二階とも一室とし、南妻右寄りに扉口を開く。基礎石を高く積んで床面を高め、腰部は下見板張り、上部は軒まで漆喰で塗籠める。古くから洪水に悩まされた河口域の蔵の特色を備える。,https://bunka.nii.ac.jp/heritage/43967/_209259/43967_209259922112518193853_300.jpg
101,00011423,藤田家住宅長屋門及び塀,ふじたけじゅうたくながやもんおよびへい,1棟,,登録有形文化財(建造物),住宅,建築物,,明治,明治38／明治41・昭和前期増築,1905／1908・1926～1945増築,長屋門　木造平屋建、瓦葺、建築面積39㎡　塀　鉄筋コンクリート造、延長12m,,36－0152,85,2016.11.29(平成28.11.29),2016.11.29(平成28.11.29),,20161129,,国土の歴史的景観に寄与しているもの,,徳島県,徳島県板野郡北島町新喜来字南古田57,,,,,34.12872000000000,134.54590000000000,敷地西面南方を画す。南から番屋、牛小屋、門、便所を配し、北にドイツ壁風の鉄筋コンクリート塀を蔵まで延ばす。屋根はいずれも本瓦葺とし、門は一段高く切り上げる。番屋と牛小屋は下見板張り、便所は腰モルタル上部漆喰塗とし、変化のある表構えをつくる。,https://bunka.nii.ac.jp/heritage/43967/_209260/43967_209260379350662346674_300.jpg
101,00011564,別所堂,べっしょどう,1棟,,登録有形文化財(建造物),宗教,建築物,,江戸,江戸末期,1830～1868,木造平屋建、瓦葺、建築面積21㎡,,36-0153,86,2017.05.02(平成29.05.02),2017.05.02(平成29.05.02),,20170502,,国土の歴史的景観に寄与しているもの,,徳島県,徳島県美馬郡つるぎ町貞光字別所25-1,,宗教法人眞光寺,非営利法人,,34.02349000000000,134.06430000000000,端四国八十八箇所霊場の第一一番札所。宝形造の三間堂で、三方吹放ち。中央奥に幅広の仏間を張出し、三方に縁を廻らす。天井は棹縁天井とする。現在は桟瓦葺であるが、第二次大戦前は茅葺であったと伝える。地域信仰の有り様を今に伝えている。,https://bunka.nii.ac.jp/heritage/43967/_210553/43967_210553732378035276649_300.jpg
101,00011565,大泉堂,おおいずみどう,1棟,,登録有形文化財(建造物),宗教,建築物,,江戸,江戸中期,1661～1751,木造平屋建、瓦葺、建築面積17㎡,,36-0154,86,2017.05.02(平成29.05.02),2017.05.02(平成29.05.02),,20170502,,国土の歴史的景観に寄与しているもの,,徳島県,徳島県美馬郡つるぎ町貞光字岡335,,宗教法人眞光寺,非営利法人,,34.02769000000000,134.07010000000000,端四国八十八箇所霊場の第一三番札所。宝形造本瓦葺の三間堂で、桁行四・〇メートル、梁間三・九メートルの規模の三方吹放ち。中央奥に仏間を張出し、天井は棹縁天井とする。縁を設けない簡易な作りながら、本瓦をもちいるなど重厚な雰囲気を見せる。,https://bunka.nii.ac.jp/heritage/43967/_210498/43967_210498032707783814530_300.jpg
101,00011566,白村堂,しらむらどう,1棟,,登録有形文化財(建造物),宗教,建築物,,江戸,天保11年（1840）,1840,木造平屋建、茅葺（鉄板仮葺）、建築面積29㎡,,36-0155,86,2017.05.02(平成29.05.02),2017.05.02(平成29.05.02),,20170502,,国土の歴史的景観に寄与しているもの,,徳島県,徳島県美馬郡つるぎ町貞光字白村194,,宗教法人眞光寺,非営利法人,,34.03096000000000,134.07420000000000,端四国八十八箇所霊場の第一四番札所。入母屋造茅葺（鉄板仮葺）の三間堂で、四方吹放ちの四方に縁を廻らす。軒は繁垂木とする。中央奥の柱筋より前に仏間を配し、天井は棹縁天井とする。虹梁を配して木鼻を付けるなど、比較的装飾豊かである。,https://bunka.nii.ac.jp/heritage/43967/_210554/43967_210554772042711193556_300.jpg
101,00011567,日浦堂,ひうらどう,1棟,,登録有形文化財(建造物),宗教,建築物,,江戸,天明8年（1788）／平成24年改修,1788/2012改修,木造平屋建、鋼板葺、建築面積25㎡,,36-0156,86,2017.05.02(平成29.05.02),2017.05.02(平成29.05.02),,20170502,,国土の歴史的景観に寄与しているもの,,徳島県,徳島県美馬郡つるぎ町貞光字日浦72,,宗教法人東福寺,非営利法人,,33.99015000000000,134.08200000000000,端四国八十八箇所霊場の第二六番札所。寄棟造鉄板葺の三間堂で、背面側を三間幅の仏間とし、三方吹放ちの四方に縁を廻らし、正面中央間には向拝一間を設ける。天井は棹縁天井とする。仏間、向拝等に彫刻を施す。仏間の規模が大きく、比較的装飾豊かである。,https://bunka.nii.ac.jp/heritage/43967/_210499/43967_210499410615986196551_300.jpg
101,00011568,長瀬堂,ながせどう,1棟,,登録有形文化財(建造物),宗教,建築物,,明治,明治30年,1897,木造平屋建、瓦葺、建築面積26㎡,,36-0157,86,2017.05.02(平成29.05.02),2017.05.02(平成29.05.02),,20170502,,国土の歴史的景観に寄与しているもの,,徳島県,徳島県美馬郡つるぎ町貞光字長瀬196,,宗教法人東福寺,非営利法人,,33.99952000000000,134.08570000000000,端四国八十八箇所霊場の第二八番札所。宝形造桟瓦葺の三間堂で、背面側に仏間を突出させる。四方吹放ちの四周に縁を廻らし、正面中央間は縁を切りこんで木階を設ける。天井は棹縁天井とする。仏間廻りには彫刻を施すが、全体に簡素な意匠でまとめている。,https://bunka.nii.ac.jp/heritage/43967/_210500/43967_210500263334832442107_300.jpg
101,00011569,吉良堂,きらどう,1棟,,登録有形文化財(建造物),宗教,建築物,,江戸,文化7年（1810）／平成17年改修,1810/2005改修,木造平屋建、茅葺（鉄板仮葺）、建築面積35㎡,,36-0158,86,2017.05.02(平成29.05.02),2017.05.02(平成29.05.02),,20170502,,国土の歴史的景観に寄与しているもの,,徳島県,徳島県美馬郡つるぎ町貞光字吉良346-3,,宗教法人東福寺,非営利法人,,33.99413000000000,134.07240000000000,端四国八十八箇所霊場の第三〇番札所。寄棟造茅葺（鉄板仮葺）の三間堂で、背面側を三間幅の仏間とし、三方吹放ちの三方に縁を廻らす。正面中央間には虹梁をかけ、天井は棹縁天井とする。背面中央間を円柱とし、随所に彫刻を施し木鼻を付ける。比較的大型の堂宇。,https://bunka.nii.ac.jp/heritage/43967/_210501/43967_210501441774157402613_300.jpg
101,00011570,皆瀬堂,かいぜどう,1棟,,登録有形文化財(建造物),宗教,建築物,,江戸,文化13年（1816）,1816,木造平屋建、瓦葺、建築面積27㎡,,36-0159,86,2017.05.02(平成29.05.02),2017.05.02(平成29.05.02),,20170502,,国土の歴史的景観に寄与しているもの,,徳島県,徳島県美馬郡つるぎ町貞光字皆瀬190,,宗教法人東福寺,非営利法人,,34.01323000000000,134.07690000000000,端四国八十八箇所霊場の第三四番札所。宝形造桟瓦葺の三間堂で、北面中央に二間幅の仏間を設け、南・東の二面を吹放ちとして縁を設け、天井は棹縁天井とする。仏間廻りに彫刻を施すほかは全体に簡易な作りとし、地域の信仰の有り様を今に伝えている。,https://bunka.nii.ac.jp/heritage/43967/_210391/43967_210391531092361913973_300.jpg
101,00011571,竹屋敷堂,たけやしきどう,1棟,,登録有形文化財(建造物),宗教,建築物,,大正,大正元年,1912,木造平屋建、瓦葺、建築面積26㎡,,36-0160,86,2017.05.02(平成29.05.02),2017.05.02(平成29.05.02),,20170502,,国土の歴史的景観に寄与しているもの,,徳島県,徳島県美馬郡つるぎ町貞光字竹屋敷64,,宗教法人東福寺,非営利法人,,34.01571000000000,134.06640000000000,端四国八十八箇所霊場の第三五番札所。宝形造桟瓦葺の三間堂で、背面中央を一間幅の仏間とし、三方吹放ちの四方に縁を廻らす。天井は棹縁天井とする。仏間周りに組物・彫刻を施し、正面中央間に虹梁をかける他は、柱間を貫と長押で固める簡素な造りである。,https://bunka.nii.ac.jp/heritage/43967/_210502/43967_210502936036263364752_300.jpg
101,00011572,引地堂,ひきちどう,1棟,,登録有形文化財(建造物),宗教,建築物,,昭和前,昭和3年,1928,木造平屋建、瓦葺、建築面積19㎡,,36-0161,86,2017.05.02(平成29.05.02),2017.05.02(平成29.05.02),,20170502,,国土の歴史的景観に寄与しているもの,,徳島県,徳島県美馬郡つるぎ町貞光字引地167,,宗教法人東福寺,非営利法人,,34.02010000000000,134.06330000000000,端四国八十八箇所霊場の第三六番札所。寄棟造桟瓦葺で、梁間二間桁行二間半。背面中央に一間幅の仏間を設け、四方吹放ちの三方に縁を廻らし、天井は棹縁天井とする。仏間廻り以外は簡素な造りとするが、正面一間を葺下ろして向拝とする点が特徴。,https://bunka.nii.ac.jp/heritage/43967/_210392/43967_210392816519146483968_300.jpg
101,00011573,浦山堂,うらやまどう,1棟,,登録有形文化財(建造物),宗教,建築物,,江戸,嘉永元年（1848）／昭和43年改修,1848/1968改修,木造平屋建、スレート葺、建築面積25㎡,,36-0162,86,2017.05.02(平成29.05.02),2017.05.02(平成29.05.02),,20170502,,国土の歴史的景観に寄与しているもの,,徳島県,徳島県美馬郡つるぎ町貞光字浦山412-1,,宗教法人東福寺,非営利法人,,34.02298000000000,134.05840000000000,端四国八十八箇所霊場の第三七番札所。宝形造桟瓦葺の三間堂で、背面寄り中央に一間幅の仏間を設け、四方吹放ちで、四方に縁を廻らし、天井は棹を疎らに配する棹縁天井とする。軒は疎垂木。仏間廻り、側柱上に組物・彫刻を施し、比較的装飾豊かである。,https://bunka.nii.ac.jp/heritage/43967/_210393/43967_210393811907215546549_300.jpg
101,00011831,谷家住宅主屋,たにけじゅうたくしゅおく,1棟,,登録有形文化財(建造物),住宅,建築物,,明治,明治3年頃,1870頃,木造2階建、瓦葺、建築面積188㎡,,36-0163,87,2017.06.28(平成29.06.28),2017.06.28(平成29.06.28),,20170628,,国土の歴史的景観に寄与しているもの,,徳島県,徳島県海部郡美波町日和佐浦184,,,,,33.73259000000000,134.53730000000000,日和佐港沿い街区に建つ。入母屋造で南面玄関は大斗肘木と虹梁の妻飾をもつ切妻屋根を載せる。西半は座敷、仏間を田の字型に、東半は応待の間や台所など諸室を配する。二階を三区分し、各々階段を設け独立性を保つ。海運業で栄えた往時を偲ばせる。,https://bunka.nii.ac.jp/heritage/43967/_210847/43967_210847168305196278941_300.jpg
101,00011832,谷家住宅産屋,たにけじゅうたくさんや,1棟,,登録有形文化財(建造物),住宅,建築物,,明治,明治3年頃,1870頃,木造平屋建、瓦葺、建築面積19㎡,,36-0164,87,2017.06.28(平成29.06.28),2017.06.28(平成29.06.28),,20170628,,国土の歴史的景観に寄与しているもの,,徳島県,徳島県海部郡美波町日和佐浦184,,,,,33.73264000000000,134.53720000000000,主屋北西に縁を介して接続する。内部は一室でオサンベヤと称され、南北面に縁を設ける。室内は、西半を網代張の落天井とし西南隅に釣床を設ける。また、北縁東面の格子窓は天袋・地袋を付け瀟洒に飾る。生活の一端を伝え、貴重である。,https://bunka.nii.ac.jp/heritage/43967/_210848/43967_210848945547000969488_300.jpg
101,00011833,谷家住宅ミセ,たにけじゅうたくみせ,1棟,,登録有形文化財(建造物),住宅,建築物,,明治,明治3年頃,1870頃,木造平屋建、瓦葺、建築面積38㎡,,36-0165,87,2017.06.28(平成29.06.28),2017.06.28(平成29.06.28),,20170628,,国土の歴史的景観に寄与しているもの,,徳島県,徳島県海部郡美波町日和佐浦184,,,,,33.73250000000000,134.53740000000000,主屋前方に通り土間を介して接続する。切妻造桟瓦葺で、南面道路に向かって下屋庇を付け、出格子を設ける。内部は東半を土間、西半をミセとし、天井はミセ部を根太天井、土間部は舟底天井とし、趣向を凝らす。漁師町にふさわしい景観を創出している。,https://bunka.nii.ac.jp/heritage/43967/_210849/43967_210849394234743361265_300.jpg
101,00011834,谷家住宅表門及び塀,たにけじゅうたくおもてもんおよびへい,1棟,,登録有形文化財(建造物),住宅,その他工作物,,明治,明治3年頃,1870頃,表門 木造、瓦葺、間口2.1m　塀 土塀、瓦葺、総延長46m,,36-0166,87,2017.06.28(平成29.06.28),2017.06.28(平成29.06.28),,20170628,,国土の歴史的景観に寄与しているもの,,徳島県,徳島県海部郡美波町日和佐浦184,,,,,33.73270000000000,134.53750000000000,ミセの西に建ち、敷地南面を中央を画す表門とこれより西へ矩折れに続く塀。表門は間口四・六メートルの棟門で腕木には繰形彫刻が施される。塀は小石を積み上げた土塀で、街路側には、一部に海鼠壁が残り、街路景観を構成する。,https://bunka.nii.ac.jp/heritage/43967/_210850/43967_210850460915716712761_300.jpg
101,00012047,大正館店舗兼主屋,たいしょうかんてんぽけんしゅおく,1棟,,登録有形文化財(建造物),産業3次,建築物,,大正,大正7年／平成18年改修,1918,木造2階建、瓦葺、建築面積105㎡,,36-167,88,2017.10.27(平成29.10.27),2017.10.27(平成29.10.27),,20171027,,国土の歴史的景観に寄与しているもの,,徳島県,徳島県小松島市小松島町字外開7-11,,小松島不動産株式会社,営利法人,,34.00988000000000,134.58640000000000,小松島市中心市街地にあり北面する町家。間口六間半で中央に通り土間を通し、西半をミセや旧倉庫とし、東半に帳場やオモテなど四室を配する。二階には平書院を備えた上質な座敷飾りを備える。正面の出格子や二階の手摺など港町の歴史的景観をよく伝える。,https://bunka.nii.ac.jp/heritage/43967/_210988/43967_210988788406251402470_300.jpg
101,00012048,島尾家住宅店舗兼主屋,しまおけじゅうたくてんぽけんしゅおく,1棟,,登録有形文化財(建造物),産業3次,建築物,,明治,明治10年頃,1877,木造2階建、瓦葺、建築面積175㎡,,36-168,88,2017.10.27(平成29.10.27),2017.10.27(平成29.10.27),,20171027,,国土の歴史的景観に寄与しているもの,,徳島県,徳島県三好市井川町辻85-1,,,,,34.02903000000000,133.87990000000000,井川町辻の中心地、街路に南面して建つ。木造二階建、切妻造本瓦葺で、奥行南北に細長い平面に、緩やかな平入屋根をかける。表側に店舗部分を取り、右側に土間を通して背面側に作業場を設ける。二階はほぼ正方形の平面とする。町並景観に寄与する町家。,https://bunka.nii.ac.jp/heritage/43967/_210989/43967_210989222384060949382_300.jpg
101,00012049,島尾家住宅離れ,しまおけじゅうたくはなれ,1棟,,登録有形文化財(建造物),住宅,建築物,,明治,明治10年頃,1877,木造4階建、瓦葺、建築面積127㎡,,36-169,88,2017.10.27(平成29.10.27),2017.10.27(平成29.10.27),,20171027,,国土の歴史的景観に寄与しているもの,,徳島県,徳島県三好市井川町辻85-2,,,,,34.02908000000000,133.87980000000000,店舗兼主屋の背面側に位置する。木造四階建で、花頭窓を備える楼閣風の特色ある外観を見せ、三階には一〇畳座敷と七畳半の次の間の南と西に縁を廻らす。四階は畳敷六畳の周囲に板間を配し、遊戯室として使われたと伝える。町並景観の核となる建物である。,https://bunka.nii.ac.jp/heritage/43967/_210990/43967_210990918472362546988_300.jpg
101,00012050,曽我部家住宅主屋及び納屋,そがべけじゅうたくしゅおくおよびなや,1棟,,登録有形文化財(建造物),住宅,建築物,,明治,明治35年,1902,木造2階一部平屋建、瓦葺、建築面積139㎡,,36-0170,88,2017.10.27(平成29.10.27),2017.10.27(平成29.10.27),,20171027,,国土の歴史的景観に寄与しているもの,,徳島県,徳島県三好市井川町辻2他,,,,,34.02744400000000,133.87924900000000,井川町辻中心地の南寄り、井内谷川の北岸に建つ。曽我部家は藍染等も手がけた商家で、木造二階建、切妻造桟瓦葺で、桁行一一・六メートル、梁間七・四メートルの南面西寄りに玄関を、北面西寄りに風呂場を突出させ、東には納屋を設ける。辻の隆盛を今に伝える。,https://bunka.nii.ac.jp/heritage/43967/_210991/43967_210991831155216367670_300.jpg
101,00012051,曽我部家住宅蔵,そがべけじゅうたくくら,1棟,,登録有形文化財(建造物),住宅,建築物,,明治,明治23年,1890,土蔵造2階建、瓦葺、建築面積49㎡,,36-0171,88,2017.10.27(平成29.10.27),2017.10.27(平成29.10.27),,20171027,,国土の歴史的景観に寄与しているもの,,徳島県,徳島県三好市井川町辻2他,,,,,34.02752100000000,133.87932100000000,敷地の背面東寄りに建つ。土蔵造二階建、桟瓦葺で、桁行七・九メートル、梁間四・九メートルの西面に下屋を設ける。外壁は軒まで塗籠め、扉口は北側街路に向かって開き、一、二階とも一室とする。染物作業のための蔵と伝え、地域の歴史を今に伝えている。,https://bunka.nii.ac.jp/heritage/43967/_210992/43967_210992575989019259696_300.jpg
101,00012052,曽我部家住宅長屋門,そがべけじゅうたくながやもん,1棟,,登録有形文化財(建造物),住宅,建築物,,明治,明治35年頃,1902,木造平屋建、瓦葺、建築面積18㎡,,36-0172,88,2017.10.27(平成29.10.27),2017.10.27(平成29.10.27),,20171027,,国土の歴史的景観に寄与しているもの,,徳島県,徳島県三好市井川町辻2他,,,,,34.02741700000000,133.87937000000000,敷地東面を画す木造平屋建、切妻造桟瓦葺で、門口の南に倉庫、物置、外便所を配す。街路側の壁は基礎石上に腰簓子下見板張、上部漆喰塗とする。外側の街路は井内谷川に降りる石段へと続くもので、藍染など河川と関わりの深い屋敷のあり方を象徴する門である。,https://bunka.nii.ac.jp/heritage/43967/_210993/43967_210993616671432324897_300.jpg
101,00012053,立川家住宅主屋,たつかわけじゅうたくしゅおく,1棟,,登録有形文化財(建造物),住宅,建築物,,明治,明治36年頃,1903,木造2階建、瓦葺、建築面積111㎡,,36-173,88,2017.10.27(平成29.10.27),2017.10.27(平成29.10.27),,20171027,,造形の規範となっているもの,,徳島県,徳島県三好市井川町辻159-1,,,,,34.02961000000000,133.88060000000000,辻の町並内の街道筋から吉野川方へ下る道に東面して建つ。立川家は近世から刻み煙草の製造販売を行った家で、つし二階を持つ切妻造桟瓦葺。正面庇上には袖うだつを備える。各種銘木を配した一階オモテの座敷周りなど、上質な内部造作も特徴的。,https://bunka.nii.ac.jp/heritage/43967/_210994/43967_210994583574388827826_300.jpg
101,00012054,立川家住宅離れ,たつかわけじゅうたくはなれ,1棟,,登録有形文化財(建造物),住宅,建築物,,大正,大正期,1912～1926,木造2階建、瓦葺、建築面積85㎡,,36-174,88,2017.10.27(平成29.10.27),2017.10.27(平成29.10.27),,20171027,,国土の歴史的景観に寄与しているもの,,徳島県,徳島県三好市井川町辻159-1,,,,,34.02959000000000,133.88040000000000,敷地の中程に建つ。桁行一一・〇メートル、梁間六・〇メートル、切妻造桟瓦葺の二階建で、化粧持送りで支える出桁や、戸袋を千鳥模様とするなど特徴ある意匠を備える。煙草の専売後他所で成功した当主が戻るために建てたもので、地域の歴史を象徴している。,https://bunka.nii.ac.jp/heritage/43967/_210995/43967_210995626520722482540_300.jpg
101,00012055,立川家住宅内蔵,たつかわけじゅうたくうちぐら,1棟,,登録有形文化財(建造物),住宅,建築物,,明治,明治36年頃,1903,土蔵造2階建、瓦葺、建築面積19㎡,,36-175,88,2017.10.27(平成29.10.27),2017.10.27(平成29.10.27),,20171027,,国土の歴史的景観に寄与しているもの,,徳島県,徳島県三好市井川町辻159-1,,,,,34.02963000000000,133.88050000000000,土蔵造二階建、切妻造本瓦葺、桁行四・九メートル、梁間三・九メートルの南北棟で、中庭を囲む主屋側は腰海鼠壁、上部漆喰塗で、軒まで塗籠とする。主屋背面に延びる廊下を蔵前として南面に扉口を開き、内部は一、二階とも一室とする。敷地景観を形成する土蔵。,
101,00012056,立川家住宅蔵,たつかわけじゅうたくくら,1棟,,登録有形文化財(建造物),住宅,建築物,,明治,明治中期,1883～1897,土蔵造2階建、鋼板葺、建築面積107㎡,,36-176,88,2017.10.27(平成29.10.27),2017.10.27(平成29.10.27),,20171027,,国土の歴史的景観に寄与しているもの,,徳島県,徳島県三好市井川町辻159-1,,,,,34.02965000000000,133.88020000000000,敷地西端に建つ土蔵造二階建、切妻造銅板葺で、北面、東面に深く庇を張り出す。桁行、梁間とも七・九メートルの正方形平面で、庇上に各二所設けられた二階窓には格子を入れ、上部に水切瓦を付ける。小屋は登梁を用いる。煙草産業で栄えた地域の歴史を伝える土蔵。,https://bunka.nii.ac.jp/heritage/43967/_210997/43967_210997299557995778561_300.jpg
101,00012057,三舩家住宅主屋,みふねけじゅうたくしゅおく,1棟,,登録有形文化財(建造物),住宅,建築物,,江戸,嘉永7年（1854）,1854,木造2階建、瓦葺、建築面積124㎡,,36-177,88,2017.10.27(平成29.10.27),2017.10.27(平成29.10.27),,20171027,,国土の歴史的景観に寄与しているもの,,徳島県,徳島県三好市井川町辻183-1,,,,,34.03019000000000,133.88120000000000,井川町辻の東寄りに位置する。三舩家は地域でも古くより刻み煙草の製造を行っていた家で、主屋は木造二階建、切妻造桟瓦葺で、正面右に玄関口を開き、当初は背面側まで土間を通していた。煙草産業で栄えた地域の近世以来の景観を今に伝える住宅である。,https://bunka.nii.ac.jp/heritage/43967/_210998/43967_210998233985068216560_300.jpg
101,00012058,三舩家住宅蔵,みふねけじゅうたくくら,1棟,,登録有形文化財(建造物),住宅,建築物,,江戸,天保10年（1839）,1839,木造2階建、瓦葺、建築面積58㎡,,36-178,88,2017.10.27(平成29.10.27),2017.10.27(平成29.10.27),,20171027,,国土の歴史的景観に寄与しているもの,,徳島県,徳島県三好市井川町辻183-1,,,,,34.03010000000000,133.88120000000000,主屋の南方に建つ。土蔵造二階建、平入、切妻造桟瓦葺で桁行九・九メートル、梁間五・〇メートルの規模である。野面積の基礎を高く取り、壁は軒まで塗籠る。一階は二室に区切り、それぞれの扉口外に石積階段を設ける。二階は一室とする。町並景観を形成する土蔵。,https://bunka.nii.ac.jp/heritage/43967/_210999/43967_210999829918426889656_300.jpg
101,00012059,向井家住宅主屋,むかいけじゅうたくしゅおく,1棟,,登録有形文化財(建造物),住宅,建築物,,江戸,安政2年（1855）,1855,木造2階建、瓦葺、建築面積199㎡,,36-179,88,2017.10.27(平成29.10.27),2017.10.27(平成29.10.27),,20171027,,国土の歴史的景観に寄与しているもの,,徳島県,徳島県三好市井川町向坂32-1,,,,,34.02509000000000,133.87900000000000,辻の中心地から井川谷川沿に山へと上がる道筋に位置する、敷地形状から船形屋敷と称されていた住宅。つし二階を持つ切妻造本瓦葺で、整形六間取平面の正面左に式台玄関を構え、背面には下屋を張り出す。近世以来の地域の歴史的景観を今に伝える住宅である。,https://bunka.nii.ac.jp/heritage/43967/_211000/43967_211000855304727373973_300.jpg
101,00012060,山下家住宅主屋,やましたけじゅうたくしゅおく,1棟,,登録有形文化財(建造物),住宅,建築物,,明治,明治32年,1899,木造2階建、瓦葺、建築面積216㎡,,36-180,88,2017.10.27(平成29.10.27),2017.10.27(平成29.10.27),,20171027,,国土の歴史的景観に寄与しているもの,,徳島県,徳島県三好市井川町辻76-2他,,,,,34.02836000000000,133.88000000000000,山下家は井川町辻の中心を抜ける街道の南北に敷地を構える。主屋は南北棟の木造二階建、切妻造で、正面中央に玄関を取り、その南に土間を通し、さらに南にはミセと居室を配している。起りを持つ本瓦葺の大屋根が特徴的で、町並の景観を特徴付けている。,https://bunka.nii.ac.jp/heritage/43967/_211001/43967_211001555557490089944_300.jpg
101,00012061,山下家住宅味噌蔵,やましたけじゅうたくみそぐら,1棟,,登録有形文化財(建造物),住宅,建築物,,明治,明治前期,1868～1882,土蔵造2階建、瓦葺、建築面積49㎡,,36-181,88,2017.10.27(平成29.10.27),2017.10.27(平成29.10.27),,20171027,,国土の歴史的景観に寄与しているもの,,徳島県,徳島県三好市井川町辻76-2他,,,,,34.02842000000000,133.87990000000000,主屋の背面側北寄りに東西棟で建つ。土蔵造二階建、切妻造本瓦葺、平入で、桁行九・九メートル、梁間四・九メートル。一、二階とも二室に区切り、一階は西半を土間、東半を板張とする。雑貨商で扱う商品を収めていたと伝え、辻の隆盛を今に伝える蔵である。,https://bunka.nii.ac.jp/heritage/43967/_211002/43967_211002620260643380787_300.jpg
101,00012062,山下家住宅米蔵,やましたけじゅうたくこめぐら,1棟,,登録有形文化財(建造物),住宅,建築物,,明治,明治16年,1883,土蔵造2階建、瓦葺、建築面積52㎡,,36-182,88,2017.10.27(平成29.10.27),2017.10.27(平成29.10.27),,20171027,,国土の歴史的景観に寄与しているもの,,徳島県,徳島県三好市井川町辻76-2他,,,,,34.02837000000000,133.87980000000000,主屋背面側、敷地の西端に建つ。土蔵造二階建、切妻造本瓦葺一部桟瓦葺。内部は三室に区切り、東面に扉口二所を開くが、背面側中央の入口はかつての水路から荷揚げに用いられたと伝え、煙草等の生産地、集散地として栄えた辻の歴史を今に伝えている。,https://bunka.nii.ac.jp/heritage/43967/_211003/43967_211003043699348346341_300.jpg
101,00012063,山下家住宅表門,やましたけじゅうたくおもてもん,1棟,,登録有形文化財(建造物),住宅,その他工作物,,明治,明治32年頃,1899,木造、瓦葺、間口1.5m、袖塀付,,36-183,88,2017.10.27(平成29.10.27),2017.10.27(平成29.10.27),,20171027,,国土の歴史的景観に寄与しているもの,,徳島県,徳島県三好市井川町辻78-1,,,,,34.02844000000000,133.88010000000000,街路に面した主屋の西側に接して建つ。間口一・五メートルの棟門で、左右に塀を延ばす。いずれも本瓦葺とし、塀の腰部は幅の狭い簓子下見板張で、上部を土壁とする。戸口上には松の彫刻透かし欄間を嵌める。総欅造の上質な門で街路景観を形成している。,https://bunka.nii.ac.jp/heritage/43967/_211004/43967_211004703820985223301_300.jpg
101,00012064,山下家住宅北塀,やましたけじゅうたくきたべい,1棟,,登録有形文化財(建造物),住宅,その他工作物,,明治,明治32年頃,1899,土塀、瓦葺、延長10m,,36-184,88,2017.10.27(平成29.10.27),2017.10.27(平成29.10.27),,20171027,,国土の歴史的景観に寄与しているもの,,徳島県,徳島県三好市井川町辻78-1,,,,,34.02847000000000,133.88000000000000,敷地の北東角から西方に延びる土塀で、折れ曲り総延長一〇・二メートル。通りに面した部分は切石の泉砂岩を二段積み、土壁を立ち上げて上部に桟瓦を葺いている。表門と併せて格式ある景観を作り、井川町辻の隆盛を今に伝えている。,https://bunka.nii.ac.jp/heritage/43967/_211005/43967_211005105565409343077_300.jpg
101,00012065,山下家住宅別邸,やましたけじゅうたくべってい,1棟,,登録有形文化財(建造物),住宅,建築物,,大正,大正期,1912～1926,木造2階建、瓦葺、建築面積172㎡,,36-185,88,2017.10.27(平成29.10.27),2017.10.27(平成29.10.27),,20171027,,国土の歴史的景観に寄与しているもの,,徳島県,徳島県三好市井川町辻332-1,,,,,34.02815000000000,133.88010000000000,主屋から街路を挟んで北側に建つ。二階建、切妻造本瓦葺で、正面に下屋をもうけ、屋根上両端に袖うだつを設ける。二階の建ちが高く、平入の大屋根に起りを持たせて街路側に見せる点も特徴的で、辻の町並中心部の歴史的景観の核となる町家である。,https://bunka.nii.ac.jp/heritage/43967/_211006/43967_211006148520618141471_300.jpg
101,00012653,前田商店店舗兼主屋,まえだしょうてんてんぽけんしゅおく,1棟,,登録有形文化財(建造物),産業3次,建築物,,昭和前,昭和20年頃,1945,木造2階建、瓦葺、建築面積170㎡,,36 － 0186,91,2018.11.02(平成30.11.02),2018.11.02(平成30.11.02),,20181102,,国土の歴史的景観に寄与しているもの,,徳島県,徳島県三好市東祖谷久保727-9他,,,,,,,市南端部の山中の街道沿いに西面して建つ商家主屋。総二階建の正面北端に入母屋玄関を出し、北側に平屋の居室部が取付く。一階に長大材の架構による広い店舗、二階に座敷を設け、正面廊下の欄間を扇面形の下地窓で飾る。山間集落の歴史的景観を形成している。,https://bunka.nii.ac.jp/heritage/43967/_367947/43967_367947387556325052811_300.jpg
101,00012654,古本家住宅店舗兼主屋,ふるもとけじゅうたくてんぽけんしゅおく,1棟,,登録有形文化財(建造物),産業3次,建築物,,明治,明治25年頃／明治後期移築,1892,木造平屋建、瓦葺、建築面積261㎡,,36 － 0187,91,2018.11.02(平成30.11.02),2018.11.02(平成30.11.02),,20181102,,造形の規範となっているもの,,徳島県,徳島県三好市池田町佐野金氏935-1,,,,,,,市西部の山村にある地主宅で、主屋は街道沿いに南面して建つ。店舗とする東側が切妻造、居室とする西側が入母屋造で、下屋を廻し、中央部に玄関を構える。上手に瀟洒な座敷飾の座敷と前室を並べ、正側面に縁を設ける。山村の地主層の暮らしを伝える大型民家。,https://bunka.nii.ac.jp/heritage/43967/_367948/43967_367948608878486147123_300.jpg
101,00012655,古本家住宅土蔵,ふるもとけじゅうたくどぞう,1棟,,登録有形文化財(建造物),産業3次,建築物,,昭和前,昭和前期,1926～1945,土蔵造2階建、瓦葺、建築面積60㎡,,36 － 0188,91,2018.11.02(平成30.11.02),2018.11.02(平成30.11.02),,20181102,,国土の歴史的景観に寄与しているもの,,徳島県,徳島県三好市池田町佐野金氏935-1,,,,,,,敷地南西隅の街道沿いに建つ。土蔵造二階建、切妻造で、北面に吹放し下屋を付す。外壁は下部縦板張、中間下見板張、上部漆喰塗で鉢巻を廻し、上下階南面に各二窓を開く。内部は東西に二分し、北東二面に戸口を設ける。街道の歴史的景観を形成する大型土蔵。,https://bunka.nii.ac.jp/heritage/43967/_367949/43967_367949913623421347519_300.jpg
101,00012656,古本家住宅庭門及び塀,ふるもとけじゅうたくにわもんおよびへい,1棟,,登録有形文化財(建造物),産業3次,その他工作物,,昭和前,昭和前期,1926～1945,庭門　木造、瓦葺、間口2.0m、北方袖塀付　塀　木造、瓦葺、延長15m,,36 － 0189,91,2018.11.02(平成30.11.02),2018.11.02(平成30.11.02),,20181102,,国土の歴史的景観に寄与しているもの,,徳島県,徳島県三好市池田町佐野金氏935-1,,,,,,,主屋玄関東側に取付き、東面して建つ一間腕木門と、門南端から矩折れに延びて土蔵東南隅に至る塀。塀は壁漆喰塗の腰縦板張で、一間おきに下地窓を穿つ。出隅部屋根には阿波踊の踊子を表した留蓋瓦を載せる。主屋前庭を囲み、風格ある表構えを形成している。,https://bunka.nii.ac.jp/heritage/43967/_367950/43967_367950826137372936340_300.jpg
101,00012657,古本家住宅旧郵便局,ふるもとけじゅうたくきゅうゆうびんきょく,1棟,,登録有形文化財(建造物),官公庁舎,建築物,,昭和前,昭和3年,1928,コンクリートブロック造平屋建、金属板葺、建築面積29㎡,,36 － 0190,91,2018.11.02(平成30.11.02),2018.11.02(平成30.11.02),,20181102,,国土の歴史的景観に寄与しているもの,,徳島県,徳島県三好市池田町佐野金氏935-1,,,,,,,主屋東南隅に接続し、敷地正面の角地に建つ。基礎は野面積、外壁は淡黄色の人造石塗洗出し仕上で、石造風に目地を切る。西南隅の出入口周辺の装飾や窓枠、窓桟はアール・デコ風である。昭和初期の地方局舎の様相を伝え、集落景観のアクセントになっている。,https://bunka.nii.ac.jp/heritage/43967/_367951/43967_367951418049083127061_300.jpg
101,00012822,椿八幡神社本殿,つばきはちまんじんじゃほんでん,1棟,,登録有形文化財(建造物),宗教,建築物,,江戸,安政3年(1856)頃,1856,木造平屋建、檜皮葺(金属板仮葺)、建築面積4.7㎡,,36 － 191,92,2019.03.29(平成31.03.29),2019.03.29(平成31.03.29),,20190329,,造形の規範となっているもの,,徳島県,徳島県阿南市椿町浜1-1,,宗教法人八幡神社,宗教法人,,33.92174167000000,134.65957194000000,市南東部の椿町中心部の境内奥に北面して建つ。一間社流造檜皮葺（鉄板仮葺）で、四周縁を腰組で支持する。組物は柱上の斜め方向にも手先を出す尾垂木付二手先の詰組、妻飾は二重虹梁。組物間や扉回りを彫刻で密に飾る。複雑な構造と豊かな装飾をもつ社殿。,https://bunka.nii.ac.jp/heritage/43967/_367725/43967_367725320489171538848_300.jpg
101,00012823,中山家住宅主屋,なかやまけじゅうたくしゅおく,1棟,,登録有形文化財(建造物),住宅,建築物,,大正,大正前期／平成29年改修,1912～1918,木造平屋建、茅葺(金属板仮葺)、建築面積167㎡,,36 － 192,92,2019.03.29(平成31.03.29),2019.03.29(平成31.03.29),,20190329,,国土の歴史的景観に寄与しているもの,,徳島県,徳島県三好市東祖谷久保311,,,,,34.02586361000000,133.80725278000000,祖谷川上流の久保集落の農家主屋。南正面の寄棟造茅葺、南西二面を出桁造とし、濡縁と吹放し下屋を廻す。東から土間付の茶ノ間、中ノ間、座敷を並べ、中ノ間奧を寝間とする。見晴らしのよい南斜面中腹に建ち、山村集落の景観の核をなしている。,https://bunka.nii.ac.jp/heritage/43967/_367726/43967_367726746071761950537_300.jpg
101,00012824,栗尾家住宅主屋,くりおけじゅうたくしゅおく,1棟,,登録有形文化財(建造物),住宅,建築物,,江戸,江戸末期／昭和28年頃増築・同63年頃改修,1830～1868,木造平屋建、茅葺(金属板仮葺)、建築面積139㎡,,36 － 193,92,2019.03.29(平成31.03.29),2019.03.29(平成31.03.29),,20190329,,造形の規範となっているもの,,徳島県,徳島県三好市東祖谷釣井105,,,,,34.02586361000000,133.80725278000000,祖谷川上流の釣井集落の農家主屋。南正面の寄棟造茅葺で、東から土間付の茶ノ間、中ノ間、座敷を並べ、中ノ間奧を寝間とする。正面と西側面に縁を廻し、さらに正面に濡縁を通して中央に便所を設ける。祖谷地方の伝統民家の形式をよく示す。,https://bunka.nii.ac.jp/heritage/43967/_367727/43967_367727705281068375164_300.jpg
101,00012989,喜多薬店,きたやくてん,1棟,,登録有形文化財(建造物),産業3次,建築物,,昭和前,昭和15年頃／昭和30年頃増築,1940,木造2階地下1階建、瓦葺、建築面積143㎡,,36 － 194,93,2019.09.10(令和1.09.10),2019.09.10(令和1.09.10),,20190910,,国土の歴史的景観に寄与しているもの,,徳島県,徳島県三好市西祖谷山村一宇277,,,,,33.89246389000000,133.81642222000000,西祖谷中心部の日用雑貨店。街道に東面して建つ切妻造セメント瓦葺の二階建で、北を落棟とする。1階前方を前土間の店とし、後方に3室を並べ、2階に2列4室を配し、祖谷川に面する西側を懸造状にして地階を設ける。街道沿いの歴史的町並みを形成している。,https://bunka.nii.ac.jp/heritage/43967/_368068/43967_368068905023913494346_300.jpg
101,00012990,釣井薬師堂,つるいやくしどう,1棟,,登録有形文化財(建造物),宗教,建築物,,江戸,文久2年（1862）／昭和33年・平成11年改修,1862,木造平屋建、銅板葺、建築面積19㎡,,36 － 195,93,2019.09.10(令和1.09.10),2019.09.10(令和1.09.10),,20190910,,国土の歴史的景観に寄与しているもの,,徳島県,徳島県三好市東祖谷釣井107,,,,,33.86614722000000,133.86609722000000,祖谷川上流の釣井集落にある三間堂。宝形造銅板葺で、出桁造の一軒疎垂木、四周に切目縁を廻す。内部は板敷の一室で、東正面と両側面東端1間を吹放しとし、西面に張出しの仏壇を設け、各間に桟唐戸を吊る。祖谷渓の歴史的な集落景観の構成要素である。,https://bunka.nii.ac.jp/heritage/43967/_368069/43967_368069218492787398659_300.jpg
101,00012991,篪庵,ちいおり,1棟,,登録有形文化財(建造物),住宅,建築物,,江戸,江戸中期／平成22年改修,1661～1751,木造平屋建、茅葺、建築面積128㎡,,36 － 196,93,2019.09.10(令和1.09.10),2019.09.10(令和1.09.10),,20190910,,国土の歴史的景観に寄与しているもの,,徳島県,徳島県三好市東祖谷釣井209,,,,,33.86406111000000,133.86233889000000,祖谷川上流の釣井集落のもと農家主屋。東正面の寄棟造茅葺で、外壁をヒシャギ竹張で養生する。北から土間付のチャノマ、ナカノマ、オモテの3室を並べ、ナカノマ裏を寝間、オモテ表を縁側とする。見晴らしのよい山腹に建ち、山村集落の景観の核をなしている。,https://bunka.nii.ac.jp/heritage/43967/_368115/43967_368115068180826416546_300.jpg
101,00012992,河井百貨店,かわいひゃっかてん,1棟,,登録有形文化財(建造物),産業3次,建築物,,昭和前,昭和9年／昭和中期増築、昭和40年代改修,1934,木造2階建、金属板葺、建築面積129㎡,,36 － 197,93,2019.09.10(令和1.09.10),2019.09.10(令和1.09.10),,20190910,,国土の歴史的景観に寄与しているもの,,徳島県,徳島県三好市東祖谷京上146-7,,,,,33.86818333000000,133.90448611000000,東祖谷中心部のもと日用雑貨店。街道に南面して建つ入母屋造鉄板葺の二階建で、西側に別棟を接続する。1階を全面土間の店とし、2階に3室を並べて南東二面に縁を廻す。建ちが高く、間口の広い大型町家で、街道沿いの歴史的景観の構成要素となっている。,https://bunka.nii.ac.jp/heritage/43967/_368070/43967_368070869714981292765_300.jpg
101,00012993,多田家住宅洋館（旧若衆宿）,ただけじゅうたくようかん（きゅうわかしゅうやど）,1棟,,登録有形文化財(建造物),住宅,建築物,,大正,大正4年／昭和55年改修,1915,木造2階建、瓦葺、建築面積53㎡,,36 － 198,93,2019.09.10(令和1.09.10),2019.09.10(令和1.09.10),,20190910,,国土の歴史的景観に寄与しているもの,,徳島県,徳島県海部郡海陽町大里字浜崎50-1他,,,,,33.60285556000000,134.35786389000000,旧海南町中心部の海運業者宅にある旧若衆宿。寄棟造桟瓦葺の木造二階建、正面中央の入母屋の突出部を二階部屋付の玄関ポーチとし、階境に庇を廻す。外壁は下見板張で、縦長窓を装飾枠やペディメントで飾るなど丁寧につくる。集落景観に存在感を示す洋風建築。,https://bunka.nii.ac.jp/heritage/43967/_368071/43967_368071700460036491779_300.jpg
101,00013191,中村家住宅主屋,なかむらけじゅうたくしゅおく,1棟,,登録有形文化財(建造物),産業1次,建築物,,明治,明治24年,1891,木造2階建、瓦葺、建築面積237㎡,,36 － 0199,94,2019.12.05(令和1.12.05),2019.12.05(令和1.12.05),,20191205,,国土の歴史的景観に寄与しているもの,,徳島県,徳島県三好市池田町マチ2265,,,,,34.02886389000000,133.81188333000000,池田町の中通りに南面して建つ、刻み煙草の商家の主屋。間口１５・９メートルの木造二階建、切妻造桟瓦葺で、両側に本瓦葺の袖卯建を上げる。内部は通り土間沿いに洋風の応接間を配し、廊下を介し四間取の座敷と繋ぐ。刻み煙草で栄えた池田の様相を伝える。,https://bunka.nii.ac.jp/heritage/43967/_368415/43967_368415623023819763794_300.jpg
101,00013192,中村家住宅刻み煙草工場,なかむらけじゅうたくきざみたばここうじょう,1棟,,登録有形文化財(建造物),産業1次,建築物,,明治,明治中期,1883～1897,木造2階建、瓦葺、建築面積95㎡,,36 － 0200,94,2019.12.05(令和1.12.05),2019.12.05(令和1.12.05),,20191205,,国土の歴史的景観に寄与しているもの,,徳島県,徳島県三好市池田町マチ2265他,,,,,34.02908333000000,133.81187778000000,敷地北端に南面して建つ。木造二階建、切妻造桟瓦葺で、煙草の刻み工場と伝わる。一階は三室に分かれ、中央を広くとり、床は中央の部屋の西半と東の部屋の北半を板張とし、その他は土間とする。二階は一室で和小屋組を現す。刻み煙草工場の構成を伝えている。,https://bunka.nii.ac.jp/heritage/43967/_368416/43967_368416599077084738852_300.jpg
101,00013193,中和商店事務所,なかわしょうてんじむしょ,1棟,,登録有形文化財(建造物),産業2次,建築物,,大正,大正後期／昭和32年改修,1919～1926,木造2階一部平屋建、スレート葺一部瓦葺、建築面積140㎡,,36 － 0201,94,2019.12.05(令和1.12.05),2019.12.05(令和1.12.05),,20191205,,国土の歴史的景観に寄与しているもの,,徳島県,徳島県三好市池田町サラダ1755他,,合名会社中和商店,営利法人,,34.02811667000000,133.81006389000000,池田町の杉尾通りに西面して建つ。事務所棟は木造二階建の北に、平屋建の南北棟が接続し、背面に住居棟が続く。外壁は正面一階をスクラッチタイル張、他はモルタル刷毛引仕上とする。内部は事務所棟が洋風、住居棟が和風で、戦後市街地の街路景観を形成する。,https://bunka.nii.ac.jp/heritage/43967/_368417/43967_368417074859137295898_300.jpg
101,00013194,中和商店酒造蔵,なかわしょうてんしゅぞうぐら,1棟,,登録有形文化財(建造物),産業2次,建築物,,大正,大正15年頃,1926,木造2階建、瓦葺、建築面積499㎡,,36 － 0202,94,2019.12.05(令和1.12.05),2019.12.05(令和1.12.05),,20191205,,国土の歴史的景観に寄与しているもの,,徳島県,徳島県三好市池田町サラダ1755他,,合名会社中和商店,営利法人,,34.02820000000000,133.81033611000000,敷地中央、事務所の東側に建つ、木造二階建、切妻造桟瓦葺の酒造蔵。Ｌ字形平面の中央に貯蔵庫、南東隅に麹室を置く。さらに東側に下屋を下し洗場、釜場とし、西側に瓶詰室が附属し、事務所と接する。醸造業の基幹施設で、酒蔵の様相を伝えている。,
101,00013195,中和商店仕込蔵,なかわしょうてんしこみぐら,1棟,,登録有形文化財(建造物),産業2次,建築物,,明治,明治中期,1883～1897,木造平屋建、瓦葺、建築面積282㎡,,36 － 0203,94,2019.12.05(令和1.12.05),2019.12.05(令和1.12.05),,20191205,,国土の歴史的景観に寄与しているもの,,徳島県,徳島県三好市池田町サラダ1756-2他,,合名会社中和商店,営利法人,,34.02835833000000,133.81041944000000,敷地北端に建ち、南面西半が酒造蔵と接する。木造平屋建、切妻造桟瓦葺で、規模が大きい。内部は一室で、コンクリートの土間にタンクが並ぶ。小屋組は丸太を水平や斜めに組み、方杖で固めた独特なもので、大空間を造りだす。醸造業に必要不可欠な施設である。,https://bunka.nii.ac.jp/heritage/43967/_368419/43967_368419304685932681278_300.jpg
101,00013196,中和商店杜氏宿舎,なかわしょうてんとうじしゅくしゃ,1棟,,登録有形文化財(建造物),産業2次,建築物,,大正,大正15年頃,1926,木造2階建、瓦葺、建築面積82㎡,,36 － 0204,94,2019.12.05(令和1.12.05),2019.12.05(令和1.12.05),,20191205,,国土の歴史的景観に寄与しているもの,,徳島県,徳島県三好市池田町サラダ1755他,,合名会社中和商店,営利法人,,34.02817222000000,133.81054444000000,敷地東端に建ち、西面南半が酒造蔵と接する杜氏の宿舎。木造二階建、切妻造桟瓦葺で、一階は南側にオクドを据えた土間のダイドコロを置き、北側に板間と畳敷四室を配す。土間の南西に便所を突出し、二階は板間と八畳の二室とする。酒蔵を構成する附属施設。,https://bunka.nii.ac.jp/heritage/43967/_368420/43967_368420508511538382802_300.jpg
101,00013197,中和商店煙突,なかわしょうてんえんとつ,1基,,登録有形文化財(建造物),産業2次,その他工作物,,大正,大正15年頃,1926,煉瓦造、高さ9.4m,,36 － 0205,94,2019.12.05(令和1.12.05),2019.12.05(令和1.12.05),,20191205,,国土の歴史的景観に寄与しているもの,,徳島県,徳島県三好市池田町サラダ1755,,合名会社中和商店,営利法人,,34.02820833000000,133.81047222000000,酒造蔵の東側に建つ、酒造蔵附属の煙突で、釜場の蒸気を排出する。高さ９・４メートル、基底部１・３メートル角の煉瓦造で、頂部に向けて窄まる。煉瓦はイギリス積で、山形鋼と丸鋼の枠で補強する。周囲から良く見え、地区のランドマークとなる。,https://bunka.nii.ac.jp/heritage/43967/_368421/43967_368421450510935036109_300.jpg
101,00013451,旧北室醫院診療所,きゅうきたむろいいんしんりょうじょ,1棟,,登録有形文化財(建造物),文化福祉,建築物,,大正,大正10年／昭和中期増築,1921,木造2階一部平屋建、瓦葺一部銅板葺、建築面積194㎡,,36 － 0206,96,2020.08.17(令和2.08.17),2020.08.17(令和2.08.17),,20200817,,国土の歴史的景観に寄与しているもの,,徳島県,徳島県美馬郡つるぎ町半田字松生182-1,,,,,34.04107778000000,134.02596944000000,吉野川南岸の敷地中央西寄に南面して建つ。木造２階建、寄棟造桟瓦葺の洋風建築で、正面に切妻破風と車寄を付す。外壁は柱や貫を現し、小壁を漆喰塗、他を板張とする。改造も少なく医療設備等も良く残り、地域医療を西洋医学で支えた当家の歴史を物語る。,https://bunka.nii.ac.jp/heritage/43967/_368536/43967_368536621563130150369_300.jpg
101,00013452,旧北室醫院病棟,きゅうきたむろいいんびょうとう,1棟,,登録有形文化財(建造物),文化福祉,建築物,,大正,大正10年頃,1921,木造平屋建、瓦葺、建築面積127㎡,,36 － 0207,96,2020.08.17(令和2.08.17),2020.08.17(令和2.08.17),,20200817,,国土の歴史的景観に寄与しているもの,,徳島県,徳島県美馬郡つるぎ町半田字松生182-1,,,,,34.04119167000000,134.02591667000000,診療所北側に渡廊下を介して建つ入院病棟。木造平屋建、東西に長い寄妻造桟瓦葺で、東西に下屋を付す。内部は北に７室の病室、南に廊下を配し、南西角に水回りを突出する。病室は洋室で、板床に腰壁を廻らしベッドを置く。地方の医療施設の様相を今に伝える。,https://bunka.nii.ac.jp/heritage/43967/_368537/43967_368537992962953196541_300.jpg
101,00013453,旧北室醫院主屋,きゅうきたむろいいんおもや,1棟,,登録有形文化財(建造物),文化福祉,建築物,,明治,明治34年／昭和前期増築,1901,木造2階建、瓦葺、建築面積158㎡,,36 － 0208,96,2020.08.17(令和2.08.17),2020.08.17(令和2.08.17),,20200817,,造形の規範となっているもの,,徳島県,徳島県美馬郡つるぎ町半田字松生183-1,,,,,34.04109167000000,134.02629444000000,敷地南東に南面して建つ、漢方医時代の主屋。木造２階建、入母屋造本瓦葺で、四周に下屋を廻し、正面西寄に入母屋玄関を付し、２階壁には木瓜枠の虫籠窓を穿つ。内部は表側に薬局、診療所、床付の座敷を並べ、奥側は住居部とする。重厚かつ上質な主屋。,https://bunka.nii.ac.jp/heritage/43967/_368538/43967_368538275473659705370_300.jpg
101,00013454,旧北室醫院土蔵,きゅうきたむろいいんどぞう,1棟,,登録有形文化財(建造物),文化福祉,建築物,,明治,明治11年,1878,土蔵造2階建、瓦葺、建築面積31㎡,,36 － 0209,96,2020.08.17(令和2.08.17),2020.08.17(令和2.08.17),,20200817,,国土の歴史的景観に寄与しているもの,,徳島県,徳島県美馬郡つるぎ町半田字松生183-1,,,,,34.04114722000000,134.02613611000000,診療所東側に南面して建つ、漢方薬の原料等の保管蔵。土蔵造２階建、本瓦葺で、正面に桟瓦葺の深い下屋を付す。外壁は漆喰で軒裏まで塗込める。内部は板敷で、壁、天井に鉄板を張って区画し、保管棚を設ける。簡素な外観ながら、医院機能を補佐した建物。,https://bunka.nii.ac.jp/heritage/43967/_368539/43967_368539165733806158198_300.jpg
101,00013455,旧北室醫院庭門及び内塀,きゅうきたむろいいんにわもんおよびうちべい,1棟,,登録有形文化財(建造物),文化福祉,その他工作物,,昭和前,昭和前期,1926～1945,庭門　木造、瓦葺、間口1.5m、内塀　木造、銅板葺、総延長5.4m,,36 － 0210,96,2020.08.17(令和2.08.17),2020.08.17(令和2.08.17),,20200817,,国土の歴史的景観に寄与しているもの,,徳島県,徳島県美馬郡つるぎ町半田字松生183-1,,,,,34.04101111000000,134.02629167000000,主屋中程から南の土塀に至る一間棟門と板塀。門は腕木門で屋根は切妻造本瓦葺で、大棟端部に鯱を載せる。板塀は銅板葺で棟に雁振瓦を葺き、布着礎はモルタル塗で、松皮菱文を刻む。壁は大和打の竪板張で、襷桟の欄間を入れる。重厚な意匠の門と塀。,https://bunka.nii.ac.jp/heritage/43967/_368540/43967_368540143755508351342_300.jpg
101,00013456,旧北室醫院土塀,きゅうきたむろいいんどべい,1棟,,登録有形文化財(建造物),文化福祉,その他工作物,,大正,大正後期,1919～1926,土塀、瓦葺、総延長58m,,36 － 0211,96,2020.08.17(令和2.08.17),2020.08.17(令和2.08.17),,20200817,,国土の歴史的景観に寄与しているもの,,徳島県,徳島県美馬郡つるぎ町半田字松生183-1,,,,,34.04096667000000,134.02620000000000,敷地南辺東半から東辺を囲う土塀。南辺土塀の中程を開いて端部を北側に屈折し、主屋への導入路とする。桟瓦葺、壁は漆喰塗で、南辺は腰を洗出仕上とし、要所に木製縦格子を入れた虫籠窓風の開口を穿つ。敷地南東の表構えを重厚に演出する。,https://bunka.nii.ac.jp/heritage/43967/_368541/43967_368541004099845679552_300.jpg
101,00013457,旧北室醫院石垣,きゅうきたむろいいんいしがき,1基,,登録有形文化財(建造物),文化福祉,その他工作物,,大正,大正後期,1919～1926,石造、総延長64m,,36 － 0212,96,2020.08.17(令和2.08.17),2020.08.17(令和2.08.17),,20200817,,国土の歴史的景観に寄与しているもの,,徳島県,徳島県美馬郡つるぎ町半田字松生182-1他,,,,,34.04128611000000,134.02589444000000,北の一段低くなった吉野川側の敷地を支える石垣。北西角から北辺中程まで延び、敷地形状に合わせて雁行配置とする。吉野川流域で見られる阿波の青石（緑泥片岩）を主体に、平石や角石を積上げ、隅は算木積とする。敷地北辺の屋敷景観を整える構造物。,https://bunka.nii.ac.jp/heritage/43967/_368542/43967_368542783114837288431_300.jpg
101,00014087,蔵珠院茶室,ぞうしゅいんちゃしつ,1棟,,登録有形文化財(建造物),宗教,建築物,,江戸,江戸末期／平成26年移築,1830～1868,木造平屋建、瓦葺、建築面積81㎡,,36 - 0213,0,2021.10.14(令和3.10.14),2021.10.14(令和3.10.14),,20211014,,造形の規範となっているもの,,徳島県,徳島県徳島市国府町芝原字宮ノ本3,,,,,34.09281944000000,134.46276389000000,吉野川右岸の平野に位置する寺院の茶室。本堂西側に建ち、茶室二室と水屋、控室からなる寄棟及び切妻造の棟と、上の間の切妻造棟が棟方向を違えて接続する。部屋ごとに趣を変え、いずれも多様な銘木をふんだんに用い、細部まで意匠を凝らした上質な数寄屋。,https://bunka.nii.ac.jp/heritage/43967/_508347/43967_508347462343322888619_300.jpg
101,00014088,蔵珠院まい込み泉,ぞうしゅいんまいこみいずみ,1基,,登録有形文化財(建造物),宗教,その他工作物,,江戸,江戸末期／昭和50年頃・令和2年改修,1830～1868,石造、直径6m、深さ4.3m,,36 - 0214,0,2021.10.14(令和3.10.14),2021.10.14(令和3.10.14),,20211014,,再現することが容易でないもの,,徳島県,徳島県徳島市国府町芝原字宮ノ本3,,宗教法人蔵珠院,宗教法人,,34.09251111000000,134.46304722000000,吉野川右岸の平野に位置する寺院の通路付井戸。本堂前方に位置し、上部径約六メートル、深さ約三メートルの擂鉢状の掘込みに螺旋状の通路を設け、底部に径約〇・八メートルの井筒を埋める。壁面は結晶片岩の板状割石を積む。地元に親しまれる類例稀な井戸。,https://bunka.nii.ac.jp/heritage/43967/_508348/43967_508348153996603360248_300.jpg
101,00014089,有宮神社本殿,ありみやじんじゃほんでん,1棟,,登録有形文化財(建造物),宗教,建築物,,明治,明治41年／昭和41年・平成2年・同15年改修,1908,木造平屋建、銅板葺、建築面積2.2㎡,,36 - 0215,0,2021.10.14(令和3.10.14),2021.10.14(令和3.10.14),,20211014,,造形の規範となっているもの,,徳島県,徳島県三好市西祖谷山村徳善82,,宗教法人有宮神社,宗教法人,,33.87796667000000,133.77072222000000,大歩危峡右岸の山中、旧街道沿いの尾根上に位置する。一間社流造銅板葺、柱を長押で固め台輪を載せ組物は二手先。正側面に高欄付切目縁を廻し、脇障子を隅行に建てる。脇障子や木鼻、正側面及び庇の虹梁形頭貫の蟇股等、各所を彫刻で飾った、華やかな社殿。,https://bunka.nii.ac.jp/heritage/43967/_508349/43967_508349118695401553914_300.jpg
