台帳ID,管理対象ID,名称,ふりがな,員数,棟名,文化財種類,種別1,種別2,国,時代,年代,西暦,構造及び形式等,その他参考となるべき事項,登録番号,登録回,登録告示年月日,登録年月日,追加年月日,重文指定年月日,国宝指定年月日,登録基準1,登録基準2,都道府県,所在地,保管施設の名称,所有者名,所有者種別,管理団体又は責任者,緯度,経度,解説文,画像URL
101,00000050,八丁味噌本社事務所,はっちょうみそほんしゃじむしょ,1棟,,登録有形文化財(建造物),産業2次,建築物,,昭和前,昭和2,1927,木造2階建、トタン葺、建築面積339㎡,,23 － 0001,1,1996.12.26(平成8.12.26),1996.12.20(平成8.12.20),,19961220,,造形の規範となっているもの,,愛知県,愛知県岡崎市八帖町字往還通69,,合資会社八丁味噌,,,34.95786000000000,137.15300000000000,「カクキュウ」の商号で知られる八丁味噌製造業者の本社社屋。南北の２つの棟が中庭と土間をはさんで接続している。教会堂風の構成と，白い柱型と壁面の下見板の濃茶色とを対照させた意匠が特徴的である。内部は洋風の意匠でまとめられている。,https://bunka.nii.ac.jp/heritage/43967/_101040/43967_101040111225010321874_300.jpg
101,00000051,八丁味噌本社蔵（史料館）,はっちょうみそほんしゃくら（しりょうかん）,1棟,,登録有形文化財(建造物),産業2次,建築物,,明治,明治40,1907,木造2階建、瓦葺、建築面積463㎡,,23 － 0002,1,1996.12.26(平成8.12.26),1996.12.20(平成8.12.20),,19961220,,国土の歴史的景観に寄与しているもの,,愛知県,愛知県岡崎市八帖町字往還通69,,合資会社八丁味噌,,,34.95781000000000,137.15250000000000,「カクキュウ」の商号で知られる大規模な総２階の土蔵建築で，昭和16年まで味噌仕込み用の蔵として使用されていた。石垣の基壇上に黒塗りの下見板貼りとし，２層目は白漆喰塗りである。壁面に開けられた格子窓が連続するさまが特徴的である。,https://bunka.nii.ac.jp/heritage/43967/_101041/43967_101041111225010322613_300.jpg
101,00000212,徳川美術館本館,とくがわびじゅつかんほんかん,1棟,,登録有形文化財(建造物),文化福祉,建築物,,昭和前,昭和10,1935,鉄骨鉄筋コンクリート造地上1階地下1階建，瓦葺，建築面積506㎡,,23 － 0003,3,1997.06.24(平成9.06.24),1997.06.12(平成9.06.12),,19970612,,造形の規範となっているもの,,愛知県,愛知県名古屋市東区徳川町1017,,財団法人徳川黎明会,,,35.18353000000000,136.93320000000000,設計競技の１等案をもとに吉本与志雄が実施設計を行った。施工は竹中工務店。外観の意匠は城壁を思わす外壁を巡らし、屋根は緑色釉薬瓦葺とし鯱を置く。全体としていわゆる帝冠様式のデザインをもつ建物で、尾張徳川家の所蔵品を展示する。,https://bunka.nii.ac.jp/heritage/43967/_101202/43967_101202160222161835158_300.jpg
101,00000213,徳川美術館南収蔵庫,とくがわびじゅつかんみなみしゅうぞうこ,1棟,,登録有形文化財(建造物),文化福祉,建築物,,昭和前,昭和10,1935,鉄筋コンクリート造2階建，瓦葺，建築面積250㎡,,23 － 0004,3,1997.06.24(平成9.06.24),1997.06.12(平成9.06.12),,19970612,,造形の規範となっているもの,,愛知県,愛知県名古屋市東区徳川町1017,,財団法人徳川黎明会,,,35.18354000000000,136.93350000000000,本館とともに吉本与志雄が実施設計を行った。施工は竹中工務店。本館の西側に位置する中規模の鉄筋コンクリート造階建の収蔵庫。切妻造、本瓦葺で、開口部がほとんど無い大壁造風の建物である。本館に接続しともに重厚な外観を構成している。,https://bunka.nii.ac.jp/heritage/43967/_101203/43967_101203111225010504834_300.jpg
101,00000214,乃木倉庫,のぎそうこ,1棟,,登録有形文化財(建造物),その他,建築物,,明治,明治初期,1868-1911,煉瓦造平屋建，瓦葺，建築面積91㎡,,23 － 0005,3,1997.06.24(平成9.06.24),1997.06.12(平成9.06.12),,19970612,,再現することが容易でないもの,,愛知県,愛知県名古屋市中区本丸1,,名古屋市,,,35.18618000000000,136.89740000000000,乃木将軍が命じ５年頃に名古屋に赴任したことにちなんで名付けられたと伝える名古屋城御深井丸に位置する旧陸軍の火薬庫。煉瓦造、平屋建で、屋根を切妻造、桟瓦葺とする。角を石積み風に造り出す等の高度な技術に見るべきものがある。,https://bunka.nii.ac.jp/heritage/43967/_101204/43967_101204111225010505090_300.jpg
101,00000215,窯のある広場・資料館（倒焔式角窯）,かまのあるひろば・しりょうかん（とうえんしきかくがま）,1棟,,登録有形文化財(建造物),産業2次,建築物,,大正,大正10,1921,木造2階建，瓦葺，建築面積373㎡,,23 － 0006,3,1997.06.24(平成9.06.24),1997.06.12(平成9.06.12),,19970612,,国土の歴史的景観に寄与しているもの,,愛知県,愛知県常滑市奥栄町1-115,,株式会社ＩＮＡＸ,,,34.88194000000000,136.84860000000000,煉瓦造の倒焔式角窯を含む、木造２階建の上屋である。昭和46年まで土管、焼酎瓶、クリンカタイル等を製造していたが、その後資料館として整備された。独特のテクスチャーを持つ角窯と、黒い外壁の上屋で、焼物の町常滑のシンボルとして親しまれている。,https://bunka.nii.ac.jp/heritage/43967/_101205/43967_101205111225010505596_300.jpg
101,00000216,窯のある広場・資料館煙突,かまのあるひろば・しりょうかんえんとつ,1基,,登録有形文化財(建造物),産業2次,その他工作,,大正,大正10,1921,煉瓦造，高さ21m,,23 － 0007,3,1997.06.24(平成9.06.24),1997.06.12(平成9.06.12),,19970612,,国土の歴史的景観に寄与しているもの,,愛知県,愛知県常滑市奥栄町1-115,,株式会社ＩＮＡＸ,,,34.88186000000000,136.84850000000000,土管焼成用の窯に付属する煉瓦造の煙突である。根本の部分は2.2メートル四方であり、上部に向かってやや逓減する。かつては常滑市内に同様の煙突が数多くあったが、現在ではその多くが失われており、常滑市のランドマークの一つとして親しまれている。,https://bunka.nii.ac.jp/heritage/43967/_101206/43967_101206111225010507131_300.jpg
101,00000434,愛知学院大学楠元学舎第１号館,あいちがくいんだいがくくすもとがくしゃだいいちごうかん,1棟,,登録有形文化財(建造物),学校,建築物,,昭和前,昭和3,1928,鉄筋コンクリート造2階建，建築面積805㎡,,23 － 0008,8,1998.02.12(平成10.02.12),1998.01.16(平成10.01.16),,19980116,,造形の規範となっているもの,,愛知県,愛知県名古屋市千種区楠元町1-1,,学校法人愛知学院,,,35.16702000000000,136.96140000000000,旧制愛知中学本館として建てられた。中央部は玄関ポーチを設け壁を立ち上げ正面性を強調し，左右に翼屋をのばす。スクラッチタイル貼りの外壁，１・２階を通した柱形，柱形頂部の庇状の装飾等に時代の特徴があらわれている。設計佐藤三郎，施工西村工務店。,https://bunka.nii.ac.jp/heritage/43967/_101424/43967_101424111225010723651_300.jpg
101,00000435,愛知大学旧本館（旧陸軍第15師団司令部庁舎）,あいちだいがくきゅうほんかん（きゅうくりぐんだいじゅうごしだんしれいぶちょうしゃ）,1棟,,登録有形文化財(建造物),その他,建築物,,明治,明治41,1908,木造2階建，瓦葺，建築面積1859㎡,,23 － 0009,8,1998.02.12(平成10.02.12),1998.01.16(平成10.01.16),,19980116,,造形の規範となっているもの,,愛知県,愛知県豊橋市町畑町1-1,,学校法人愛知大学,,,34.74009000000000,137.38640000000000,木造２階建で，両翼屋を背後に突き出したコの字形平面をもつ。外壁に下見板を貼り，装飾をあまり用いない簡素なつくりで，縦長の上下窓を均等に配置するなど標準化の傾向がみられる。明治末期の陸軍による兵営建築の手法をよく示す建物である。,https://bunka.nii.ac.jp/heritage/43967/_101425/43967_101425111225010724152_300.jpg
101,00000686,旧黄柳橋,きゅうつげばし,1基,,登録有形文化財(建造物),交通,土木構造物,,大正,大正7,1918,鉄筋コンクリート造アーチ橋，橋長51.2m，幅員3.6m,,23 － 0012,11,1998.09.25(平成10.09.25),1998.09.02(平成10.09.02),,19980902,,国土の歴史的景観に寄与しているもの,,愛知県,愛知県新城市乗本字上林・字川向,,愛知県,,,34.93133000000000,137.57730000000000,県内では最初期のＲＣ道路橋で，スパン３０ｍは，大正期における開腹アーチ橋としては最大スパンを誇る。道路荷重をアーチスラブに伝える垂直材をスレンダーなものとし，木井桁のように架構しているところが特徴。県技師の吉田仙之丞の設計と伝える。,https://bunka.nii.ac.jp/heritage/43967/_101676/43967_101676111225011026433_300.jpg
101,00000790,東海学園大講堂,とうかいがくえんだいこうどう,1棟,,登録有形文化財(建造物),学校,建築物,,昭和前,昭和6,1931,鉄骨鉄筋コンクリート造地下１階地上３階建，建築面積909㎡,,23 － 0013,13,1998.09.25(平成10.09.25),1998.09.02(平成10.09.02),,19980902,,造形の規範となっているもの,,愛知県,愛知県名古屋市東区筒井1-202-4,,学校法人東海学園,,,35.18000000000000,136.92940000000000,"昭和天皇即位の御大典記念の建造物。ライト調をベースにドイツ表現派の意匠を重ね合わせた意欲的な作品。重厚にして華やかなファサードのデザインに見所がある｡設計は愛知県営繕課長の酒井勝で,卒業生の大脇勲（ともに名高工卒）らが手助けしたとされる。",https://bunka.nii.ac.jp/heritage/43967/_101780/43967_101780111225011147926_300.jpg
101,00000791,南山学園ライネルス館,なんざんがくえんらいねるすかん,1棟,,登録有形文化財(建造物),学校,建築物,,昭和前,昭和7,1932,鉄筋コンクリート造地下１階地上４階建，建築面積529㎡,,23 － 0014,13,1998.09.25(平成10.09.25),1998.09.02(平成10.09.02),,19980902,,造形の規範となっているもの,,愛知県,愛知県名古屋市昭和区五軒家町6-1,,学校法人南山学園,,,35.14259000000000,136.95120000000000,学園創立時(当時は南山中学校)の本館で，現名称は創立者に因む。スイス人建築家ヒンデルの設計で，外壁の色合いはヒンデル好みの黄土色。玄関ポーチの円柱と外壁柱型の横目地が目を惹く。パラペットの三角切り込みは特異で類例を見ない。,https://bunka.nii.ac.jp/heritage/43967/_101781/43967_101781111225011148432_300.jpg
101,00000792,豊橋市公会堂,とよはししこうかいどう,1棟,,登録有形文化財(建造物),文化福祉,建築物,,昭和前,昭和6,1931,鉄筋コンクリート造３階建，建築面積1202㎡,,23 － 0015,13,1998.09.25(平成10.09.25),1998.09.02(平成10.09.02),,19980902,,造形の規範となっているもの,,愛知県,愛知県豊橋市八町通2-22,,豊橋市,,,34.76804000000000,137.39220000000000,市制２５周年の記念建造物に相応しく，大階段・コリント式列柱による玄関ロッジア・両脇の階段室が堂々たる正面ファサードをつくる。階段室の半球ドームと四方に配置された羽ばたく大鷲がシンボル。静岡や浜松の公会堂を手がけた中村與資平の設計になる。,https://bunka.nii.ac.jp/heritage/43967/_101782/43967_101782111225011148935_300.jpg
101,00000969,金城学院高等学校榮光館,きんじょうがくいんこうとうがっこうえいこうかん,1棟,,登録有形文化財(建造物),学校,建築物,,昭和前,昭和11,1936,鉄筋コンクリート造３階建，建築面積800㎡,,23 － 0016,15,1998.12.25(平成10.12.25),1998.12.11(平成10.12.11),,19981211,,造形の規範となっているもの,,愛知県,愛知県名古屋市東区白壁4-64,,学校法人金城学院,,,35.18297000000000,136.91850000000000,生徒が一同に参集できる規模となるよう計画し，学園関係者等の寄付で再建した。屋根に赤いスペイン瓦を用い，外壁を白系統に塗ったスパニッシュスタイルになる清楚な外観が特徴で，礼拝堂を兼ねる。基本設計は佐藤鑑，実施設計は城戸武男，施工は広瀬商会。,https://bunka.nii.ac.jp/heritage/43967/_101959/43967_101959111225011344311_300.jpg
101,00001075,名古屋港跳上橋（旧１・２号地間運河可動橋）,なごやこうはねあげばし（きゅういち・にごうちかんうんがかどうきょう）,1基,,登録有形文化財(建造物),交通,土木構造物,,昭和前,昭和2,1927,鋼製跳開式可動橋，橋長63.4m，幅員4.7m,,23 － 0020,16,1999.03.12(平成11.03.12),1999.02.17(平成11.02.17),,19990217,,国土の歴史的景観に寄与しているもの,,愛知県,愛知県名古屋市港区入船1-6、千鳥2-4地先,,名古屋港管理組合,,,35.09361000000000,136.88760000000000,堀川と中川とを連絡する運河の堀川口に架けられた鉄道可動橋で，４径間の桁橋より成り，内１径間を可動桁とする。上部カウンターウエイト式の跳上橋で，可動橋の第一人者である山本卯太郎の設計製作になる。鉄道廃線後，桁を上げた状態で保存されている。,https://bunka.nii.ac.jp/heritage/43967/_132575/43967_132575111225011438444_300.jpg
101,00001076,刈谷市郷土資料館（旧亀城小学校本館）,かりやしきょうどしりょうかん（きゅうきじょうしょうがっこうほんかん）,1棟,,登録有形文化財(建造物),学校,建築物,,昭和前,昭和3,1928,鉄筋コンクリート造２階建，瓦葺，建築面積748㎡,,23 － 0021,16,1999.03.12(平成11.03.12),1999.02.17(平成11.02.17),,19990217,,国土の歴史的景観に寄与しているもの,,愛知県,愛知県刈谷市城町1-25-1,,刈谷市,,,34.98784000000000,136.98630000000000,地方都市における初期鉄筋コンクリート造建築の好例。設計は，元愛知県の技手で，刈谷に設計事務所を開いた大中肇。バットレス付きの玄関ポーチと，木造校舎を踏襲した両翼妻面のデザインに特徴がある。関係者の教育にかける思いが伝わってくる建築である。,https://bunka.nii.ac.jp/heritage/43967/_102066/43967_102066111225011438965_300.jpg
101,00001113,西尾市岩瀬文庫書庫,にしおしいわせぶんこしょこ,1棟,,登録有形文化財(建造物),文化福祉,建築物,,大正,大正8頃,1919頃,煉瓦造地下１階地上３階建，瓦葺，建築面積80㎡,,23 － 0022,17,1999.07.19(平成11.07.19),1999.06.07(平成11.06.07),,19990607,,造形の規範となっているもの,,愛知県,愛知県西尾市亀沢町474,,西尾市,,,34.87442000000000,137.05340000000000,地元出身の豪商岩瀬弥助が，収集した蔵書を市民に閲覧できるようにつくった文庫の書庫として建てられた。煉瓦の外壁を基調に窓の上部や窓台等にアクセントとして石材を用いた外観はよく整っている。内部は木組みで柱を立て３層に床を張り蔵書を納めている。,https://bunka.nii.ac.jp/heritage/43967/_102103/43967_102103111225011456498_300.jpg
101,00001114,西尾市立図書館おもちゃ館（旧岩瀬文庫児童館）,にしおしりつとしょかんおもちゃかん（きゅういわせぶんこじどうかん）,1棟,,登録有形文化財(建造物),文化福祉,建築物,,大正,大正14頃,1925頃,木造平屋建，瓦葺，建築面積57㎡,,23 － 0023,17,1999.07.19(平成11.07.19),1999.06.07(平成11.06.07),,19990607,,造形の規範となっているもの,,愛知県,愛知県西尾市亀沢町474,,西尾市,,,34.87390000000000,137.05340000000000,岩瀬文庫の児童館として建てられた。木造平屋建の小規模な洋風建築で，下見板貼りの外壁，ハーフティンバー風の妻飾，縦長の上下窓等に特徴がある。児童用の施設にふさわしいデザインで，現在も児童用の施設として使われている点にもみどころがある。,https://bunka.nii.ac.jp/heritage/43967/_102104/43967_102104111225011457009_300.jpg
101,00001266,奥村家住宅主屋,おくむらけじゅうたくしゅおく,1棟,,登録有形文化財(建造物),産業3次,建築物,,江戸,江戸末期,1830-1867,木造２階建，瓦葺，建築面積208㎡,,23 － 0024,19,1999.09.07(平成11.09.07),1999.08.23(平成11.08.23),,19990823,,再現することが容易でないもの,,愛知県,愛知県犬山市大字犬山字東古券395,,,,,35.38312980000000,136.94449686000000,犬山城下にあり、中山道に通じる主要街道に北面して建つ。天保１３年（１８４２）の大火後ほどなくの再建と伝える。間口７間奥行６間半、東側に通り土間、西側に２列６間を配したつし２階、平入の塗屋造商家で、犬山の豪商の構えを伝える事例として貴重。,https://bunka.nii.ac.jp/heritage/43967/_102256/43967_102256990687189215187_300.jpg
101,00001267,奥村家住宅金庫蔵,おくむらけじゅうたくきんこぐら,1棟,,登録有形文化財(建造物),産業3次,建築物,,明治,明治期,1868-1911,土蔵造２階建，瓦葺，建築面積14㎡,,23 － 0025,19,1999.09.07(平成11.09.07),1999.08.23(平成11.08.23),,19990823,,再現することが容易でないもの,,愛知県,愛知県犬山市大字犬山字東古券395,,,,,35.38315914000000,136.94441272000000,主屋の西側に建ち、主屋と棟を並べる東西棟、瓦葺切妻屋根、妻入の２階建土蔵で、主屋側の東面に蔵前をとる。主屋２階前面と同様に黒漆喰で塗込めるが、たちは主屋の軒より高く、北面と西面に瓦葺の軒庇を回して街道西方から見た景観に配慮したつくりとする。,https://bunka.nii.ac.jp/heritage/43967/_102257/43967_102257528360412301071_300.jpg
101,00001268,奥村家住宅棟門,おくむらけじゅうたくむねもん,1棟,,登録有形文化財(建造物),産業3次,その他工作物,,江戸,江戸末期,1830-1867,木造，瓦葺，建築面積6㎡,,23 － 0026,19,1999.09.07(平成11.09.07),1999.08.23(平成11.08.23),,19990823,,再現することが容易でないもの,,愛知県,愛知県犬山市大字犬山字東古券395,,,,,35.38317504000000,136.94459024000000,街道沿いの東端に主屋東面に接して建つ瓦葺、切妻屋根の棟門。前面は主屋と同様に黒漆喰で塗込めるが、背面軒回りは白漆喰として庇を張出す。主屋西側の金庫蔵とバランスをとったたちの高いつくりで、街道沿いに独特の商家構えをつくりだしている。,https://bunka.nii.ac.jp/heritage/43967/_102258/43967_102258863723910437096_300.jpg
101,00001269,奥村家住宅米蔵,おくむらけじゅうたくこめぐら,1棟,,登録有形文化財(建造物),住宅,建築物,,江戸,江戸末期,1830-1867,土蔵造２階建，瓦葺，建築面積51㎡,,23 － 0027,19,1999.09.07(平成11.09.07),1999.08.23(平成11.08.23),,19990823,,造形の規範となっているもの,,愛知県,愛知県犬山市大字犬山字東古券395,,,,,35.38290407000000,136.94457121000000,南北に長い敷地の南寄り、棟門に向き合う位置に建つ南北棟、瓦葺切妻屋根の２階建土蔵。桁行５間半、梁間３間半の比較的規模の大きな蔵で、西面の北寄りに扉を開く。並んで建つ道具蔵、離れとともに敷地中央部の奥向空間の主要構成要素となる。,https://bunka.nii.ac.jp/heritage/43967/_102259/43967_102259099586036115749_300.jpg
101,00001270,奥村家住宅道具蔵,おくむらけじゅうたくどうぐぐら,1棟,,登録有形文化財(建造物),住宅,建築物,,明治,明治期,1868-1911,土蔵造２階建，瓦葺，建築面積31㎡,,23 － 0028,19,1999.09.07(平成11.09.07),1999.08.23(平成11.08.23),,19990823,,造形の規範となっているもの,,愛知県,愛知県犬山市大字犬山字東古券395,,,,,35.38289217000000,136.94451259000000,敷地中央部の奥向空間の構成要素のひとつで、米蔵の西側に建つ。南北棟、瓦葺切妻屋根、妻入の２階建土蔵で、３間四方の規模を有し、北面のやや西寄りに扉を開く。米蔵よりもたちが高く、鳥衾付きの鬼瓦を挙げるなど上質なつくりになる。,https://bunka.nii.ac.jp/heritage/43967/_102260/43967_102260243997010240088_300.jpg
101,00001271,奥村家住宅離れ,おくむらけじゅうたくはなれ,1棟,,登録有形文化財(建造物),住宅,建築物,,大正,大正期,1912-1925,木造２階建，瓦葺，建築面積37㎡,,23 － 0029,19,1999.09.07(平成11.09.07),1999.08.23(平成11.08.23),,19990823,,造形の規範となっているもの,,愛知県,愛知県犬山市大字犬山字東古券395,,,,,35.38290000000000,136.94445800000000,道具蔵の西側に接して建つ木造２階建の数寄屋風の離れ。道具蔵と接する東側は土間とし、道具蔵の蔵前右手に入口を設ける。西側には８畳間を配して南と北に縁側を設け、北縁には月見台風の簀子縁を張出す。屋敷構えの発展過程を物語る遺構である。,https://bunka.nii.ac.jp/heritage/43967/_102261/43967_102261247980365067999_300.jpg
101,00001272,奥村家住宅納屋,おくむらけじゅうたくなや,1棟,,登録有形文化財(建造物),住宅,建築物,,明治,明治期,1868-1911,木造平屋建，瓦葺，建築面積16㎡,,23 － 0030,19,1999.09.07(平成11.09.07),1999.08.23(平成11.08.23),,19990823,,造形の規範となっているもの,,愛知県,愛知県犬山市大字犬山字東古券395,,,,,35.38299034000000,136.94461166000000,棟門から米蔵へ向かう小路的通り筋の奥に東高塀に沿って建つ。米蔵の北面と東高塀と壁を共有する細長い平面の瓦葺片流れ屋根、真壁造りの建屋で、内部を３室に分ける。西面に３つの出入口を開き渡り廊との間に特徴的な路地的空間をつくりだしている。,https://bunka.nii.ac.jp/heritage/43967/_102262/43967_102262525420608052749_300.jpg
101,00001273,奥村家住宅渡り廊,おくむらけじゅうたくわたりろう,1棟,,登録有形文化財(建造物),住宅,建築物,,明治,明治期,1868-1911,木造平屋建，瓦葺，建築面積66㎡,,23 － 0031,19,1999.09.07(平成11.09.07),1999.08.23(平成11.08.23),,19990823,,造形の規範となっているもの,,愛知県,愛知県犬山市大字犬山字東古券395,,,,,35.38299600000000,136.94453876000000,主屋の南東端と米蔵とをつなぐ南北棟、瓦葺切妻屋根の渡り廊で、米蔵の蔵前部で道具蔵の北面庇と一体になる。井戸屋形を兼ねた造りで、西面を吹放ちとし、東側南半に使用人部屋と便所を配し、東面の腰に煉瓦を貼る。屋敷構えの主要な構成要素になる。,https://bunka.nii.ac.jp/heritage/43967/_102263/43967_102263423582278850420_300.jpg
101,00001274,奥村家住宅東高塀,おくむらけじゅうたくひがしたかべい,1棟,,登録有形文化財(建造物),住宅,その他工作物,,明治,明治期,1868-1911,木造，瓦葺，延長17.4m,,23 － 0032,19,1999.09.07(平成11.09.07),1999.08.23(平成11.08.23),,19990823,,国土の歴史的景観に寄与しているもの,,愛知県,愛知県犬山市大字犬山字東古券395,,,,,35.38311570000000,136.94461234000000,敷地の東境に沿って、棟門から納屋北面までの間に建てられた木造瓦葺、漆喰塗仕上げの塀で、棟門の南面庇ほどの高さがあることから高塀と呼ばれる。補強のためのバットレス状の控柱型をつけていることも特徴のひとつである。,https://bunka.nii.ac.jp/heritage/43967/_102264/43967_102264446706296040489_300.jpg
101,00001275,車山蔵,やまぐら,1棟,,登録有形文化財(建造物),文化福祉,建築物,,明治,明治42,1909,木造平屋建，瓦葺，建築面積37㎡,,23 － 0033,19,1999.09.07(平成11.09.07),1999.08.23(平成11.08.23),,19990823,,国土の歴史的景観に寄与しているもの,,愛知県,愛知県犬山市大字犬山字東古券779,,犬山市本町町内会,,,35.38399000000000,136.93960000000000,犬山祭りの際にくりだす山車の格納蔵。間口４．５５ｍ、桁行８．２２ｍ規模の木造平屋建、瓦葺切妻屋根、妻入の建屋で、桁高は７ｍある。棟梁は犬山藩御用大工の系譜を継ぐ市橋清次郎で、水平筋違や側壁の筋違などに洋風建築技術の導入が認められる。,https://bunka.nii.ac.jp/heritage/43967/_102265/43967_102265111225011641033_300.jpg
101,00001276,尾関家住宅主屋,おぜきけじゅうたくしゅおく,1棟,,登録有形文化財(建造物),住宅,建築物,,江戸,天保13,1842,木造２階建，瓦葺，建築面積171㎡,,23 － 0034,19,1999.09.07(平成11.09.07),1999.08.23(平成11.08.23),,19990823,,国土の歴史的景観に寄与しているもの,,愛知県,愛知県犬山市大字犬山字白山平２　他,,,,,35.38689000000000,136.95090000000000,犬山焼を復興した窯元の屋敷。犬山藩の御用瓦師時代に大火の出火元となったために現在地に移転した時のもの。東西棟、瓦葺切妻屋根、平入の２階建で、東側に土間をとり、西側南に床棚付き８畳ほか３室を並べ、北に仏間、納戸などを配する。,https://bunka.nii.ac.jp/heritage/43967/_102266/43967_102266670818973160055_300.jpg
101,00001277,尾関家住宅土蔵,おぜきけじゅうたくどぞう,1棟,,登録有形文化財(建造物),住宅,建築物,,江戸,天保13,1842,土蔵造２階建，瓦葺，建築面積28㎡,,23 － 0035,19,1999.09.07(平成11.09.07),1999.08.23(平成11.08.23),,19990823,,国土の歴史的景観に寄与しているもの,,愛知県,愛知県犬山市大字犬山字白山平２　他,,,,,35.38697000000000,136.95080000000000,主屋の北西方に建つ南北棟、瓦葺切妻屋根、平入の２階建土蔵。桁行４間、梁間２間の規模で、東面に１間分の庇を差掛けて蔵前をとり、南端で主屋仏間北側の縁側につなげる。南面は下見板貼りに改装されているが、開口の少ない閉鎖的な造りになる。,https://bunka.nii.ac.jp/heritage/43967/_102267/43967_102267677329308228806_300.jpg
101,00001417,長母寺本堂,ちょうぼじほんどう,1棟,,登録有形文化財(建造物),宗教,建築物,,明治,明治27,1894,木造平屋建、瓦葺、建築面積202㎡,,23 － 0036,21,1999.12.02(平成11.12.02),1999.11.18(平成11.11.18),,19991118,,国土の歴史的景観に寄与しているもの,,愛知県,愛知県名古屋市東区矢田町字寺畑2161,,宗教法人長母寺,,,35.19698000000000,136.94490000000000,長母寺は平安末期の創建で，鎌倉中期に臨済宗に改宗し，現在に至っている。無住和尚の説教に発するという「尾張万歳」発祥の地として広く知られている。本堂は方丈形式の建物で，濃尾大地震後の再建であるが，由緒ある寺院の中心建築として親しまれている。,https://bunka.nii.ac.jp/heritage/43967/_102407/43967_102407111225011809176_300.jpg
101,00001418,長母寺山門,ちょうぼじさんもん,1棟,,登録有形文化財(建造物),宗教,その他工作,,江戸,18世紀後半,1701-1800,木造薬医門、瓦葺、間口4.8m、奥行き1.7m,,23 － 0038,21,1999.12.02(平成11.12.02),1999.11.18(平成11.11.18),,19991118,,国土の歴史的景観に寄与しているもの,,愛知県,愛知県名古屋市東区矢田町字寺畑2161,,宗教法人長母寺,,,35.19639000000000,136.94480000000000,３間１戸の薬医門で，切妻造・本瓦葺，桁行約４．８ｍと規模も大きい。主柱は五平とし，棟木を板蟇股と蓑束で受け，細部絵様から１８世紀後半と推定される。低い基壇上に建ち，両側に鍵形の築地塀を備えた姿は，地域の景観に欠かせないものとなっている。,https://bunka.nii.ac.jp/heritage/43967/_102408/43967_102408111225011810621_300.jpg
101,00001419,旧加藤家住宅長屋門,きゅうかとうけじゅうたくながやもん,1棟,,登録有形文化財(建造物),住宅,建築物,,明治,明治初期,1868-1911,木造平屋建納屋附属、瓦葺、建築面積60㎡,,23 － 0039,21,1999.12.02(平成11.12.02),1999.11.18(平成11.11.18),,19991118,,国土の歴史的景観に寄与しているもの,,愛知県,愛知県北名古屋市六ッ師南屋敷704-1,,北名古屋市,,,35.25173000000000,136.89250000000000,加藤家は「大加藤」と称される旧家で，江戸期には六ツ師村の庄屋と伝えられ，約４０ｍ四方の屋敷地に，主屋や土蔵等が密集して建つ。敷地南辺に建つ長大な長屋門は，東側が門口と二室，西側がつし２階の二室の納屋からなり，旧家の風格をあらわしている。,https://bunka.nii.ac.jp/heritage/43967/_102409/43967_102409111225011811134_300.jpg
101,00001420,旧加藤家住宅主屋,きゅうかとうけじゅうたくしゅおく,1棟,,登録有形文化財(建造物),住宅,建築物,,明治,明治10代,1877-1886,木造2階建、瓦葺、建築面積212㎡,,23 － 0040,21,1999.12.02(平成11.12.02),1999.11.18(平成11.11.18),,19991118,,国土の歴史的景観に寄与しているもの,,愛知県,愛知県北名古屋市六ッ師南屋敷704-1,,北名古屋市,,,35.25195000000000,136.89250000000000,屋敷地の北側に建つ主屋は明治13年もしくは19年の建築と伝えられている。桟瓦葺・つし２階建で，１階は表３室・裏４室及び土間からなり，２階は収納に用いられていた。意匠や施工の質も高く，この地域の明治期地主層の洗練された住居形式をあらわしている。,https://bunka.nii.ac.jp/heritage/43967/_102410/43967_102410111225011811641_300.jpg
101,00001421,旧加藤家住宅離れ,きゅうかとうけじゅうたくはなれ,1棟,,登録有形文化財(建造物),住宅,建築物,,昭和前,昭和初期,1926-1988,木造平屋建、瓦葺、建築面積71㎡,,23 － 0041,21,1999.12.02(平成11.12.02),1999.11.18(平成11.11.18),,19991118,,国土の歴史的景観に寄与しているもの,,愛知県,愛知県北名古屋市六ッ師南屋敷704-1,,北名古屋市,,,35.25193000000000,136.89240000000000,主屋の西に建ち，渡り廊下で接続し，西面は敷地境になる。平屋建・桟瓦葺，南北棟の建物で北十畳・南八畳からなり，南に緩い起り屋根の茶室が続く。全体を軽快にまとめているが，数寄屋風の洗練された意匠に，当時の接客空間のあり方を伺うことができる。,https://bunka.nii.ac.jp/heritage/43967/_102411/43967_102411111225011812155_300.jpg
101,00001422,旧加藤家住宅中門,きゅうかとうけじゅうたくちゅうもん,1棟,,登録有形文化財(建造物),住宅,その他工作,,明治,明治10代,1877-1886,木造薬医門、間口1.0m、屋根塀7.7m附属,,23 － 0042,21,1999.12.02(平成11.12.02),1999.11.18(平成11.11.18),,19991118,,国土の歴史的景観に寄与しているもの,,愛知県,愛知県北名古屋市六ッ師南屋敷704-1,,北名古屋市,,,35.25187000000000,136.89250000000000,主屋と長屋門の北側にある土蔵との中間に建っている。切妻造・桟瓦葺，１間１戸の薬医門で，南と北に真壁造で腰下見板張りの塀が接続する。中門・塀とも簡素なものであるが，主屋の庭を東西に区分し，屋敷内の構成要素として欠かせない存在である。,https://bunka.nii.ac.jp/heritage/43967/_102412/43967_102412111225011812678_300.jpg
101,00001423,旧加藤家住宅土蔵,きゅうかとうけじゅうたくどぞう,1棟,,登録有形文化財(建造物),住宅,建築物,,明治,明治10代,1877-1886,土蔵造2階建、瓦葺、建築面積27㎡,,23 － 0043,21,1999.12.02(平成11.12.02),1999.11.18(平成11.11.18),,19991118,,国土の歴史的景観に寄与しているもの,,愛知県,愛知県北名古屋市六ッ師南屋敷704-1,,北名古屋市,,,35.25181000000000,136.89250000000000,当初は敷地西北にあったが，離れの建設に伴い，長屋門北側の地に移された。什器家財道具類を収納し，「おくら」と称された。総２階建，切妻造・桟瓦葺・平入，東面に庇を設けた形式であるが，規模が大きく，旧家の蔵にふさわしく堂々とした外観をみせる。,https://bunka.nii.ac.jp/heritage/43967/_102413/43967_102413111225011814055_300.jpg
101,00001424,旧加藤家住宅北高塀,きゅうかとうけじゅうたくきたたかべい,1棟,,登録有形文化財(建造物),住宅,その他工作,,昭和前,昭和初期,1926-1988,木造、延長11m、土塀27m附属,,23 － 0044,21,1999.12.02(平成11.12.02),1999.11.18(平成11.11.18),,19991118,,国土の歴史的景観に寄与しているもの,,愛知県,愛知県北名古屋市六ッ師南屋敷704-1,,北名古屋市,,,35.25202000000000,136.89250000000000,旧加藤家は屋敷の外周を概ね玉石積とし，腰下見板張りの塀を巡らす。北高塀は主屋北面の側庇を兼ねたもので，採光のため上部縦格子窓，下部縦板張りとする。ちなみに，旧加藤家は平成10年３月に師勝町へ寄贈され，資料館的施設としての活用が計画されている。,https://bunka.nii.ac.jp/heritage/43967/_102414/43967_102414111225011814530_300.jpg
101,00001711,建中寺徳興殿（旧名古屋商業会議所本館）,けんちゅうじとっこうでん（きゅうなごやしょうぎょうかいぎしょほんかん）,1棟,,登録有形文化財(建造物),産業3次,建築物,,明治,明治29／昭和9移築,1896／1934移築,木造2階建、瓦葺、建築面積454㎡,,23 － 0045,24,2000.05.25(平成12.05.25),2000.04.28(平成12.04.28),,20000428,,再現することが容易でないもの,,愛知県,愛知県名古屋市東区筒井1-703-1,,宗教法人建中寺,,,35.17945000000000,136.92800000000000,名古屋商業会議所（現商工会議所）本館として建てられ、当初は洋風の議事堂が附属していた。入母屋造瓦葺で、２階部分を大空間の「集会所」としており、建中寺に移築されてからは畳敷の大広間となっている。名古屋市街地に建つ木造建築としては最大級のもの。,https://bunka.nii.ac.jp/heritage/43967/_102701/43967_102701111225012118890_300.jpg
101,00001844,伊世賀美隧道,いせがみずいどう,1基,,登録有形文化財(建造物),交通,土木構造物,,明治,明治30,1897,石造、延長308m,,23 － 0046,25,2000.10.11(平成12.10.11),2000.09.26(平成12.09.26),,20000926,,国土の歴史的景観に寄与しているもの,,愛知県,愛知県豊田市明川町岩立,,豊田市,,,35.17215000000000,137.42960000000000,長野を北南に縦断し名古屋に通じる伊那街道の難所伊勢神峠に建設された長３０８ｍ，幅員約３ｍの総花崗石造の隧道。ルスチカ積のピラスターと，仕上げの異なる二重迫石からなる馬蹄形坑口でポータルをつくる。中部地方における明治期の代表的道路隧道の一つ。,https://bunka.nii.ac.jp/heritage/43967/_102834/43967_102834111225012240937_300.jpg
101,00001912,旧井上家住宅西洋館,きゅういのうえけじゅうたくせいようかん,1棟,,登録有形文化財(建造物),文化福祉,建築物,,明治,明治10代,1877-1886,木造2階建、瓦葺、建築面積23㎡,,23 － 0047,26,2000.11.06(平成12.11.06),2000.10.18(平成12.10.18),,20001018,,造形の規範となっているもの,,愛知県,愛知県豊田市平戸橋町波岩86-100,,豊田市,,,35.12254000000000,137.19000000000000,博覧会の貴賓館として名古屋に建造されたと伝わる。その後用途を変えつつ，移築･増改築された。木造2階建，寄棟造桟瓦葺，外装下見板貼のベランダ付洋館で，連子格子･上げ下げ･引違･回転と多様な開口部形式をとる。軒板飾，高欄に擬洋風建築の意匠を窺える。,https://bunka.nii.ac.jp/heritage/43967/_102902/43967_102902111225012338807_300.jpg
101,00001913,豊田市青少年相談所（旧愛知県蚕業取締所第九支所）,とよたしせいしょうねんそうだんしょ（きゅうあいちけんさんぎょうとりしまりしょだいきゅうししょ）,1棟,,登録有形文化財(建造物),官公庁舎,建築物,,大正,大正11,1922,鉄筋コンクリート造平屋建、瓦葺、建築面積556㎡,,23 － 0048,26,2000.11.06(平成12.11.06),2000.10.18(平成12.10.18),,20001018,,造形の規範となっているもの,,愛知県,愛知県豊田市喜多町4-45,,豊田市,,,35.08755000000000,137.16090000000000,市街地中心部に建つ，鉄筋コンクリート造平屋建の旧県蚕糸試験所。コ字形平面，広い水平方向の窓などで西洋建築的装いを示す一方，正面玄関上部と妻側に構えた千鳥破風，各柱頭部に頂く大斗，肘木に，和風建築を意識した意匠が施される。,https://bunka.nii.ac.jp/heritage/43967/_102903/43967_102903111225012339325_300.jpg
101,00001914,豊田市青少年相談所（旧愛知県蚕業取締所第九支所）門,とよたしせいしょうねんそうだんしょ（きゅうあいちけんさんぎょうとりしまりしょだいきゅうししょ）もん,1棟,,登録有形文化財(建造物),官公庁舎,その他工作,,大正,大正11,1922,石造、瓦葺、間口3.1m,,23 － 0049,26,2000.11.06(平成12.11.06),2000.10.18(平成12.10.18),,20001018,,国土の歴史的景観に寄与しているもの,,愛知県,愛知県豊田市喜多町4-45,,豊田市,,,35.08751000000000,137.16060000000000,通りに面し，相談所正面入口に位置する。縦縞状の柱礎部・柱頭部と，小型の石が組み合わされた柱身部からなる御影石造門柱に，桟瓦葺の木造小屋組を載せた棟門形式をとる。相談所と伴に，当地が養蚕業を営んでいた頃の面影を伝える数少ない建造物。,https://bunka.nii.ac.jp/heritage/43967/_102904/43967_102904111225012340621_300.jpg
101,00002044,羽田八幡宮社務所離れ（旧羽田野家住宅主屋）,はだはちまんぐうしゃむしょはなれ（きゅうはだのけじゅうたくしゅおく）,1棟,,登録有形文化財(建造物),住宅,建築物,,江戸,江戸中期／大正末期移築,1661-1750／1912-1925移築,木造平屋建、瓦葺、建築面積94㎡,,23 － 0050,27,2000.12.20(平成12.12.20),2000.12.04(平成12.12.04),,20001204,,造形の規範となっているもの,,愛知県,愛知県豊橋市花田町字斉藤56-3,,宗教法人羽田八幡宮,,,34.76495000000000,137.37660000000000,図書館の先駆とされる羽田八幡宮文庫を主宰した神主の住宅主屋。文化９年(1812)に渥美半島の百々村から移築，さらに大正末年に現在地に移築された。木造平屋建，片入母屋造，桟瓦葺で，南面縁側の先に土庇を設ける。１０畳主室の床棚構成に特徴がある。,https://bunka.nii.ac.jp/heritage/43967/_103034/43967_103034111225012500974_300.jpg
101,00002045,羽田八幡宮蔵（旧羽田八幡宮文庫）,はだはちまんぐうくら（きゅうはだはちまんぐうぶんこ）,1棟,,登録有形文化財(建造物),文化福祉,建築物,,江戸,嘉永1,1848,土蔵造平屋建、瓦葺、建築面積20㎡,,23 － 0051,27,2000.12.20(平成12.12.20),2000.12.04(平成12.12.04),,20001204,,国土の歴史的景観に寄与しているもの,,愛知県,愛知県豊橋市花田町字斉藤56-3,,宗教法人羽田八幡宮,,,34.76497000000000,137.37650000000000,近代的図書館の先駆とされる羽田八幡宮文庫の書庫。桁行３間，梁行２間の規模，切妻造，桟瓦葺，平入の標準的なつくりの平屋建土蔵で，書庫らしく南面に小さな窓を設けただけの閉鎖的な構えをとり，東面に１間幅の戸口を設けて社務所離れに繋げる。,https://bunka.nii.ac.jp/heritage/43967/_103035/43967_103035111225012502452_300.jpg
101,00002046,羽田八幡宮門（旧羽田八幡宮文庫正門）,はだはちまんぐうもん（きゅうはだはちまんぐうぶんこせいもん）,1棟,,登録有形文化財(建造物),文化福祉,その他工作,,江戸,嘉永1,1848,木造、瓦葺、間口3m,,23 － 0052,27,2000.12.20(平成12.12.20),2000.12.04(平成12.12.04),,20001204,,国土の歴史的景観に寄与しているもの,,愛知県,愛知県豊橋市花田町字斉藤58,,宗教法人羽田八幡宮,,,34.76477000000000,137.37650000000000,豊橋駅西口近く，北西方に位置する羽田八幡宮の参道中程に西面して建つ。正面全幅１０尺ほどで中央１間分を通路とし，両側２尺づつは腰を板張とした土壁とする。桟瓦葺の切妻屋根を架けた簡素な腕木門であるが，由緒ある文庫位置の目印として貴重。,https://bunka.nii.ac.jp/heritage/43967/_103036/43967_103036111225012502956_300.jpg
101,00002144,旧加藤商会ビル,きゅうかとうしょうかいびる,1棟,,登録有形文化財(建造物),産業3次,建築物,,昭和前,昭和6頃,1931頃,鉄筋コンクリート造地上3階地下1階建、建築面積77㎡、塔屋付,,23 － 0053,28,2001.05.15(平成13.05.15),2001.04.24(平成13.04.24),,20010424,,国土の歴史的景観に寄与しているもの,,愛知県,愛知県名古屋市中区錦1-15-17,,名古屋市,,,35.16812000000000,136.89220000000000,納屋橋東詰北側の角地に建つ鉄筋コンクリート造３階建地下室付の事務所ビル。東南角をアールにして正面玄関を設け，堀川に面する西面を４階建に見せるなど立地を生かした造りとする他，煉瓦調のタイルや柱頭飾りなどに大正期の建築意匠的特徴がうかがわれる。,https://bunka.nii.ac.jp/heritage/43967/_103134/43967_103134111225012605497_300.jpg
101,00002145,又兵衛（旧坂上家住宅）,またべえ（きゅうさかがみけじゅうたく）,1棟,,登録有形文化財(建造物),住宅,建築物,,江戸,江戸中期／昭和11及び同32移築,1661-1750／1936及び1957移築,木造平屋建、茅葺（鉄板仮葺）、建築面積124㎡,,23 － 0054,28,2001.05.15(平成13.05.15),2001.04.24(平成13.04.24),,20010424,,再現することが容易でないもの,,愛知県,愛知県名古屋市熱田区神宮1-1-1,,宗教法人熱田神宮,,,35.12513000000000,136.90820000000000,もと飛騨北東部の合掌造民家。入母屋造，平入の広間型平面で，下手にマヤとニワ，上手に仏間を挟んでデイとチョウダを前後に配する。股柱など構造形式からみて現存合掌造民家としては最古期に属し，城戸久調査指導による移築も最初期の民家移築保存例になる。,https://bunka.nii.ac.jp/heritage/43967/_103135/43967_103135111225012606255_300.jpg
101,00002257,滝学園本館,たきがくえんほんかん,1棟,,登録有形文化財(建造物),学校,建築物,,昭和前,昭和1,1926,鉄筋コンクリート造2階建、鋼板葺、建築面積1482㎡、塔屋付,,23 － 0056,29,2001.09.14(平成13.09.14),2001.08.28(平成13.08.28),,20010828,,国土の歴史的景観に寄与しているもの,,愛知県,愛知県江南市東野町米野1,,学校法人滝学園,,,35.33536000000000,136.85590000000000,鉄筋コンクリート造，２階建，長大な主屋の両端に短い翼屋をつけた平面。簡明なデザインであるが，正面中央の頂部ペディメント付の玄関突出部，大屋根中央の時計塔など，地域の景観のシンボルとなっている。設計は村瀬國之助，施工は名古屋の安藤建設という。,https://bunka.nii.ac.jp/heritage/43967/_103247/43967_103247111225012719683_300.jpg
101,00002258,滝学園講堂,たきがくえんこうどう,1棟,,登録有形文化財(建造物),学校,建築物,,昭和前,昭和8,1933,鉄筋コンクリート一部鉄骨造2階建、セメント瓦葺、建築面積626㎡,,23 － 0057,29,2001.09.14(平成13.09.14),2001.08.28(平成13.08.28),,20010828,,国土の歴史的景観に寄与しているもの,,愛知県,愛知県江南市東野町米野1,,学校法人滝学園,,,35.33581000000000,136.85600000000000,滝学園は名古屋の豪商滝信四郎が創設した。講堂は鉄筋コンクリート造，屋根鉄骨トラス組で本館前広場の東側に建つ。無装飾に近い点が特徴で，正面に設けられた額縁を廻した３連出入口や，ペディメント風の屋根妻面などが，象徴性のある形態を構成している。,https://bunka.nii.ac.jp/heritage/43967/_103248/43967_103248111225012720185_300.jpg
101,00002628,旧林家住宅主屋及び裏座敷,きゅうはやしけじゅうたくおもやおよびうらざしき,1棟,,登録有形文化財(建造物),住宅,建築物,,大正,大正初期／昭和初期増築,1912-1925／1926-1988増築,木造2階一部平屋建、瓦葺、建築面積265㎡,,23 － 0058,32,2002.03.12(平成14.03.12),2002.02.14(平成14.02.14),,20020214,,国土の歴史的景観に寄与しているもの,,愛知県,愛知県一宮市起字下町211,,一宮市,,,35.30603000000000,136.73670000000000,東海道宮宿と中山道垂井を結ぶ美濃路七宿の一つ起宿の脇本陣。濃尾地震で被災した旧施設に代わって建設された現存建物は，座敷回り等に近代的な構成がみられるが，外観や細部は伝統的な大型町家の形式を踏襲し，旧宿の景観を構成する主要な要素となっている。,https://bunka.nii.ac.jp/heritage/43967/_103618/43967_103618756274795720616_300.jpg
101,00002772,花岳寺本堂,かがくじほんどう,1棟,,登録有形文化財(建造物),宗教,建築物,,江戸,貞享1,1684,木造平屋建、瓦葺、建築面積133㎡,,23 － 0059,33,2002.07.16(平成14.07.16),2002.06.25(平成14.06.25),,20020625,,造形の規範となっているもの,,愛知県,愛知県西尾市吉良町岡山山王山67,,宗教法人花岳寺,,,34.84333000000000,137.08220000000000,吉良氏の菩提寺となった臨済宗寺院本堂。入母屋造，桟瓦葺で，六間取りの典型的な形式をとるが，仏壇の構えや木割が細い点に古式を伝える。建具等一部に改造はあるが主要材はほとんど当初材が残り，１７世紀後期における地域の禅宗本堂を知る上で重要な遺構。,https://bunka.nii.ac.jp/heritage/43967/_103762/43967_103762111225013235343_300.jpg
101,00003431,実相寺方丈,じっそうじほうじょう,1棟,,登録有形文化財(建造物),宗教,建築物,,江戸,江戸前期,1615-1660,木造平屋建、瓦葺、建築面積208㎡,,23 － 0060,37,2003.07.17(平成15.07.17),2003.07.01(平成15.07.01),,20030701,,造形の規範となっているもの,,愛知県,愛知県西尾市上町下屋敷15,,宗教法人実相寺,,,34.87642000000000,137.03630000000000,吉良氏建立になる臨済宗寺院方丈で，室中を中心とした６間取平面の中心部を残す。改造により両側面広縁が撤去され，屋根も切妻造となるが，内法の低い内部など江戸初期の雰囲気をよく残す。木柄の太い大型の建物で，東方の庫裡とともに伽藍の中核を構成する。,https://bunka.nii.ac.jp/heritage/43967/_104421/43967_104421111225013915480_300.jpg
101,00003432,実相寺庫裡,じっそうじくり,1棟,,登録有形文化財(建造物),宗教,建築物,,江戸,江戸中期,1661-1750,木造平屋建、瓦葺、建築面積212㎡,,23 － 0061,37,2003.07.17(平成15.07.17),2003.07.01(平成15.07.01),,20030701,,国土の歴史的景観に寄与しているもの,,愛知県,愛知県西尾市上町下屋敷15,,宗教法人実相寺,,,34.87639000000000,137.03650000000000,方丈東方に玄関部を介して接続する。桁行１４．７ｍ，梁間１５．４ｍ，入母屋造妻入，桟瓦葺（もと茅葺）で，南東隅に部屋を張り出す。前面土間とその奥の床上部は間仕切がなく，大梁を縦横に架け豪壮な大空間を造る。簡素だが禅宗伽藍構成上欠かせない建物。,https://bunka.nii.ac.jp/heritage/43967/_104422/43967_104422111225013918030_300.jpg
101,00003649,興禅寺庫裏,こうぜんじくり,1棟,,登録有形文化財(建造物),宗教,建築物,,江戸,文政13,1830,木造平屋一部2階建、瓦葺、建築面積312㎡,,23 － 0062,39,2003.12.25(平成15.12.25),2003.12.01(平成15.12.01),,20031201,,造形の規範となっているもの,,愛知県,愛知県犬山市羽黒城屋敷16,,宗教法人興禅寺,,,35.35315000000000,136.94920000000000,木造一部２階建，切妻造，本瓦葺。本堂東に位置する南北棟で，西側の接客部と東側の居住部に二分し，各々表から土間，板間，座敷で構成する。居住部の土間と板間は洋室に改装された。妻に表した小屋組の虹梁，太瓶束，海老虹梁や煙出しの越屋根が目をひく。,https://bunka.nii.ac.jp/heritage/43967/_104639/43967_104639111225014145559_300.jpg
101,00003650,明治村第八高等学校正門,めいじむらだいはちこうとうがっこうせいもん,1棟,,登録有形文化財(建造物),学校,その他工作,,明治,明治42／昭和45移築,1909／1970移築,煉瓦造、間口9.3m、左右袖塀各5.1m及び鉄製門扉付,,23 － 0063,39,2003.12.25(平成15.12.25),2003.12.01(平成15.12.01),,20031201,,造形の規範となっているもの,,愛知県,愛知県犬山市内山1博物館明治村内,,公益財団法人明治村,,,35.34054000000000,136.98860000000000,煉瓦造の門で両側に脇門を備え，脇塀が接続する。門柱は赤煉瓦積角柱で胴部に３条の花崗岩の帯を巡らす。門柱頭部は箱形で蛇腹を廻す。鉄製門扉は戦中に供出されたものを移築時に復原した。細い竪格子を粗く配しており，円環と渦巻の装飾が軽快である。,https://bunka.nii.ac.jp/heritage/43967/_104640/43967_104640111225014146084_300.jpg
101,00003651,明治村大井牛肉店,めいじむらおおいぎゅうにくてん,1棟,,登録有形文化財(建造物),産業3次,建築物,,明治,明治20／昭和43移築,1887／1968移築,木造2階建、瓦葺、建築面積98㎡,,23 － 0064,39,2003.12.25(平成15.12.25),2003.12.01(平成15.12.01),,20031201,,造形の規範となっているもの,,愛知県,愛知県犬山市内山1博物館明治村内,,公益財団法人明治村,,,35.34013000000000,136.98850000000000,神戸元町に牛肉販売・牛鍋料理店として建築。木造洋風２階建で白漆喰塗の外壁に胴蛇腹と軒蛇腹を廻す。各階隅の角柱と２階ヴェランダの独立円柱にコリント式柱頭を飾る。窓は半円アーチ欄間の上げ下げ窓。玄関庇にはむくり破風の和風意匠を用いている。,https://bunka.nii.ac.jp/heritage/43967/_104641/43967_104641111225014146596_300.jpg
101,00003652,明治村三重県尋常師範学校・蔵持小学校,めいじむらみえけんじんじょうしはんがっこう・くらもちしょうがっこう,1棟,,登録有形文化財(建造物),学校,建築物,,明治,明治21／昭和48移築,1888／1973移築,木造2階建、瓦葺、建築面積365㎡,,23 － 0065,39,2003.12.25(平成15.12.25),2003.12.01(平成15.12.01),,20031201,,造形の規範となっているもの,,愛知県,愛知県犬山市内山1博物館明治村内,,公益財団法人明治村,,,35.34014000000000,136.98790000000000,木造２階建，桟瓦葺，外壁は玄関部が漆喰塗，教室部が下見板張。軒先持送りと胴蛇腹の下に飾りパネルを付け，簡素な上げ下げ窓を配す。玄関部と１階廊下にトスカナ式円柱を配し，入母屋破風とポーチ扁平アーチを植物意匠で飾る。設計は三重県技師の清水義八。,https://bunka.nii.ac.jp/heritage/43967/_104642/43967_104642111225014146866_300.jpg
101,00003653,明治村近衛局本部付属舎（皇宮警察坂下護衛署別館）,めいじむらこのえきょくほんぶふぞくしゃ（こうぐうけいさつさかしたごえいしょべっかん）,1棟,,登録有形文化財(建造物),官公庁舎,建築物,,明治,明治21／昭和52移築,1888／1977移築,木造平屋建、瓦葺、建築面積197㎡,,23 － 0066,39,2003.12.25(平成15.12.25),2003.12.01(平成15.12.01),,20031201,,造形の規範となっているもの,,愛知県,愛知県犬山市内山1博物館明治村内,,公益財団法人明治村,,,35.33986000000000,136.98810000000000,切石の基礎上に建つ木造平屋建，寄棟造，桟瓦葺の建物で，軒蛇腹を廻す。内外壁を平滑な白漆喰塗とし，欄間付きの両開き戸の出入口と上げ下げ窓を開く。正面アーケードの柱頭高から半円アーチに沿わせた細いコーニスが意匠の中心となっている。,https://bunka.nii.ac.jp/heritage/43967/_104643/43967_104643111225014147380_300.jpg
101,00003654,明治村赤坂離宮正門哨舎,めいじむらあかさかりきゅうせいもんしょうしゃ,1棟,,登録有形文化財(建造物),住宅,建築物,,明治,明治41／昭和58移築,1908／1983移築,木造平屋建、銅板葺、建築面積2.0㎡,,23 － 0067,39,2003.12.25(平成15.12.25),2003.12.01(平成15.12.01),,20031201,,造形の規範となっているもの,,愛知県,愛知県犬山市内山1博物館明治村内,,公益財団法人明治村,,,35.33979000000000,136.98820000000000,片山東熊設計の旧東宮御所正門内外に４基設けられた哨舎の１基。木造，八角平面。壁は内外とも白ペンキ塗で，半円アーチの出入口と円形小窓を開く。軒先には蛇腹，歯飾りと雷文を飾る。銅板葺の丸屋根頂部には巻軸飾りと花綱飾りを組合せ，頂部に球を載せる。,https://bunka.nii.ac.jp/heritage/43967/_104644/43967_104644111225014147644_300.jpg
101,00003655,明治村学習院長官舎,めいじむらがくしゅういんちょうかんしゃ,1棟,,登録有形文化財(建造物),住宅,建築物,,明治,明治42／昭和39移築,1909／1964移築,木造2階建、瓦葺、建築面積180㎡,,23 － 0068,39,2003.12.25(平成15.12.25),2003.12.01(平成15.12.01),,20031201,,造形の規範となっているもの,,愛知県,愛知県犬山市内山1博物館明治村内,,公益財団法人明治村,,,35.33999000000000,136.98970000000000,２階建の和館と洋館を接続した木造住宅建築。和館部は上下階とも床構えを持つ１０畳と６畳に縁と廊下が付く。洋館部は下見板張で胴蛇腹を廻し，欄間付上げ下げ窓を配す。２階窓は小庇と窓台に持送りが付く。玄関部に差掛けた車寄は鉄柱と妻飾りが軽快である。,https://bunka.nii.ac.jp/heritage/43967/_104645/43967_104645111225014148691_300.jpg
101,00003656,明治村森鷗外・夏目漱石住宅,めいじむらもりおうがい・なつめそうせきじゅうたく,1棟,,登録有形文化財(建造物),住宅,建築物,,明治,明治20頃／昭和39移築,1887頃／1964移築,木造平屋建、瓦葺、建築面積130㎡,,23 － 0069,39,2003.12.25(平成15.12.25),2003.12.01(平成15.12.01),,20031201,,造形の規範となっているもの,,愛知県,愛知県犬山市内山1博物館明治村内,,公益財団法人明治村,,,35.34041000000000,136.99050000000000,木造平屋建，寄棟造，桟瓦葺で，外壁は押縁下見板張。田の字型平面を基本とする和風住宅で，座敷の表に縁を通す。玄関脇に応接兼書斎を設け，台所から短い中廊下を設けるなど，近代住宅への萌芽も見える。明治中期の典型的中流住宅の姿を示す建物である。,https://bunka.nii.ac.jp/heritage/43967/_104646/43967_104646150717210517315_300.jpg
101,00003657,明治村東京盲学校車寄,めいじむらとうきょうもうがっこうくるまよせ,1棟,,登録有形文化財(建造物),学校,その他工作,,明治,明治43／昭和43移築,1910／1968移築,木造平屋建、鉄板葺、建築面積20㎡,,23 － 0070,39,2003.12.25(平成15.12.25),2003.12.01(平成15.12.01),,20031201,,造形の規範となっているもの,,愛知県,愛知県犬山市内山1博物館明治村内,,公益財団法人明治村,,,35.33934000000000,136.99100000000000,ハーフチンバー様式の建物の車寄部分を移築，四阿とする。緩い切妻屋根を鉄板葺とし，花弁と渦巻を組合せた屋根飾りを載せる。天井中心飾りと破風を植物意匠で，持送り，柱の頭部と胴部，腰壁を幾何学意匠で飾る。柱に支持されない３連アーチが目をひく。,https://bunka.nii.ac.jp/heritage/43967/_104647/43967_104647111225014149947_300.jpg
101,00003658,明治村二重橋飾電燈,めいじむらにじゅうばしかざりでんとう,1基,,登録有形文化財(建造物),交通,その他工作,,明治,明治21／昭和40移築,1888／1965移築,鉄製、高さ5.2m、鉄製高欄付,,23 － 0071,39,2003.12.25(平成15.12.25),2003.12.01(平成15.12.01),,20031201,,造形の規範となっているもの,,愛知県,愛知県犬山市内山1博物館明治村内,,公益財団法人明治村,,,35.34064000000000,136.98940000000000,全高５．２ｍの鋳鉄製。ドイツ「ＨＡＲＫＯＲＴ」社製造。全体を植物意匠のネオ・バロック様式で飾る。角壺形の基部に立てた主幹上に１灯を掲げ，四方の腕から各１灯を吊る。火屋は卵形で，笠は放射状に蔓を巻き上げる。周囲の鉄柵は高欄の一部である。,https://bunka.nii.ac.jp/heritage/43967/_104648/43967_104648111225014150457_300.jpg
101,00003659,明治村鉄道局新橋工場,めいじむらてつどうきょくしんばしこうじょう,1棟,,登録有形文化財(建造物),産業2次,建築物,,明治,明治22／昭和41移築,1889／1966移築,鉄造平屋建、銅板葺、建築面積463㎡,,23 － 0072,39,2003.12.25(平成15.12.25),2003.12.01(平成15.12.01),,20031201,,再現することが容易でないもの,,愛知県,愛知県犬山市内山1博物館明治村内,,公益財団法人明治村,,,35.34036000000000,136.98930000000000,鉄造平屋建，越屋根付き切妻屋根を銅板葺とする。妻には半円のファンライトを飾り，半円アーチの扉口に両開き戸を吊り込む。鋳鉄柱，キングポストトラスの小屋組材，鉄製下見板，サッシ類の鉄材は全て国産で，当時の工業技術を示す貴重な遺構である。,https://bunka.nii.ac.jp/heritage/43967/_104649/43967_104649111225014150726_300.jpg
101,00003660,明治村千早赤阪小学校講堂,めいじむらちはやあかさかしょうがっこうこうどう,1棟,,登録有形文化財(建造物),学校,建築物,,明治,明治30頃／昭和51移築,1897頃／1976移築,木造2階建、瓦葺、建築面積463㎡,,23 － 0073,39,2003.12.25(平成15.12.25),2003.12.01(平成15.12.01),,20031201,,造形の規範となっているもの,,愛知県,愛知県犬山市内山1博物館明治村内,,公益財団法人明治村,,,35.34136000000000,136.98980000000000,木造２階建，寄棟造，桟瓦葺で，１階を雨天体操場，２階を講堂とする。１階は櫛形アーチの軽快なアーケードを巡らせ，２階は隅柱付の下見板張外壁にペディメント付の上げ下げ窓を配す。棟飾やせいの高い軒蛇腹など，明治期木造洋風建築の特色ある意匠を示す。,https://bunka.nii.ac.jp/heritage/43967/_104650/43967_104650111225014151952_300.jpg
101,00003661,明治村第四高等学校物理化学教室,めいじむらだいよんこうとうがっこうぶつりかがくきょうしつ,1棟,,登録有形文化財(建造物),学校,建築物,,明治,明治23／昭和40移築,1890／1965移築,木造平屋建、瓦葺、建築面積454㎡,,23 － 0074,39,2003.12.25(平成15.12.25),2003.12.01(平成15.12.01),,20031201,,造形の規範となっているもの,,愛知県,愛知県犬山市内山1博物館明治村内,,公益財団法人明治村,,,35.34144000000000,136.98900000000000,木造平屋建，中央玄関ホールの両側に階段教室を設けて切妻屋根を一段高く造り，左右に寄棟屋根の実験教室を延ばす。外壁は隅柱付の下見板張で，欄間付上げ下げ窓を配し，木造洋風校舎建築の代表例である。棟札に工事監督山口半六，設計久留正道とある。,https://bunka.nii.ac.jp/heritage/43967/_104651/43967_104651111225014152469_300.jpg
101,00003662,明治村清水医院,めいじむらしみずいいん,1棟,,登録有形文化財(建造物),文化福祉,建築物,,明治,明治30代／昭和48移築,1897-1906／1973移築,土蔵造2階建、柿葺、建築面積48㎡,,23 － 0075,39,2003.12.25(平成15.12.25),2003.12.01(平成15.12.01),,20031201,,造形の規範となっているもの,,愛知県,愛知県犬山市内山1博物館明治村内,,公益財団法人明治村,,,35.34177000000000,136.98890000000000,土蔵造２階建，切妻造，平入で木曽檜のこけら葺とする。隅に柱型を付け，外壁の漆喰に目地を切って石造風に見せるなど洋風を意識した意匠をもつ。開口部は櫛形アーチだが，窓は引込み戸である。１階は通り土間式平面，２階は数寄屋風座敷と内部は和風である。,https://bunka.nii.ac.jp/heritage/43967/_104652/43967_104652111225014152984_300.jpg
101,00003663,明治村京都中井酒造,めいじむらきょうとなかいしゅぞう,1棟,,登録有形文化財(建造物),産業2次,建築物,,明治,明治3／平成5移築,1870／1993移築,木造2階建、瓦葺、建築面積155㎡,,23 － 0076,39,2003.12.25(平成15.12.25),2003.12.01(平成15.12.01),,20031201,,再現することが容易でないもの,,愛知県,愛知県犬山市内山1博物館明治村内,,公益財団法人明治村,,,35.34165000000000,136.98990000000000,切妻造，平入の木造つし２階建町家。屋根は起りのある桟瓦葺で，右手を落棟とする。正面１階は太い格子と無双窓，２階は虫籠窓である。内部は通り土間の左が居室，右に穀物置場，井戸と洗米所，煉瓦造蒸し竈などがあり，当時の酒造業の様子を示す遺構である。,https://bunka.nii.ac.jp/heritage/43967/_104653/43967_104653111225014153506_300.jpg
101,00003664,明治村安田銀行会津支店,めいじむらやすだぎんこうあいづしてん,1棟,,登録有形文化財(建造物),産業3次,建築物,,明治,明治40／昭和40移築,1907／1965移築,土蔵造平屋建、瓦葺、建築面積154㎡,,23 － 0077,39,2003.12.25(平成15.12.25),2003.12.01(平成15.12.01),,20031201,,造形の規範となっているもの,,愛知県,愛知県犬山市内山1博物館明治村内,,公益財団法人明治村,,,35.34165000000000,136.99010000000000,黒漆喰塗の土蔵造，寄棟屋根を赤味の塩焼瓦葺とする。外観は二階建だが，内部は吹抜で営業室上にギャラリーがつく。伝統的な土蔵造の意匠をもとに，玄関ポーチ，石積の腰壁，営業室カウンター，ギャラリーを支える円柱など，洋風意匠を巧みに取り入れている。,https://bunka.nii.ac.jp/heritage/43967/_104654/43967_104654111225014154031_300.jpg
101,00003665,明治村京都七條巡査派出所,めいじむらきょうとしちじょうじゅんさはしゅつしょ,1棟,,登録有形文化財(建造物),官公庁舎,建築物,,明治,明治45／昭和44移築,1912／1969移築,木造平屋建、銅板葺、建築面積24㎡,,23 － 0078,39,2003.12.25(平成15.12.25),2003.12.01(平成15.12.01),,20031201,,造形の規範となっているもの,,愛知県,愛知県犬山市内山1博物館明治村内,,公益財団法人明治村,,,35.34171000000000,136.99060000000000,木造平屋建。腰壁を洗い出し，その上を赤煉瓦タイル貼とし，洗出しの横帯と窓欄間額縁をアクセントとする。銅板葺の屋根は下半を折って緩勾配とし，軽快な持送りで軒を受ける。隅切して設けた玄関には蒲鉾形の庇がつく。内部は詰所と宿直室の２室からなる。,https://bunka.nii.ac.jp/heritage/43967/_104655/43967_104655111225014155244_300.jpg
101,00003666,明治村北里研究所本館,めいじむらきたざとけんきゅうじょほんかん,1棟,,登録有形文化財(建造物),文化福祉,建築物,,大正,大正4／昭和55移築,1915／1980移築,木造2階建、スレート葺一部銅板葺、建築面積360㎡、塔屋付,,23 － 0079,39,2003.12.25(平成15.12.25),2003.12.01(平成15.12.01),,20031201,,造形の規範となっているもの,,愛知県,愛知県犬山市内山1博物館明治村内,,公益財団法人明治村,,,35.34156000000000,136.99160000000000,木造２階建の洋風建築。天然スレート葺の腰折れ屋根に櫛形の屋根窓を置く。玄関上には段状破風と八角小塔を飾る。外壁は下見板張で，腰壁と軒下小壁を竪羽目板張とし，上げ下げ窓まわりに柱形を表す。玄関車寄は縦溝付の角柱で支え，パラペットを飾る。,https://bunka.nii.ac.jp/heritage/43967/_104656/43967_104656111225014155737_300.jpg
101,00003667,明治村幸田露伴住宅蝸牛庵,めいじむらこうだろはんじゅうたくかぎゅうあん,1棟,,登録有形文化財(建造物),住宅,建築物,,明治,明治初／昭和47移築,1868／1972移築,木造平屋一部2階建、瓦葺、建築面積120㎡,,23 － 0080,39,2003.12.25(平成15.12.25),2003.12.01(平成15.12.01),,20031201,,造形の規範となっているもの,,愛知県,愛知県犬山市内山1博物館明治村内,,公益財団法人明治村,,,35.34091000000000,136.99290000000000,木造一部２階建，寄棟造，桟瓦葺。外壁は押縁下見。玄関，台所，６畳２室の主体部に小さく２階を載せ，１０畳座敷部を接続する。複雑な平面に応じた変化のある屋根形状を呈する。座敷の切目縁は吹放ちで土庇の出が深い。中流住宅の当時を伝える建物である。,https://bunka.nii.ac.jp/heritage/43967/_104657/43967_104657111225014156249_300.jpg
101,00003671,明治村茶室亦楽庵,めいじむらちゃしつえきらくあん,1棟,,登録有形文化財(建造物),住宅,建築物,,明治,明治10頃／昭和46移築,1877頃／1971移築,木造平屋建、瓦葺一部銅板葺、建築面積28㎡,,23 － 0084,39,2003.12.25(平成15.12.25),2003.12.01(平成15.12.01),,20031201,,造形の規範となっているもの,,愛知県,愛知県犬山市内山1博物館明治村内,,公益財団法人明治村,,,35.34125000000000,136.99330000000000,京都の医師，福井恒斎が自邸に建てた茶室である。木造平屋建，桁行２間半梁間３間。千宗旦の茶室「又隠」を模したといわれる四畳半茶室に，瓦敷き土間，水屋，廊下が付く。切妻造，桟瓦葺で，表側妻に小さな切妻屋根を付け，軒先，螻羽と庇を銅板葺とする。,https://bunka.nii.ac.jp/heritage/43967/_104661/43967_104661111225014159046_300.jpg
101,00003672,明治村長崎居留地二十五番館本館,めいじむらながさききょりゅうちにじゅうごばんかんほんかん,1棟,,登録有形文化財(建造物),住宅,建築物,,明治,明治22／昭和41移築,1889／1966移築,木造平屋建、瓦葺、建築面積241㎡,,23 － 0085,39,2003.12.25(平成15.12.25),2003.12.01(平成15.12.01),,20031201,,造形の規範となっているもの,,愛知県,愛知県犬山市内山1博物館明治村内,,公益財団法人明治村,,,35.34177000000000,136.99250000000000,木造平屋建，寄棟造，桟瓦葺で，正面と両側面に一段低く屋根を架けた板敷のヴェランダを巡らすコロニアル・スタイル。ヴェランダの角柱は礎石立で，柱頭の持送りが桁を受ける。隅柱を表した下見板張の外壁に両開き鎧戸付の上げ下げ窓を開く。棟梁は堤松太郎。,https://bunka.nii.ac.jp/heritage/43967/_104662/43967_104662111225014159561_300.jpg
101,00003673,明治村長崎居留地二十五番館別館,めいじむらながさききょりゅうちにじゅうごばんかんべっかん,1棟,,登録有形文化財(建造物),住宅,建築物,,明治,明治43／昭和41移築,1910／1966移築,木造平屋建、瓦葺、建築面積120㎡,,23 － 0086,39,2003.12.25(平成15.12.25),2003.12.01(平成15.12.01),,20031201,,造形の規範となっているもの,,愛知県,愛知県犬山市内山1博物館明治村内,,公益財団法人明治村,,,35.34192000000000,136.99250000000000,木造平屋建，寄棟造，桟瓦葺。切石基礎で，外壁は柱形を表した下見板張。内部は中央洋室と床構えを備えた和室２室を組合せる。洋室の三方に巡らせた廊下は外壁に引違い窓を入れるが，洋室側壁面に両開き戸と上下げ窓を設けて半戸外的に扱うのが特徴である。,https://bunka.nii.ac.jp/heritage/43967/_104663/43967_104663111225014200076_300.jpg
101,00003674,明治村神戸山手西洋人住居主屋,めいじむらこうべやまてせいようじんじゅうきょしゅおく,1棟,,登録有形文化財(建造物),住宅,建築物,,明治,明治20代／昭和44移築,1887-1896／1969移築,木造2階建、瓦葺、建築面積73㎡,,23 － 0087,39,2003.12.25(平成15.12.25),2003.12.01(平成15.12.01),,20031201,,造形の規範となっているもの,,愛知県,愛知県犬山市内山1博物館明治村内,,公益財団法人明治村,,,35.34211000000000,136.99280000000000,木造２階建，寄棟造，桟瓦葺。正面と片側面に折廻したヴェランダを上下階に設け，竪溝付角柱を吹寄せに配す特徴がある。出入口は櫛形欄間付の両開戸で鎧戸が付く。内部は上下階とも階段のある中廊下の両側に各１室を配す。ヴェランダ・コロニアル住宅の好例。,https://bunka.nii.ac.jp/heritage/43967/_104664/43967_104664111225014200345_300.jpg
101,00003675,明治村神戸山手西洋人住居付属屋,めいじむらこうべやまてせいようじんじゅうきょふぞくや,1棟,,登録有形文化財(建造物),住宅,建築物,,明治,明治20代／昭和44移築,1887-1896／1969移築,木造2階建、瓦葺、建築面積36㎡、2階渡廊下付,,23 － 0088,39,2003.12.25(平成15.12.25),2003.12.01(平成15.12.01),,20031201,,造形の規範となっているもの,,愛知県,愛知県犬山市内山1博物館明治村内,,公益財団法人明治村,,,35.34214000000000,136.99270000000000,木造２階建，寄棟造，桟瓦葺。主屋の背面に僅かに離れて建つ。外壁は柱形を表した下見板張。１階は土間と６畳和室，２階は縁の付く１０畳座敷と３畳室からなる。棟内には階段がなく，２階へは主屋２階との間の渡り廊下だけで接続する特異な平面をもつ。,https://bunka.nii.ac.jp/heritage/43967/_104665/43967_104665111225014200610_300.jpg
101,00003676,明治村宗教大学車寄,めいじむらしゅうきょうだいがくくるまよせ,1棟,,登録有形文化財(建造物),学校,その他工作,,明治,明治41／昭和55移築,1908／1980移築,木造平屋建、銅板葺、建築面積28㎡,,23 － 0089,39,2003.12.25(平成15.12.25),2003.12.01(平成15.12.01),,20031201,,造形の規範となっているもの,,愛知県,愛知県犬山市内山1博物館明治村内,,公益財団法人明治村,,,35.34237000000000,136.99280000000000,木造平屋建，宝形造，銅板瓦棒葺。元は大学本館車寄で移築時に背面側を正面と同形に仕上げる。花崗岩製腰壁に各隅３本の角柱が建ち，開口部は要石飾付の３心アーチで，迫元の蛇腹を持送りで受ける。柱間の壁は下部が横羽目板，蛇腹上は透彫のパネルを飾る。,https://bunka.nii.ac.jp/heritage/43967/_104666/43967_104666111225014201669_300.jpg
101,00003856,明治村第四高等学校武術道場無声堂主屋,めいじむらだいよんこうとうがっこうぶじゅつどうじょうむせいどうしゅおく,1棟,,登録有形文化財(建造物),学校,建築物,,大正,大正6／昭和45移築,1917／1970移築,木造平屋建、瓦葺、建築面積509㎡,,23 － 0090,40,2004.03.04(平成16.03.04),2004.02.17(平成16.02.17),,20040217,,造形の規範となっているもの,,愛知県,愛知県犬山市内山1博物館明治村内,,公益財団法人明治村,,,35.34281000000000,136.99040000000000,木造平屋建，切妻造，桟瓦葺。正面中央に切妻造玄関がつく。内部は剣道場と柔道場に二分し，両妻の落ち棟に師範台と更衣室，背後に浴室を設ける。外壁は隅柱付の洋風下見板張，小壁は漆喰塗真壁造，欄間付引違窓を開く。洋風小屋組で無柱の空間を実現した。,https://bunka.nii.ac.jp/heritage/43967/_104846/43967_104846111225014406431_300.jpg
101,00003857,明治村第四高等学校武術道場無声堂弓道場,めいじむらだいよんこうとうがっこうぶじゅつどうじょうむせいどうきゅうどうじょう,1棟,,登録有形文化財(建造物),学校,建築物,,大正,大正6／昭和45移築,1917／1970移築,木造平屋建、瓦葺、建築面積72㎡,,23 － 0091,40,2004.03.04(平成16.03.04),2004.02.17(平成16.02.17),,20040217,,造形の規範となっているもの,,愛知県,愛知県犬山市内山1博物館明治村内,,公益財団法人明治村,,,35.34272000000000,136.99010000000000,木造平屋建，切妻造，桟瓦葺で，的場側に庇がつく。主屋とは出入口の土間を介して接続する。外壁は隅柱付の洋風下見板張で，妻壁上部を漆喰塗真壁造とし，欄間付の引違窓と横長の引違窓を開く。洋風小屋組を使用し，的場に向かった間口一杯５間を無柱とする。,https://bunka.nii.ac.jp/heritage/43967/_104847/43967_104847111225014406941_300.jpg
101,00003858,明治村日本赤十字社中央病院病棟,めいじむらにほんせきじゅうじしゃちゅうおうびょういんびょうとう,1棟,,登録有形文化財(建造物),文化福祉,建築物,,明治,明治23／昭和49移築,1890／1974移築,木造平屋建、瓦葺、建築面積285㎡,,23 － 0092,40,2004.03.04(平成16.03.04),2004.02.17(平成16.02.17),,20040217,,造形の規範となっているもの,,愛知県,愛知県犬山市内山1博物館明治村内,,公益財団法人明治村,,,35.34304000000000,136.99100000000000,木造平屋建，寄棟造，桟瓦葺で，棟に換気塔を置く。煉瓦造の高い基礎に建ち，廊下を高床に造る。外壁はドイツ下見で，ハーフティンバー風に柱形をつける。病室は欄間付の上げ下げ窓に両開鎧戸，廊下は引違ガラス窓で小壁に革紐装飾を施す。設計は片山東熊。,https://bunka.nii.ac.jp/heritage/43967/_104848/43967_104848111225014407453_300.jpg
101,00003859,明治村日本赤十字社中央病院付属便所,めいじむらにほんせきじゅうじしゃちゅうおうびょういんふぞくべんじょ,1棟,,登録有形文化財(建造物),文化福祉,建築物,,明治,明治23／昭和49移築,1890／1974移築,木造平屋建、瓦葺、建築面積10㎡,,23 － 0093,40,2004.03.04(平成16.03.04),2004.02.17(平成16.02.17),,20040217,,造形の規範となっているもの,,愛知県,愛知県犬山市内山1博物館明治村内,,公益財団法人明治村,,,35.34305000000000,136.99120000000000,木造平屋建，寄棟造，桟瓦葺で棟上に切妻屋根の換気塔を載せる。切石基礎上に建ち，外壁はドイツ下見で，ハーフティンバー風に柱形で飾り，小壁に山形模様を刻む。妻側に上げ下げ窓，平側に引違窓を開く。設計は片山東熊。小規模だが細部まで意匠を凝らす。,https://bunka.nii.ac.jp/heritage/43967/_104849/43967_104849111225014408798_300.jpg
101,00003860,明治村歩兵第六聯隊兵舎,めいじむらほへいだいろくれんたいへいしゃ,1棟,,登録有形文化財(建造物),その他,建築物,,明治,明治6／昭和40移築,1873／1965移築,木造2階建、瓦葺、建築面積389㎡,,23 － 0094,40,2004.03.04(平成16.03.04),2004.02.17(平成16.02.17),,20040217,,造形の規範となっているもの,,愛知県,愛知県犬山市内山1博物館明治村内,,公益財団法人明治村,,,35.34331000000000,136.99080000000000,木造２階建，寄棟造。当初は桁行５０ｍを超える建物で，移築時に３分の２に縮めた。外壁は白漆喰塗の大壁に胴蛇腹を巡らせ，やや幅広の上げ下げ窓を開く。入口はポーチの起り屋根をトスカナ式円柱が支え，櫛形欄間付の唐戸を開く。鎮台時代兵舎建築の遺存例。,https://bunka.nii.ac.jp/heritage/43967/_104850/43967_104850111225014409058_300.jpg
101,00003861,明治村シアトル日系福音教会,めいじむらしあとるにっけいふくいんきょうかい,1棟,,登録有形文化財(建造物),住宅,建築物,,明治,明治40頃／昭和59移築,1907頃／1974移築,木造2階建、板葺、建築面積96㎡,,23 － 0095,40,2004.03.04(平成16.03.04),2004.02.17(平成16.02.17),,20040217,,造形の規範となっているもの,,愛知県,愛知県犬山市内山1博物館明治村内,,公益財団法人明治村,,,35.34321000000000,136.99200000000000,木造２階建，寄棟造，シングル葺で，両妻に屋根窓を載せる。我国へも明治末に導入されたプラットフォーム構法で，外壁は小口留の細かな下見板張とする。太い角柱で支えた玄関ポーチと２階ベイ・ウィンドウで変化をつけ，正面側の窓台は細かな持送りで受ける。,https://bunka.nii.ac.jp/heritage/43967/_104851/43967_104851111225014409604_300.jpg
101,00003862,明治村ブラジル移民住宅,めいじむらぶらじるいみんじゅうたく,1棟,,登録有形文化財(建造物),住宅,建築物,,大正,大正8／昭和50移築,1919／1975移築,木造2階建、瓦葺、建築面積82㎡,,23 － 0096,40,2004.03.04(平成16.03.04),2004.02.17(平成16.02.17),,20040217,,再現することが容易でないもの,,愛知県,愛知県犬山市内山1博物館明治村内,,公益財団法人明治村,,,35.34355000000000,136.99140000000000,木造２階建，切妻造，スペイン瓦葺。日本人大工による真壁造の建物で，小屋組や継手も和風の技法とする。１階は煉瓦敷の台所と納屋，２階が居室４室で外階段がつく。２階ヴェランダは曲木で受ける。窓は片開き板戸と両開きガラス戸を部屋毎に使い分けている。,https://bunka.nii.ac.jp/heritage/43967/_104852/43967_104852111225014410455_300.jpg
101,00003863,明治村ハワイ移民集会所,めいじむらはわいいみんしゅうかいしょ,1棟,,登録有形文化財(建造物),宗教,建築物,,明治,明治22頃／昭和44移築,1889頃／1969移築,木造平屋建、鉄板葺、建築面積88㎡,,23 － 0097,40,2004.03.04(平成16.03.04),2004.02.17(平成16.02.17),,20040217,,造形の規範となっているもの,,愛知県,愛知県犬山市内山1博物館明治村内,,公益財団法人明治村,,,35.34386000000000,136.99140000000000,基督教組合派の岡部次郎牧師が建設した教会。バルーン・フレーム構造の平屋建で，鉄板葺の切妻屋根は軒先で緩勾配とする。隅柱付の下見板張で上げ下げ窓を開く。正面軒高にコーニスを飾り，換気口や入口上ペディメントと共に反復する三角形で意匠をまとめる。,https://bunka.nii.ac.jp/heritage/43967/_104853/43967_104853111225014410962_300.jpg
101,00003864,明治村六郷川鉄橋,めいじむらろくごうがわてっきょう,1基,,登録有形文化財(建造物),交通,土木構造物,,明治,明治10／大正4・昭和63移築,1877／1915・1988移築,鉄製トラス橋、橋長30m,,23 － 0098,40,2004.03.04(平成16.03.04),2004.02.17(平成16.02.17),,20040217,,再現することが容易でないもの,,愛知県,愛知県犬山市内山1博物館明治村内,,公益財団法人明治村,,,35.34398000000000,136.99110000000000,日本最初の複線用鉄橋で，当初６連あった練鉄製１００フィートポニーワーレントラス橋の１連を移設復原。桁長約３０ｍ，桁高約３ｍ，幅員７．５ｍ。部材製作のリヴァプール HAMILTON’S WINDSOR IRONWORKS社と設計者の英人土木技師R.V.Boyleの銘板が残る。,https://bunka.nii.ac.jp/heritage/43967/_104854/43967_104854111225014411231_300.jpg
101,00003865,明治村鉄道寮新橋工場,めいじむらてつどうりょうしんばしこうじょう,1棟,,登録有形文化財(建造物),交通,建築物,,明治,明治5頃／大正8・昭和43移築,1872頃／1919・1968移築,鉄造平屋建、銅板葺、建築面積948㎡,,23 － 0099,40,2004.03.04(平成16.03.04),2004.02.17(平成16.02.17),,20040217,,再現することが容易でないもの,,愛知県,愛知県犬山市内山1博物館明治村内,,公益財団法人明治村,,,35.34387000000000,136.99030000000000,鉄造平屋建。並列二棟の切妻屋根は鉄造キングポストトラス小屋組で支持する。外壁は下見板風鉄板張で，鉄サッシュの窓を開き，出入口に持送りで庇をつける。鉄製部材は輸入材で，トスカナ式鋳鉄柱にリヴァプールHAMILTON’S WINDSOR IRONWORKS社の銘がある。,https://bunka.nii.ac.jp/heritage/43967/_104855/43967_104855111225014412478_300.jpg
101,00003866,明治村工部省品川硝子製造所,めいじむらこうぶしょうしながわがらすせいぞうしょ,1棟,,登録有形文化財(建造物),産業2次,建築物,,明治,明治10頃／昭和44移築,1877頃／1969移築,煉瓦造平屋建、瓦葺、建築面積123㎡,,23 － 0100,40,2004.03.04(平成16.03.04),2004.02.17(平成16.02.17),,20040217,,造形の規範となっているもの,,愛知県,愛知県犬山市内山1博物館明治村内,,公益財団法人明治村,,,35.34435000000000,136.99030000000000,煉瓦造，一部中２階付き。木造キングポストトラス小屋組による切妻屋根に，換気用の越屋根を載せる。外壁はイギリス積で軒蛇腹が巡る。開口部は半円アーチのファンライト付と，まぐさ石形式の２種を用い，石材がアクセントとなる。明治初期官営工場の遺構。,https://bunka.nii.ac.jp/heritage/43967/_104856/43967_104856111225014412986_300.jpg
101,00003867,明治村本郷喜之床,めいじむらほんごうきのとこ,1棟,,登録有形文化財(建造物),産業3次,建築物,,明治,明治後期／昭和55移築,1868-1911／1980移築,木造2階建、瓦葺、建築面積47㎡,,23 － 0101,40,2004.03.04(平成16.03.04),2004.02.17(平成16.02.17),,20040217,,造形の規範となっているもの,,愛知県,愛知県犬山市内山1博物館明治村内,,公益財団法人明治村,,,35.34482000000000,136.98960000000000,石川啄木ゆかりの新井理髪店。木造２階建，桟瓦葺，平入，間口３間の町家である。入口は両開ガラス戸で，両側に引違ガラス窓が続く。１階の前半は店で洋風の板天井とし，背後に和室３室を食違いに配す。２階は６畳２室で，正面には手摺付の肘掛窓を設ける。,https://bunka.nii.ac.jp/heritage/43967/_104857/43967_104857111225014413511_300.jpg
101,00003868,明治村小泉八雲避暑の家,めいじむらこいずみやくもひしょのいえ,1棟,,登録有形文化財(建造物),産業3次,建築物,,明治,明治初期／昭和46移築,1868-1911／1971移築,木造2階建、瓦葺、建築面積68㎡,,23 － 0102,40,2004.03.04(平成16.03.04),2004.02.17(平成16.02.17),,20040217,,造形の規範となっているもの,,愛知県,愛知県犬山市内山1博物館明治村内,,公益財団法人明治村,,,35.34489000000000,136.98960000000000,木造２階建，桟瓦葺，平入，間口３間の町家で，呉服雑貨商として建築。１階は入口が引違戸，店の前がはめ外し板戸と格子窓，２階は手摺付の肘掛窓である。通り土間に沿って３室が並び，２階は表に１０畳と４畳，裏に１２畳座敷を配す。地方都市商家の一例。,https://bunka.nii.ac.jp/heritage/43967/_104858/43967_104858111225014414043_300.jpg
101,00003869,明治村半田東湯,めいじむらはんだあずまゆ,1棟,,登録有形文化財(建造物),産業3次,建築物,,明治,明治末期／昭和55移築,1868-1911／1980移築,木造平屋一部2階建、瓦葺、建築面積50㎡,,23 － 0103,40,2004.03.04(平成16.03.04),2004.02.17(平成16.02.17),,20040217,,造形の規範となっているもの,,愛知県,愛知県犬山市内山1博物館明治村内,,公益財団法人明治村,,,35.34518000000000,136.98950000000000,木造２階建，切妻造，桟瓦葺，妻入の町家で，背後に平屋建の浴室が接続する。正面１階は庇をつけ，両側に男女別の脱衣室への出入口を設け，中央の出格子裏が番台である。男脱衣室から上る２階は和室２室で，肘掛窓に手摺がつく。浴室の内装は移築時の復原。,https://bunka.nii.ac.jp/heritage/43967/_104859/43967_104859111225014414814_300.jpg
101,00003870,明治村聖ザビエル天主堂,めいじむらせいざびえるてんしゅどう,1棟,,登録有形文化財(建造物),宗教,建築物,,明治,明治23／昭和48移築,1890／1973移築,鉄筋コンクリート造平屋建、瓦葺、建築面積575㎡,,23 － 0104,40,2004.03.04(平成16.03.04),2004.02.17(平成16.02.17),,20040217,,造形の規範となっているもの,,愛知県,愛知県犬山市内山1博物館明治村内,,公益財団法人明治村,,,35.34548000000000,136.98960000000000,もと外周壁を煉瓦造とする木造会堂。平面は三廊式で，身廊壁面を三層構成とするゴシック様式。木製の束ね柱やトリフォリウム，リブ・ヴォールトと，漆喰塗内壁の対比が美しい。外壁にはバットレスを付け，薔薇窓，尖頭アーチ形の開口，小尖塔などで飾る。,https://bunka.nii.ac.jp/heritage/43967/_104860/43967_104860111225014416057_300.jpg
101,00003871,明治村小那沙美島燈台,めいじむらこなさみじまとうだい,1基,,登録有形文化財(建造物),交通,その他工作,,明治,明治37／昭和51移築,1904／1976移築,鉄製、銅板葺、高さ6m,,23 － 0105,40,2004.03.04(平成16.03.04),2004.02.17(平成16.02.17),,20040217,,再現することが容易でないもの,,愛知県,愛知県犬山市内山1博物館明治村内,,公益財団法人明治村,,,35.34603000000000,136.98950000000000,鋳鉄造，全高６ｍ。工期と立地条件から組立式とされた。燈柱は円筒管４段からなり，上部の点検用デッキを６本の持送りで受ける。燈籠には８面の曲面ガラスを組込み，円錐形の銅板製天蓋と球形の冠蓋を載せる。光源はアセチレンガス燈。当時の工業技術を示す。,https://bunka.nii.ac.jp/heritage/43967/_104861/43967_104861111225014416566_300.jpg
101,00003872,明治村天童眼鏡橋,めいじむらてんどうめがねばし,1基,,登録有形文化財(建造物),交通,土木構造物,,明治,明治20／昭和51移築,1887／1976移築,石造2連アーチ橋、橋長13m、幅員7.7m,,23 － 0106,40,2004.03.04(平成16.03.04),2004.02.17(平成16.02.17),,20040217,,再現することが容易でないもの,,愛知県,愛知県犬山市内山1博物館明治村内,,公益財団法人明治村,,,35.34612000000000,136.98930000000000,山形県産の山寺石（輝石安山岩質凝灰岩）を用いた石造二連アーチ橋の道路橋。長さ１３ｍ，幅７．７ｍ，アーチはスパン５．６ｍ，迫り高２．２ｍ。スパンドレルは切石の乱積とする。路面は桁行方向に水平で反りがない。地覆，束，笠石からなる石造高欄がつく。,https://bunka.nii.ac.jp/heritage/43967/_104862/43967_104862111225014416829_300.jpg
101,00003873,明治村隅田川新大橋,めいじむらすみだがわしんおおはし,1基,,登録有形文化財(建造物),交通,土木構造物,,明治,明治45／昭和50移築,1912／1975移築,鉄製トラス橋、橋長23m、幅員19m,,23 － 0107,40,2004.03.04(平成16.03.04),2004.02.17(平成16.02.17),,20040217,,再現することが容易でないもの,,愛知県,愛知県犬山市内山1博物館明治村内,,公益財団法人明治村,,,35.34656000000000,136.98980000000000,鉄骨造プラットピントラス橋。３径間１７３ｍのうち，浜町側トラスの４／１０に当たる２３ｍを移設。全幅１９ｍ，両側トラス間１２ｍで，歩道を片持ちとする。路面はアスファルトブロック敷。歩道鉄製高欄のアールヌーヴォー意匠が軽快。設計は東京市土木課。,https://bunka.nii.ac.jp/heritage/43967/_104863/43967_104863111225014417092_300.jpg
101,00003874,明治村川崎銀行本店,めいじむらかわさきぎんこうほんてん,1棟,,登録有形文化財(建造物),産業3次,建築物,,昭和前,昭和2／平成2移築,1927／1990移築,鉄筋コンクリート造3階建、建築面積89㎡,,23 － 0108,40,2004.03.04(平成16.03.04),2004.02.17(平成16.02.17),,20040217,,造形の規範となっているもの,,愛知県,愛知県犬山市内山1博物館明治村内,,公益財団法人明治村,,,35.34659000000000,136.99040000000000,ＲＣ造３階建銀行建築の正面左角部を部分保存。設計は矢部又吉。１階は花崗岩切石整層積で基壇に扱い，２階と３階を通してコリント式角柱を付ける。出入口はドリス式円柱がエンタブレチュアを支え，行章入のメダイオンを飾る。近代都市建築の外観意匠を示す。,https://bunka.nii.ac.jp/heritage/43967/_104864/43967_104864160215100422932_300.jpg
101,00003875,明治村大明寺聖パウロ教会堂,めいじむらだいみょうじせいぱうろきょうかいどう,1棟,,登録有形文化財(建造物),宗教,建築物,,明治,明治12／平成6移築,1879／1994移築,木造平屋建、瓦葺、建築面積172㎡,,23 － 0109,40,2004.03.04(平成16.03.04),2004.02.17(平成16.02.17),,20040217,,造形の規範となっているもの,,愛知県,愛知県犬山市内山1博物館明治村内,,公益財団法人明治村,,,35.34629000000000,136.99090000000000,木造平屋建，入母屋造，桟瓦葺。正面に切妻の玄関廊をつけ，鐘楼を載せる。外観は真壁造の和風意匠であるが，内部は三廊式のゴシック様式を実現している。身廊は木製束ね柱と漆喰塗の四分ヴォールトで飾り，側廊には竿縁天井を曲面に張る。大工は大渡伊勢吉。,https://bunka.nii.ac.jp/heritage/43967/_104865/43967_104865111225014417674_300.jpg
101,00003876,明治村皇居正門石橋飾電燈,めいじむらこうきょせいもんいしばしかざりでんとう,1基,,登録有形文化財(建造物),交通,その他工作,,明治,明治26頃／平成2移設,1893頃／1990移設,青銅製、高さ2.7m,,23 － 0110,40,2004.03.04(平成16.03.04),2004.02.17(平成16.02.17),,20040217,,造形の規範となっているもの,,愛知県,愛知県犬山市内山1博物館明治村内,,公益財団法人明治村,,,35.34680000000000,136.99020000000000,石橋親柱に設置された６基の内の１基。青銅鋳造，高さ２．７ｍ。脚部は獣足を四隅に踏張り，アーチ形蛇腹を渦巻で受け，旭日と獅子で飾る。縦溝付柱身の上下はアカンサスで飾り，柱上に１灯，四方の腕から各１灯を吊る。台石は移築時に新造。設計は河合浩蔵。,https://bunka.nii.ac.jp/heritage/43967/_104866/43967_104866111225014419001_300.jpg
101,00003877,明治村内閣文庫,めいじむらないかくぶんこ,1棟,,登録有形文化財(建造物),官公庁舎,建築物,,明治,明治44／平成2移築,1911／1990移築,鉄筋コンクリート造2階建、スレート葺、建築面積292㎡,,23 － 0111,40,2004.03.04(平成16.03.04),2004.02.17(平成16.02.17),,20040217,,造形の規範となっているもの,,愛知県,愛知県犬山市内山1博物館明治村内,,公益財団法人明治村,,,35.34705000000000,136.99000000000000,二階建の文庫本館で，ドリス式の大オーダーを飾った主屋から両翼を突出する。屋根はスレート葺で，棟上にドーム形ランタンを掲げる。外壁は１階をモルタル塗目地切，２階をタイル貼とする。縦長の窓は両開ガラス窓である。設計は大蔵省臨時建築部の大熊喜邦。,https://bunka.nii.ac.jp/heritage/43967/_104867/43967_104867111225014419248_300.jpg
101,00003878,明治村東京駅警備巡査派出所,めいじむらとうきょうえきけいびじゅんさはしゅつしょ,1棟,,登録有形文化財(建造物),官公庁舎,建築物,,大正,大正3頃／昭和47移築,1914頃／1972移築,鉄筋コンクリート造平屋建、銅板葺、建築面積45㎡,,23 － 0112,40,2004.03.04(平成16.03.04),2004.02.17(平成16.02.17),,20040217,,造形の規範となっているもの,,愛知県,愛知県犬山市内山1博物館明治村内,,公益財団法人明治村,,,35.34627000000000,136.98900000000000,ＲＣ造化粧煉瓦張で腰部に白帯が巡る，いわゆる辰野式の交番。隅切の八角平面で，銅板葺の宝形屋根に換気用ランタンを置く。入口の半円形ペディメントはコンソールを放射状に配す。出入口庇は鋳鉄の持送りで，欄間付き上げ下げ窓の小庇はコンソールで受ける。,https://bunka.nii.ac.jp/heritage/43967/_104868/43967_104868111225014419764_300.jpg
101,00003879,明治村前橋監獄雑居房,めいじむらまえばしかんごくざっきょぼう,1棟,,登録有形文化財(建造物),官公庁舎,建築物,,明治,明治21／昭和46移築,1888／1971移築,木造平屋建、瓦葺、建築面積149㎡,,23 － 0113,40,2004.03.04(平成16.03.04),2004.02.17(平成16.02.17),,20040217,,再現することが容易でないもの,,愛知県,愛知県犬山市内山1博物館明治村内,,公益財団法人明治村,,,35.34615000000000,136.98890000000000,木造平屋建の監房。切妻造に越屋根を載せ，桟瓦葺とする。移築時に約半分に切り縮め，中廊下の両側に９房と洗い場を配す。外周と廊下側は栗材の太い格子で，間仕切のみ厚板の壁とする。小屋組は越屋根を取込んだ洋風小屋組。当時の収監施設の実際を伝える。,https://bunka.nii.ac.jp/heritage/43967/_104869/43967_104869111225014420030_300.jpg
101,00003880,明治村金沢監獄正門,めいじむらかなざわかんごくせいもん,1所,,登録有形文化財(建造物),官公庁舎,建築物,,明治,明治40／昭和52移築,1907／1977移築,鉄筋コンクリート造、間口15m、左右脇門・左右詰所及び脇門鉄扉付,,23 － 0114,40,2004.03.04(平成16.03.04),2004.02.17(平成16.02.17),,20040217,,造形の規範となっているもの,,愛知県,愛知県犬山市内山1博物館明治村内,,公益財団法人明治村,,,35.34587000000000,136.98930000000000,高さ５．４ｍの煉瓦壁に主門と脇門を開き，左右に二階建の看視塔が付く。主門は弓形アーチ，脇門はまぐさにアーチを重ねる。中央にエンタブレチュアを飾り，アーチ，コンソール，バンドコースの花崗岩がアクセント。山下啓次郎らによる明治後期五大監獄の一。,https://bunka.nii.ac.jp/heritage/43967/_104870/43967_104870111225014420569_300.jpg
101,00003881,明治村金沢監獄中央看守所,めいじむらかなざわかんごくちゅうおうかんしゅじょ,1棟,,登録有形文化財(建造物),官公庁舎,建築物,,明治,明治40／昭和47移築,1907／1972移築,木造平屋建、瓦葺、建築面積165㎡、塔屋付,,23 － 0115,40,2004.03.04(平成16.03.04),2004.02.17(平成16.02.17),,20040217,,造形の規範となっているもの,,愛知県,愛知県犬山市内山1博物館明治村内,,公益財団法人明治村,,,35.34649000000000,136.98890000000000,八角平面の木造平屋建。５方向の渡り廊下が監房棟に続いていた。桟瓦葺の屋根中央に方形の見張塔を載せ，四面に屋根窓を開き，方杖で軒を受ける。基礎は切石で，外壁は柱形付の洋風下見板張で，腰壁と軒下小壁を竪羽目板張とし，欄間付の上げ下げ窓を開く。,https://bunka.nii.ac.jp/heritage/43967/_104871/43967_104871111225014421107_300.jpg
101,00003882,明治村金沢監獄監房,めいじむらかなざわかんごくかんぼう,1棟,,登録有形文化財(建造物),官公庁舎,建築物,,明治,明治40／昭和47移築,1907／1972移築,木造平屋建、瓦葺、建築面積204㎡、渡廊下付,,23 － 0116,40,2004.03.04(平成16.03.04),2004.02.17(平成16.02.17),,20040217,,造形の規範となっているもの,,愛知県,愛知県犬山市内山1博物館明治村内,,公益財団法人明治村,,,35.34631000000000,136.98870000000000,木造平屋建の監房。切妻造，桟瓦葺で越屋根を載せる。中央看守所から渡り廊下で接続する監房を部分移築。外壁は柱形付の洋風下見板張で，欄間付引違窓を開く。小屋組は中廊下のキングポストトラスと独居房上の片流れ屋根の合成で，房上の梁の間を鉄筋で引く。,https://bunka.nii.ac.jp/heritage/43967/_104872/43967_104872111225014422357_300.jpg
101,00003883,明治村宮津裁判所法廷,めいじむらみやづさいばんしょほうてい,1棟,,登録有形文化財(建造物),官公庁舎,建築物,,明治,明治19／昭和52移築,1886／1977移築,木造平屋建、瓦葺、建築面積211㎡,,23 － 0117,40,2004.03.04(平成16.03.04),2004.02.17(平成16.02.17),,20040217,,造形の規範となっているもの,,愛知県,愛知県犬山市内山1博物館明治村内,,公益財団法人明治村,,,35.34656000000000,136.98850000000000,木造平屋建，入母屋造，桟瓦葺で，吹き放ちの庇が巡る。軒下にガラス入高窓を開く。外壁は隅柱を見せた漆喰塗で腰は竪羽目板張。裁判官席は一段高く設ける。和風の意匠を基に，切石基礎や法廷入口アーチ等，洋風を加味している。Ｈ形平面の片翼の一部を移築。,https://bunka.nii.ac.jp/heritage/43967/_104873/43967_104873111225014422578_300.jpg
101,00003884,明治村菊の世酒蔵,めいじむらきくのよさかぐら,1棟,,登録有形文化財(建造物),産業2次,建築物,,明治,明治28／昭和58移築,1895／1983移築,土蔵造2階建、瓦葺、建築面積654㎡,,23 － 0118,40,2004.03.04(平成16.03.04),2004.02.17(平成16.02.17),,20040217,,再現することが容易でないもの,,愛知県,愛知県犬山市内山1博物館明治村内,,公益財団法人明治村,,,35.34548000000000,136.98890000000000,桁行１８間，梁行９間の土蔵造２階建。切妻造，桟瓦葺で片側に庇がつく。外壁は押縁下見板で保護し，小庇付の窓を多数開く。小屋組は梁行を３等分して柱を立てて鳥居形に組み，両側から登り梁を渡して和小屋とする。移築時，北半にＲＣ造展示室を組み込んだ。,https://bunka.nii.ac.jp/heritage/43967/_104874/43967_104874111225014423106_300.jpg
101,00003885,明治村高田小熊写真館,めいじむらたかだおぐましゃしんかん,1棟,,登録有形文化財(建造物),産業3次,建築物,,明治,明治41／大正初期増築／昭和57移築,1908／1912-1925増築／1982移築,木造2階建、鉄板葺、建築面積70㎡,,23 － 0119,40,2004.03.04(平成16.03.04),2004.02.17(平成16.02.17),,20040217,,造形の規範となっているもの,,愛知県,愛知県犬山市内山1博物館明治村内,,公益財団法人明治村,,,35.34642000000000,136.98820000000000,木造２階建，切妻造，鉄板葺屋根の北面に大きくガラス屋根を設けるのは，スタジオの採光である。外壁は柱形を見せる下見板張で，簡素な上げ下げ窓を開く。玄関部分は大正期の増築で，ショウウィンドウの腰を石貼とし，幾何学意匠のパラペット飾りを冠する。,https://bunka.nii.ac.jp/heritage/43967/_104875/43967_104875111225014424856_300.jpg
101,00003886,明治村名鉄岩倉変電所,めいじむらめいてついわくらへんでんしょ,1棟,,登録有形文化財(建造物),交通,建築物,,明治,明治45／昭和50移築,1912／1975移築,鉄筋コンクリート造平屋建、スレート葺、建築面積151㎡,,23 － 0120,40,2004.03.04(平成16.03.04),2004.02.17(平成16.02.17),,20040217,,造形の規範となっているもの,,愛知県,愛知県犬山市内山1博物館明治村内,,公益財団法人明治村,,,35.34707000000000,136.98910000000000,当初は煉瓦造の平屋建。天然スレート葺切妻屋根に両妻壁を立ち上げる。四隅にバットレスをもち，開口部は大きめの要石を飾る半円アーチで，欄間を方立で三分割する。小屋組は木造クイーンポストトラス。移築時に主構造をＲＣ造に改め，煉瓦タイル貼とした。,https://bunka.nii.ac.jp/heritage/43967/_104876/43967_104876111225014425081_300.jpg
101,00003887,明治村帝国ホテル中央玄関,めいじむらていこくほてるちゅうおうげんかん,1棟,,登録有形文化財(建造物),産業3次,建築物,,大正,大正12／昭和60移築,1923／1985移築,鉄骨鉄筋コンクリート造3階建、一部銅板葺、建築面積911㎡,,23 － 0121,40,2004.03.04(平成16.03.04),2004.02.17(平成16.02.17),,20040217,,造形の規範となっているもの,,愛知県,愛知県犬山市内山1博物館明治村内,,公益財団法人明治村,,,35.34721000000000,136.98870000000000,Ｆ．Ｌ．ライト設計。車寄，ホワイエと両側のラウンジ，ロビーを保存。水平性の強調，床高の微妙な変化や，彫刻した大谷石，スクラッチ煉瓦，透かしテラコッタによる幾何学装飾など，ライトの設計手法を良く表す。移築時に主構造をＳＲＣ造と鉄骨造に改めた。,https://bunka.nii.ac.jp/heritage/43967/_104877/43967_104877111225014425584_300.jpg
101,00003981,小栗家住宅主屋,おぐりけじゅうたくしゅおく,1棟,,登録有形文化財(建造物),産業3次,建築物,,明治,明治3,1870,木造2階建、瓦葺、建築面積548㎡,,23 － 0122,41,2004.03.29(平成16.03.29),2004.03.02(平成16.03.02),,20040302,,造形の規範となっているもの,,愛知県,愛知県半田市中村町1-18,,,,,34.89444000000000,136.93410000000000,寄棟造，桟瓦葺で，街路に面する東端部を店舗とし，その西に土間を介して居室部を設ける。居宅床上部の東端は１３畳の式台とし，その西の諸室は中国趣味を織り交ぜた繊細な意匠でまとめる。商業空間を兼ね備える上質な住居建築の好例。棟梁は小栗善七。,https://bunka.nii.ac.jp/heritage/43967/_104971/43967_104971111225014534637_300.jpg
101,00003982,小栗家住宅表門,おぐりけじゅうたくおもてもん,1棟,,登録有形文化財(建造物),住宅,その他工作,,明治,明治前期,1868-1911,木造、瓦葺、間口2.1m,,23 － 0123,41,2004.03.29(平成16.03.29),2004.03.02(平成16.03.02),,20040302,,国土の歴史的景観に寄与しているもの,,愛知県,愛知県半田市中村町1-18,,,,,34.89434000000000,136.93420000000000,敷地東側街路に面し，主屋と辰巳蔵の間を結ぶ。切妻造，桟瓦葺の１間棟門で，この門を経て主屋式台玄関へと繋がる。両袖は基礎布石上に街路側は縦板張，敷地側は土壁とし，冠木上は無双窓風とする。商家正面街路側を画する建物として欠くことのできない存在。,https://bunka.nii.ac.jp/heritage/43967/_104972/43967_104972111225014535402_300.jpg
101,00003983,小栗家住宅辰巳蔵,おぐりけじゅうたくたつみぐら,1棟,,登録有形文化財(建造物),住宅,建築物,,明治,明治前期,1868-1911,土蔵造2階建、瓦葺、建築面積43㎡,,23 － 0124,41,2004.03.29(平成16.03.29),2004.03.02(平成16.03.02),,20040302,,国土の歴史的景観に寄与しているもの,,愛知県,愛知県半田市中村町1-18,,,,,34.89429000000000,136.93420000000000,敷地東南隅に建ち，北側を表門と接する。土蔵造２階建，切妻造，桟瓦葺で，西側に下屋を設けている。内部は１・２階とも２室に区切り，壁面は石積２段の上に押縁下見板張とし，軒部分は漆喰で塗込める。近代初頭の地域の景観を今日に伝える建造物である。,https://bunka.nii.ac.jp/heritage/43967/_104973/43967_104973111225014535919_300.jpg
101,00003984,小栗家住宅書院,おぐりけじゅうたくしょいん,1棟,,登録有形文化財(建造物),住宅,建築物,,明治,明治前期,1868-1911,木造平屋建、瓦葺、建築面積138㎡,,23 － 0125,41,2004.03.29(平成16.03.29),2004.03.02(平成16.03.02),,20040302,,造形の規範となっているもの,,愛知県,愛知県半田市中村町1-18,,,,,34.89465000000000,136.93370000000000,主屋西方に渡廊下を介して接続する。８畳の座敷の東に８畳の前室を備え，北・東・南の３方に１間幅の畳廊下を巡らす。座敷は２畳大の床，霞棚と天袋を備える床脇，円窓を開く書院を備える格式の高いつくりで，欄間・襖なども質が高く，書院建築の好例である。,https://bunka.nii.ac.jp/heritage/43967/_104974/43967_104974111225014536439_300.jpg
101,00003985,小栗家住宅茶室,おぐりけじゅうたくちゃしつ,1棟,,登録有形文化財(建造物),住宅,建築物,,明治,明治前期,1868-1911,木造平屋建、銅板葺、建築面積15㎡,,23 － 0126,41,2004.03.29(平成16.03.29),2004.03.02(平成16.03.02),,20040302,,造形の規範となっているもの,,愛知県,愛知県半田市中村町1-18,,,,,34.89462000000000,136.93380000000000,書院の東に接して建つ。書院・主屋間の渡り廊下に接して東西に茶室と水屋を並べ，茶室は１畳３台目，不整形の独特な平面を持つ。水屋は台目畳２枚と約１尺半の板張とし，南面に流しと棚を設けている。家相図から書院と同時期の建築と考えられる。,https://bunka.nii.ac.jp/heritage/43967/_104975/43967_104975111225014537754_300.jpg
101,00003986,小栗家住宅渡り廊下,おぐりけじゅうたくわたりろうか,1棟,,登録有形文化財(建造物),住宅,建築物,,明治,明治前期,1868-1911,木造平屋建、瓦葺、建築面積30㎡,,23 － 0127,41,2004.03.29(平成16.03.29),2004.03.02(平成16.03.02),,20040302,,造形の規範となっているもの,,愛知県,愛知県半田市中村町1-18,,,,,34.89463000000000,136.93380000000000,主屋と書院を結び，書院側で茶室と接する。屋根は両下造，桟瓦葺で，中庭に面した側に待合腰掛を設けている。内部は板敷で，ガラス戸，網代戸，腰障子，板戸，障子など意匠的に優れた多彩な建具を用いる他，化粧屋根裏，欄間にも意匠を凝らしている。,https://bunka.nii.ac.jp/heritage/43967/_104976/43967_104976111225014538240_300.jpg
101,00003987,小栗家住宅北座敷,おぐりけじゅうたくきたざしき,1棟,,登録有形文化財(建造物),住宅,建築物,,明治,明治前期,1868-1911,木造平屋建、瓦葺、建築面積50㎡,,23 － 0128,41,2004.03.29(平成16.03.29),2004.03.02(平成16.03.02),,20040302,,国土の歴史的景観に寄与しているもの,,愛知県,愛知県半田市中村町1-18,,,,,34.89477000000000,136.93370000000000,書院北側に建ち，書院を用いる際に控えの間などに用いられる離れ座敷。建築面積５０平方メートル，たちの高い切妻造，桟瓦葺で，南面に下屋を設けている。内部は８畳と６畳の２室を東西に並べ，南・東面に縁を廻し，東側には便所を接続している。,https://bunka.nii.ac.jp/heritage/43967/_104977/43967_104977111225014538759_300.jpg
101,00003988,小栗家住宅離れ,おぐりけじゅうたくはなれ,1棟,,登録有形文化財(建造物),住宅,建築物,,大正,大正4,1915,木造平屋建、瓦葺、建築面積82㎡,,23 － 0129,41,2004.03.29(平成16.03.29),2004.03.02(平成16.03.02),,20040302,,再現することが容易でないもの,,愛知県,愛知県半田市中村町1-18,,,,,34.89501000000000,136.93340000000000,敷地北西隅に建つ。「竹の間」の名の通り随所に竹を配し，特に孟宗竹を敷く玄関と，孟宗竹と角材を交互に配して床とする廊下は独特である。廊下奥には８畳と７畳半の細長い座敷２室を配する。他にも斜めの要素を配するなど凝った意匠と造作が随所に見られる。,https://bunka.nii.ac.jp/heritage/43967/_104978/43967_104978111225014539292_300.jpg
101,00003989,旧今泉医院診療棟,きゅういまいずみいいんしんりょうとう,1棟,,登録有形文化財(建造物),文化福祉,建築物,,昭和前,昭和2,1927,木造平屋一部2階建、瓦葺、建築面積221㎡,,23 － 0130,41,2004.03.29(平成16.03.29),2004.03.02(平成16.03.02),,20040302,,造形の規範となっているもの,,愛知県,愛知県豊川市御津町御馬西37,,,,,34.80809000000000,137.31470000000000,敷地西端に西面して建つ。正面は左右対称の洋風意匠で統一し，中央部のみ２階を設ける。前面中央には洋風の車寄せを張り出し，上部に病院名を記す額を掲げている。屋根は寄棟造，桟瓦葺で，外壁はドイツ壁とする。洋風意匠を導入した病院建築の好例である。,https://bunka.nii.ac.jp/heritage/43967/_104979/43967_104979111225014541132_300.jpg
101,00003990,旧今泉医院病室棟,きゅういまいずみいいんびょうしつとう,1棟,,登録有形文化財(建造物),文化福祉,建築物,,昭和前,昭和2,1927,木造平屋建、瓦葺、建築面積81㎡,,23 － 0131,41,2004.03.29(平成16.03.29),2004.03.02(平成16.03.02),,20040302,,造形の規範となっているもの,,愛知県,愛知県豊川市御津町御馬西37,,,,,34.80821000000000,137.31480000000000,診療棟の北東隅に接して建つ。切妻造，桟瓦葺で，西端に土間玄関を開く。内部は６畳の病室３室を配し，東の１室のみ床を備え，病室の南北には板縁を通す。診療棟と異なり和風意匠で統一し，平面も伝統的な構成に準ずる。病院建築の発展過程を示す建築である。,https://bunka.nii.ac.jp/heritage/43967/_104980/43967_104980111225014542056_300.jpg
101,00003991,旧今泉医院手洗い場,きゅういまいずみいいんてあらいば,1棟,,登録有形文化財(建造物),文化福祉,建築物,,昭和前,昭和2,1927,コンクリート造、面積1.8㎡,,23 － 0132,41,2004.03.29(平成16.03.29),2004.03.02(平成16.03.02),,20040302,,国土の歴史的景観に寄与しているもの,,愛知県,愛知県豊川市御津町御馬西37,,,,,34.80810000000000,137.31460000000000,診療所前庭に位置する手洗い場。当時の農村地域の病院に良く設けられていたもので，患者が病院に入る前に使用していた。当初は井戸水を水源とし，診療所東側の高架水槽から配水していた。昭和初期の病院の在り方を，今日に伝える工作物である。,https://bunka.nii.ac.jp/heritage/43967/_104981/43967_104981111225014543020_300.jpg
101,00004137,旭サナック本館（旧旭兵器製造本社事務棟）,あさひさなっくほんかん（きゅうあさひへいきせいぞうほんしゃじむとう）,1棟,,登録有形文化財(建造物),産業2次,建築物,,昭和前,昭和14,1939,木造2階建、鉄板葺、建築面積338㎡,,23 － 0133,42,2004.06.24(平成16.06.24),2004.06.09(平成16.06.09),,20040609,,造形の規範となっているもの,,愛知県,愛知県尾張旭市旭前町新田洞5050,,旭サナック株式会社,,,35.21733000000000,137.02040000000000,木造２階建で，屋根は寄棟造，鉄板葺。当初は外壁を下見板張としていたが，現状はモルタル吹付である。内部は１階を主に事務室とし，２階には応接間等を配するが，２階主要室は木部と漆喰による質の高い内装を持つ。洋風を基調とする事務所建築の好例である。,https://bunka.nii.ac.jp/heritage/43967/_105127/43967_105127111225014711694_300.jpg
101,00004241,半田赤レンガ建物（旧カブトビール工場）創建時主棟,はんだあかれんがたてもの（きゅうかぶとびーるこうじょう）そうけんじしゅとう,1棟,,登録有形文化財(建造物),産業2次,建築物,,明治,明治31,1898,煉瓦造2階建一部5階建、鉄板葺、建築面積636㎡,,23 － 0134,43,2004.08.17(平成16.08.17),2004.07.23(平成16.07.23),,20040723,,造形の規範となっているもの,,愛知県,愛知県半田市榎下町8,,半田市,,,34.90141000000000,136.92840000000000,煉瓦造２階建の発酵室・貯蔵室に同５階建の事務室・技師室が接続する。屋根は切妻造鉄板葺。窓は櫛形アーチに要石，５階窓は半円アーチに迫元石・要石付で飾る。発酵室・貯蔵室の２階床と天井はＩ形鉄梁に煉瓦アーチを充填した耐火床とする。設計は妻木頼黄。,https://bunka.nii.ac.jp/heritage/43967/_105231/43967_105231111225014815938_300.jpg
101,00004242,半田赤レンガ建物（旧カブトビール工場）ハーフティンバー棟,はんだあかれんがたてもの（きゅうかぶとびーるこうじょう）はーふてぃんばーとう,1棟,,登録有形文化財(建造物),産業2次,建築物,,明治,明治31,1898,木骨煉瓦造平屋建、鉄板葺、建築面積784㎡,,23 － 0135,43,2004.08.17(平成16.08.17),2004.07.23(平成16.07.23),,20040723,,造形の規範となっているもの,,愛知県,愛知県半田市榎下町8,,半田市,,,34.90183000000000,136.92830000000000,主棟南に接続する木骨煉瓦造の平屋建で，東辺部は胴差を入れて高窓を開いて切妻屋根とし，南側は主棟から片流の屋根で，鉄板葺とする。瓶洗・瓶詰・荷造等の出荷作業を行った。戸口は両開板扉とし，当初の窓は上下げ窓であったが閉鎖した。設計は妻木頼黄。,https://bunka.nii.ac.jp/heritage/43967/_105232/43967_105232111225014816439_300.jpg
101,00004243,半田赤レンガ建物（旧カブトビール工場）貯蔵庫棟,はんだあかれんがたてもの（きゅうかぶとびーるこうじょう）ちょぞうことう,1棟,,登録有形文化財(建造物),産業2次,建築物,,明治,明治41／大正7・大正10増築,1908／1918・1921増築,煉瓦造2階建、鉄板葺、建築面積1359㎡,,23 － 0136,43,2004.08.17(平成16.08.17),2004.07.23(平成16.07.23),,20040723,,造形の規範となっているもの,,愛知県,愛知県半田市榎下町8,,半田市,,,34.90159000000000,136.92840000000000,主棟の北辺から西辺に接続する増築部で，発酵室・貯蔵室に用いられた。煉瓦造２階建，切妻造，鉄板葺の南北棟３棟が，主棟北から反時計回りに順次増築された。壁体はイギリス積。妻壁上部はペディメントに造り，円窓を飾る。窓は要石付の櫛形アーチとする。,https://bunka.nii.ac.jp/heritage/43967/_105233/43967_105233111225014816952_300.jpg
101,00004244,髙木家住宅主屋,たかぎけじゅうたくしゅおく,1棟,,登録有形文化財(建造物),産業3次,建築物,,大正,大正2,1913,木造2階建、瓦葺、建築面積190㎡,,23 － 0138,43,2004.08.17(平成16.08.17),2004.07.23(平成16.07.23),,20040723,,国土の歴史的景観に寄与しているもの,,愛知県,愛知県犬山市大字犬山字東古券73他,,,,,35.38184000000000,136.93950000000000,間口６間奥行８間，２階建の平入町家で，街路に西面して建つ。元は酒造業を営んだ。南端にトオリニワがあり，北側の落棟の背後に坪庭をもつ。切妻造，桟瓦葺で，正面に半間幅の下屋がつき，格子を建込む。２階は出桁造で塗込とし，鉄格子入の窓を開く。,https://bunka.nii.ac.jp/heritage/43967/_105234/43967_105234875304275795298_300.jpg
101,00004245,髙木家住宅茶室,たかぎけじゅうたくちゃしつ,1棟,,登録有形文化財(建造物),住宅,建築物,,大正,大正初期,1912-1925,木造平屋建、瓦葺、建築面積23㎡,,23 － 0139,43,2004.08.17(平成16.08.17),2004.07.23(平成16.07.23),,20040723,,造形の規範となっているもの,,愛知県,愛知県犬山市大字犬山字東古券73他,,,,,35.38185000000000,136.93960000000000,裏庭の北寄りに位置し，濡れ縁で主屋に接続する。屋根は切妻造，桟瓦葺で銅板葺の庇をつけ，濡れ縁を巡らす。柱は磨丸太である。茶室は４畳半台目で，東に洞口のある台目幅の床を設け，西面と南面に下地窓を開く。東に３畳室が続き，庇下に水屋を設けている。,https://bunka.nii.ac.jp/heritage/43967/_105235/43967_105235055596014693113_300.jpg
101,00004246,髙木家住宅蔵,たかぎけじゅうたくくら,1棟,,登録有形文化財(建造物),住宅,建築物,,大正,大正初期,1912-1925,土蔵造2階建、瓦葺、建築面積33㎡,,23 － 0140,43,2004.08.17(平成16.08.17),2004.07.23(平成16.07.23),,20040723,,国土の歴史的景観に寄与しているもの,,愛知県,愛知県犬山市大字犬山字東古券73他,,,,,35.38182000000000,136.93980000000000,主屋の背後，裏庭の東に位置する。桁行３間梁間２間の土蔵造２階建，切妻造，桟瓦葺の東西棟である。外壁は白漆喰仕上で，腰を海鼠壁とする。西妻に瓦葺庇をつけて戸口を開き，両開の黒漆喰塗土戸を釣込む。２階窓は片開の漆喰塗土戸を釣込み，瓦庇をつける。,https://bunka.nii.ac.jp/heritage/43967/_105236/43967_105236982541142612924_300.jpg
101,00004247,梅田家住宅主屋,うめだけじゅうたくしゅおく,1棟,,登録有形文化財(建造物),産業3次,建築物,,江戸,江戸末期,1830-1867,木造2階建、瓦葺、建築面積162㎡,,23 － 0141,43,2004.08.17(平成16.08.17),2004.07.23(平成16.07.23),,20040723,,国土の歴史的景観に寄与しているもの,,愛知県,愛知県犬山市大字犬山字東古券506,,,,,35.38326000000000,136.94270000000000,間口６間半奥行６間半，２階建の平入町家で，屋根を切妻造，桟瓦葺とする。正面に瓦葺庇，背面に下屋を付ける。街路に北面し，東側を土間とし，２列６室の居室を配す。正面は１階，２階とも木格子をつけ，壁は黒漆喰塗とする。西妻壁は押縁下見板張である。,https://bunka.nii.ac.jp/heritage/43967/_105237/43967_105237111225014819512_300.jpg
101,00004248,梅田家住宅倉庫,うめだけじゅうたくそうこ,1棟,,登録有形文化財(建造物),産業3次,建築物,,昭和前,昭和初期,1926-1988,木造2階建、瓦葺、建築面積111㎡,,23 － 0142,43,2004.08.17(平成16.08.17),2004.07.23(平成16.07.23),,20040723,,国土の歴史的景観に寄与しているもの,,愛知県,愛知県犬山市大字犬山字東古券506,,,,,35.38304000000000,136.94270000000000,主屋の南方，西側道路沿いに建つ。桁行１０間梁間３間半の木造２階建で，切妻造，桟瓦葺である。外壁は下見板張で，西面２階には窓を設け，ガラス障子を建込む。南妻壁は鉄板張とする。内部は２間毎に５室に仕切られており，東面に各室への戸口を設けている。,https://bunka.nii.ac.jp/heritage/43967/_105238/43967_105238111225014820027_300.jpg
101,00004249,梅田家住宅高塀,うめだけじゅうたくたかべい,1棟,,登録有形文化財(建造物),住宅,その他工作,,昭和前,昭和初期,1926-1988,木造、瓦葺、延長9.1m,,23 － 0143,43,2004.08.17(平成16.08.17),2004.07.23(平成16.07.23),,20040723,,国土の歴史的景観に寄与しているもの,,愛知県,愛知県犬山市大字犬山字東古券506,,,,,35.38316000000000,136.94260000000000,敷地の西側道路に面する塀で，主屋の南西角と倉庫の北西角との間をつなぐ。長さ５間を７分割して柱を立てる。腰は墨塗の南京下見板張，上部は真壁造で白漆喰仕上とする。柱から腕木を出して桁を受け，片流れ２枚の桟瓦葺の屋根をかける。,https://bunka.nii.ac.jp/heritage/43967/_105239/43967_105239111225014820293_300.jpg
101,00004250,三井家住宅主屋,みついけじゅうたくしゅおく,1棟,,登録有形文化財(建造物),産業3次,建築物,,明治,明治22,1889,木造2階建、瓦葺、建築面積136㎡,,23 － 0144,43,2004.08.17(平成16.08.17),2004.07.23(平成16.07.23),,20040723,,国土の歴史的景観に寄与しているもの,,愛知県,愛知県犬山市大字犬山字東古券684,,,,,35.38348000000000,136.93990000000000,間口４間半弱奥行７間，２階建の平入町家で，街路に北面する。屋根は切妻造，桟瓦葺で，正面と背面に下屋を付け，西側の落棟を蔵前とする。東側１間半弱がトオリニワで，１５畳大のミセノマを置く。正面の軒は出桁造で，１階に木格子，２階に鉄格子を入れる。,https://bunka.nii.ac.jp/heritage/43967/_105240/43967_105240111225014820556_300.jpg
101,00004251,三井家住宅蔵,みついけじゅうたくくら,1棟,,登録有形文化財(建造物),産業3次,建築物,,大正,大正7,1918,土蔵造2階建、瓦葺、建築面積52㎡,,23 － 0145,43,2004.08.17(平成16.08.17),2004.07.23(平成16.07.23),,20040723,,国土の歴史的景観に寄与しているもの,,愛知県,愛知県犬山市大字犬山字東古券684,,,,,35.38352000000000,136.93980000000000,主屋の西に蔵前を介して接続する土蔵造２階建で，桁行５間梁間３間。屋根は切妻造，桟瓦葺で，街路に妻を見せる。外壁は黒漆喰塗で腰を海鼠壁とし，１階正面に瓦庇をつけて持送りで受け，庇下に小窓を開ける。２階の窓は両開きの黒漆喰塗土戸に瓦庇を付ける。,https://bunka.nii.ac.jp/heritage/43967/_105241/43967_105241111225014820822_300.jpg
101,00004252,三井家住宅渡り廊,みついけじゅうたくわたりろう,1棟,,登録有形文化財(建造物),住宅,建築物,,明治,明治中期,1868-1911,木造平屋建、瓦葺、建築面積23㎡,,23 － 0146,43,2004.08.17(平成16.08.17),2004.07.23(平成16.07.23),,20040723,,国土の歴史的景観に寄与しているもの,,愛知県,愛知県犬山市大字犬山字東古券684,,,,,35.38337000000000,136.94000000000000,主屋の南側，トオリニワから南へ延びる附属棟。桁行４間５尺梁間１間２尺規模の平屋建で，片流屋根を桟瓦葺とする。西辺に土間が通り，東北の一郭を浴室，東南の一郭を便所とする。腰壁のコンクリートブロックは後の補修である。裏庭側景観の一要素をなす。,https://bunka.nii.ac.jp/heritage/43967/_105242/43967_105242111225014821357_300.jpg
101,00004253,山田家住宅主屋,やまだけじゅうたくしゅおく,1棟,,登録有形文化財(建造物),産業3次,建築物,,明治,明治中期,1868-1911,木造2階建、瓦葺、建築面積120㎡,,23 － 0147,43,2004.08.17(平成16.08.17),2004.07.23(平成16.07.23),,20040723,,国土の歴史的景観に寄与しているもの,,愛知県,愛知県犬山市大字犬山字東古券776,,,,,35.38371000000000,136.93950000000000,街路の北東角に南面して建つ間口５間奥行６間の２階建平入町家。屋根は切妻造，桟瓦葺で南・西・北に下屋がつく。南から奥行２間半が土間，北に４室を田の字に配す。妻壁は押縁下見板張，正面２階の東半窓に出格子が付く。南西隅のショーケースは後の改造。,https://bunka.nii.ac.jp/heritage/43967/_105243/43967_105243111225014821621_300.jpg
101,00004254,井上家住宅主屋,いのうえけじゅうたくしゅおく,1棟,,登録有形文化財(建造物),産業3次,建築物,,明治,明治初期,1868-1911,木造2階建、瓦葺、建築面積108㎡,,23 － 0148,43,2004.08.17(平成16.08.17),2004.07.23(平成16.07.23),,20040723,,国土の歴史的景観に寄与しているもの,,愛知県,愛知県犬山市大字犬山字西古券6,,,,,35.38365000000000,136.93930000000000,間口３間半奥行７間半規模，２階建の平入町家で，街路に東面して建つ。屋根は切妻造，桟瓦葺で表裏に下屋がつく。当初は北がトオリニワ，南が１列４室の居室であったが，前面を土間，奥を居室とし，１階正面も改修した。２階窓は上下に長押を打つ形式を残す。,https://bunka.nii.ac.jp/heritage/43967/_105244/43967_105244111225014822860_300.jpg
101,00004255,井上家住宅蔵,いのうえけじゅうたくくら,1棟,,登録有形文化財(建造物),住宅,建築物,,明治,明治初期,1868-1911,土蔵造2階建、瓦葺、建築面積31㎡,,23 － 0149,43,2004.08.17(平成16.08.17),2004.07.23(平成16.07.23),,20040723,,国土の歴史的景観に寄与しているもの,,愛知県,愛知県犬山市大字犬山字西古券6,,,,,35.38367000000000,136.93900000000000,主屋から裏庭を挟んで奥行の長い敷地の西端に建つ。桁行３間梁間２間の土蔵造２階建の南北棟で，屋根は切妻造，桟瓦葺とする。東面に庇をつける。外壁は全体を押縁下見板張とする。２階の妻側と平側に窓を開き，妻側窓には庇をつける。敷地の構成要素である。,https://bunka.nii.ac.jp/heritage/43967/_105245/43967_105245111225014823112_300.jpg
101,00004258,瀧野家住宅蔵,たきのけじゅうたくくら,1棟,,登録有形文化財(建造物),住宅,建築物,,明治,明治中期,1868-1911,土蔵造2階建、瓦葺、建築面積25㎡,,23 － 0152,43,2004.08.17(平成16.08.17),2004.07.23(平成16.07.23),,20040723,,国土の歴史的景観に寄与しているもの,,愛知県,愛知県犬山市大字犬山字西古券34,,,,,35.38222000000000,136.93920000000000,主屋の西，裏庭を挟んで敷地北西隅に位置する。土蔵造２階建の東西棟で，桁行３間梁間２間半。切妻造，桟瓦葺で，東と南に１間幅の庇をつける。外壁は腰が海鼠壁とした白漆喰仕上で，２階を金属板で覆う。戸口は南面で両開土戸とし，２階窓には瓦庇をつける。,https://bunka.nii.ac.jp/heritage/43967/_105248/43967_105248111225014823637_300.jpg
101,00004482,白井家住宅主屋,しらいけじゅうたくしゅおく,1棟,,登録有形文化財(建造物),住宅,建築物,,江戸,江戸末期,1830-1867,木造2階建、瓦葺、建築面積236㎡,,23 － 0137,43,2004.08.17(平成16.08.17),2004.07.23(平成16.07.23),,20040723,,国土の歴史的景観に寄与しているもの,,愛知県,愛知県豊川市国府町流霞157,,,,,34.83607000000000,137.32460000000000,造り酒屋の主屋で，桁行８間梁行６間半と規模の大きいつし二階建で，切妻造，桟瓦葺の平入町家。街路に北面し，東端がトオリニワで，２列６室の居室を配し，落ち棟の仏間を介して西に新座敷が続く。正面に瓦葺下屋をつけて格子を建込み，２階は出格子とする。,https://bunka.nii.ac.jp/heritage/43967/_105472/43967_105472111225015049339_300.jpg
101,00004553,料亭河文主屋,りょうていかわぶんしゅおく,1棟,,登録有形文化財(建造物),産業3次,建築物,,昭和中,昭和25,1950,木造2階建、瓦葺、建築面積325㎡,,23 － 0156,45,2005.02.28(平成17.02.28),2005.02.09(平成17.02.09),,20050209,,造形の規範となっているもの,,愛知県,愛知県名古屋市中区丸の内2-12-19,,株式会社河文,,,35.17540000000000,136.90080000000000,江戸時代中期から続く名古屋屈指の老舗料亭の主屋。２階建，入母屋造，桟瓦葺で，１階東方に帳場や土間を配す以外は客室とする。座敷飾を備えた座敷や和風を基調とした洋間を廊下や鞘の間で適当な距離をおいて配し，格調高くゆとりのある接客空間を創出する。,https://bunka.nii.ac.jp/heritage/43967/_105543/43967_105543111225015235685_300.jpg
101,00004554,料亭河文表門、塀及び脇門,りょうていかわぶんおもてもん、へいおよびわきもん,1棟,,登録有形文化財(建造物),産業3次,その他工作,,昭和中,昭和25,1950,木造、瓦葺、表門間口3.9m、脇門間口2.7m、塀延長25m,,23 － 0157,45,2005.02.28(平成17.02.28),2005.02.09(平成17.02.09),,20050209,,造形の規範となっているもの,,愛知県,愛知県名古屋市中区丸の内2-12-19,,株式会社河文,,,35.17532000000000,136.90090000000000,名古屋城の南，東西に走る魚の棚通りに南面し，東寄りに表門を開き両脇を屋根付の高塀で仕切る。表門は棟門形式を基本とするが，前後一段下に庇を付け，前方の庇の正面は柱を立て３分し中央に戸口を構える。比例や形式を工夫して格式ある構えを実現している。,https://bunka.nii.ac.jp/heritage/43967/_105544/43967_105544111225015239023_300.jpg
101,00004555,料亭河文新用亭及び渡廊下,りょうていかわぶんしんようていおよびわたりろうか,1棟,,登録有形文化財(建造物),産業3次,建築物,,昭和中,昭和25～27,1950-1952,木造平屋建、瓦葺、建築面積63㎡、渡廊下　木造平屋建、瓦葺、建築面積52㎡,,23 － 0158,45,2005.02.28(平成17.02.28),2005.02.09(平成17.02.09),,20050209,,造形の規範となっているもの,,愛知県,愛知県名古屋市中区丸の内2-12-19,,株式会社河文,,,35.17553000000000,136.90080000000000,主屋北に建つ離れ。平屋建，入母屋造，桟瓦葺で，１０畳の座敷と５畳の鞘の間を南北に並べ，南・東・北３方に広縁を廻らす。南西に接続する渡廊下は，両下造，化粧屋根裏で，床は中央畳敷，両側板張とする。木柄の細い瀟洒な構えでくつろいだ接客空間を造る。,https://bunka.nii.ac.jp/heritage/43967/_105545/43967_105545111225015240762_300.jpg
101,00004556,料亭河文用々亭,りょうていかわぶんようようてい,1棟,,登録有形文化財(建造物),産業3次,建築物,,昭和中,昭和25～27,1950-1952,木造平屋建、瓦葺、建築面積21㎡,,23 － 0159,45,2005.02.28(平成17.02.28),2005.02.09(平成17.02.09),,20050209,,造形の規範となっているもの,,愛知県,愛知県名古屋市中区丸の内2-12-19,,株式会社河文,,,35.17559000000000,136.90070000000000,主屋北西に位置し渡廊下で連絡する。平屋，切妻造，桟瓦葺一部銅板葺で，６畳主室の南を幅１間弱の廊下とする。柱や桁に丸太を用い，掛込み天井等で変化に富んだ室内を構成し，各面とも大きく開口部を開き茶屋風に造る。小規模で簡素ながら瀟洒な意匠になる。,https://bunka.nii.ac.jp/heritage/43967/_105546/43967_105546111225015243469_300.jpg
101,00004557,料亭河文厨房,りょうていかわぶんちゅうぼう,1棟,,登録有形文化財(建造物),産業3次,建築物,,昭和前,昭和12／昭和25増築,1937／1950増築,鉄筋コンクリート造及び木造2階建、建築面積132㎡,,23 － 0160,45,2005.02.28(平成17.02.28),2005.02.09(平成17.02.09),,20050209,,造形の規範となっているもの,,愛知県,愛知県名古屋市中区丸の内2-12-19,,株式会社河文,,,35.17549000000000,136.90100000000000,主屋の北面東端部に接続する。鉄筋コンクリート造，２階建，陸屋根の主体部を中心に，南及び西に戦後復興された木造の下屋や廊下を付設する。主体部は装飾を廃した機能的で簡明な造りだが，内部の磁器タイル，鉄骨階段，滑り出しの窓などに時代の特徴を示す。,https://bunka.nii.ac.jp/heritage/43967/_105547/43967_105547111225015245280_300.jpg
101,00004558,旧川上貞奴邸主屋,きゅうかわかみさだやっこていしゅおく,1棟,,登録有形文化財(建造物),住宅,建築物,,大正,大正9頃／昭和13改造／平成16移築,1920頃／1938改造／2004移築,木造2階建、瓦葺、建築面積71㎡,,23 － 0161,45,2005.02.28(平成17.02.28),2005.02.09(平成17.02.09),,20050209,,造形の規範となっているもの,,愛知県,愛知県名古屋市東区橦木町3-23,,名古屋市,,,35.18040000000000,136.91860000000000,福沢桃介が川上貞奴のために建設した邸宅の旧西半部。東半洋館部の玄関，応接室，食堂等に続き，貞奴私室や茶の間など１，２階とも和室を配する。赤瓦のマンサード屋根を切り上げて２階を設け，外壁は２階をドイツ壁，１階シングル張として多彩な外観を造る。,https://bunka.nii.ac.jp/heritage/43967/_105548/43967_105548111225015246074_300.jpg
101,00004559,旧川上貞奴邸蔵,きゅうかわかみさだやっこていくら,1棟,,登録有形文化財(建造物),住宅,建築物,,大正,大正9頃／昭和13改造／平成16移築,1920頃／1938改造／2004移築,木造及び鉄筋コンクリート造2階建、瓦葺、建築面積22㎡,,23 － 0162,45,2005.02.28(平成17.02.28),2005.02.09(平成17.02.09),,20050209,,造形の規範となっているもの,,愛知県,愛知県名古屋市東区橦木町3-23,,名古屋市,,,35.18039000000000,136.91880000000000,主屋背後に独立して建つ。外壁鉄筋コンクリート造，内部木造，２階建，切妻造，桟瓦葺で，小屋組はキングポストトラスで，戸前に庇を付設する。小規模ながらたちが高く，外壁腰部を一段厚くし大きめの鉢巻を廻らした重厚な外観で，屋敷構えに欠かせない建物。,https://bunka.nii.ac.jp/heritage/43967/_105549/43967_105549111225015249466_300.jpg
101,00004560,野家住宅主屋,まのけじゅうたくしゅおく,1棟,,登録有形文化財(建造物),住宅,建築物,,明治,明治27,1894,木造2階建、瓦葺、建築面積219㎡、渡り廊付,,23 － 0164,45,2005.02.28(平成17.02.28),2005.02.09(平成17.02.09),,20050209,,国土の歴史的景観に寄与しているもの,,愛知県,愛知県犬山市大字犬山字東古券57,,,,,35.38079000000000,136.93940000000000,金融業を営んだ家で，名古屋へと至る主街道（中本町通り）に西面して建つ。２階建，切妻造，桟瓦葺で，１階は通り庭の北に座敷等を並べ，南に板の間，階段室等を配する。良材を用いた上質なつくりで，正面の木太い格子など犬山の伝統的町家形式をよく伝える。,https://bunka.nii.ac.jp/heritage/43967/_105550/43967_105550111225015251092_300.jpg
101,00004561,野家住宅離座敷,まのけじゅうたくはなれざしき,1棟,,登録有形文化財(建造物),住宅,建築物,,明治,明治27,1894,木造平屋建、瓦葺、建築面積42㎡,,23 － 0165,45,2005.02.28(平成17.02.28),2005.02.09(平成17.02.09),,20050209,,国土の歴史的景観に寄与しているもの,,愛知県,愛知県犬山市大字犬山字東古券57,,,,,35.38080000000000,136.93960000000000,主屋裏に中庭を挟んで建ち，南北の渡り廊で連絡する。平屋，北側切妻造，南側寄棟造，桟瓦葺で，床，違棚を持つ８畳の座敷と４畳の次の間からなり，西，南に縁を廻す。小規模ながら本格的な座敷飾を備え，身舎屋根を一段高く切り上げる等格式ある構えをもつ。,https://bunka.nii.ac.jp/heritage/43967/_105551/43967_105551111225015252945_300.jpg
101,00004562,野家住宅土蔵,まのけじゅうたくどぞう,1棟,,登録有形文化財(建造物),住宅,建築物,,明治,明治27,1894,土蔵造2階建、瓦葺、建築面積121㎡,,23 － 0166,45,2005.02.28(平成17.02.28),2005.02.09(平成17.02.09),,20050209,,国土の歴史的景観に寄与しているもの,,愛知県,愛知県犬山市大字犬山字東古券57,,,,,35.38077000000000,136.93980000000000,離座敷背後に棟を東西に通して建つ。土蔵造，２階建，切妻造，桟瓦葺で，内部は桁行に２分し，南面にそれぞれ戸口を開き，庇を付す。軒廻りは斜めに塗り上げるのみで戸口や窓の扉も掛子塗とせず簡素な造りだが，規模が大きく高塀越しに堂々とした姿を見せる。,https://bunka.nii.ac.jp/heritage/43967/_105552/43967_105552111225015253868_300.jpg
101,00004563,野家住宅高塀,まのけじゅうたくたかべい,1棟,,登録有形文化財(建造物),住宅,その他工作物,,明治,明治27,1894,木造、瓦葺、延長29m,,23 － 0167,45,2005.02.28(平成17.02.28),2005.02.09(平成17.02.09),,20050209,,国土の歴史的景観に寄与しているもの,,愛知県,愛知県犬山市大字犬山字東古券57,,,,,35.38073000000000,136.93990000000000,主屋裏の南渡廊下に続き敷地後半南側面を仕切る。切石の地覆上に建つ木造，屋根付の高塀で，軒を大きく塗り上げて桟瓦葺の屋根をかけ，表裏とも一段下に腕木で支えた出桁を通し小庇を設ける。高さ５ｍに及ぶ特徴ある塀で，重厚な屋敷構えに欠かせない建造物。,https://bunka.nii.ac.jp/heritage/43967/_105553/43967_105553111225015255539_300.jpg
101,00004564,旧磯部家住宅主屋,きゅういそべけじゅうたくしゅおく,1棟,,登録有形文化財(建造物),産業3次,建築物,,江戸,慶応年間,1865-1868,木造2階建、瓦葺、建築面積171㎡,,23 － 0168,45,2005.02.28(平成17.02.28),2005.02.09(平成17.02.09),,20050209,,国土の歴史的景観に寄与しているもの,,愛知県,愛知県犬山市大字犬山字東古券72,,犬山市,,,35.38165000000000,136.93940000000000,当初は呉服屋，戦後は茶販売を営む商家。中本町通りに西面して建つ。間口３間半奥行８間で，１階は店奥の南に通り庭，北に仏間，座敷等を配し，２階は表に座敷等を並べる。間口は狭いが，内外とも細部まで凝ったつくりで，街道の歴史的景観に欠かせない建物。,https://bunka.nii.ac.jp/heritage/43967/_105554/43967_105554111225015257069_300.jpg
101,00004565,旧磯部家住宅裏座敷,きゅういそべけじゅうたくうらざしき,1棟,,登録有形文化財(建造物),住宅,建築物,,大正,大正期,1912-1925,木造平屋建、瓦葺、建築面積38㎡,,23 － 0169,45,2005.02.28(平成17.02.28),2005.02.09(平成17.02.09),,20050209,,国土の歴史的景観に寄与しているもの,,愛知県,愛知県犬山市大字犬山字東古券72,,犬山市,,,35.38165000000000,136.93950000000000,主屋裏の中庭奥に建ち北渡廊下で接続する。平屋建，入母屋造，桟瓦葺で，床，棚付８畳の主室と西に５畳半の次の間を配し，南，東矩折れに縁を廻す。柱，桁，化粧垂木等角材により質実な構えながら，軒高を低くおさえ勾配の緩い化粧軒として瀟洒な外観を造る。,https://bunka.nii.ac.jp/heritage/43967/_105555/43967_105555111225015258789_300.jpg
101,00004566,旧磯部家住宅土蔵,きゅういそべけじゅうたくどぞう,1棟,,登録有形文化財(建造物),住宅,建築物,,明治,明治8,1875,土蔵造2階建、瓦葺、建築面積37㎡,,23 － 0170,45,2005.02.28(平成17.02.28),2005.02.09(平成17.02.09),,20050209,,国土の歴史的景観に寄与しているもの,,愛知県,愛知県犬山市大字犬山字東古券72,,犬山市,,,35.38161000000000,136.93960000000000,敷地の東裏手に独立して建つ。桁行３間，梁間２間半，土蔵造，２階建，切妻造，桟瓦葺，妻入で，西面に庇を付す。腰部は海鼠壁，戸口，窓廻りは掛子塗，軒は蛇腹を廻した本格的な構えとする。小規模ながらも細部まで丁寧な造りで，屋敷構えに欠かせない建物。,https://bunka.nii.ac.jp/heritage/43967/_105556/43967_105556111225015259709_300.jpg
101,00004567,旧磯部家住宅奥土蔵,きゅういそべけじゅうたくおくどぞう,1棟,,登録有形文化財(建造物),住宅,建築物,,明治,明治8,1875,土蔵造2階建、瓦葺、建築面積47㎡,,23 － 0171,45,2005.02.28(平成17.02.28),2005.02.09(平成17.02.09),,20050209,,国土の歴史的景観に寄与しているもの,,愛知県,愛知県犬山市大字犬山字東古券72,,犬山市,,,35.38165000000000,136.93960000000000,敷地の東端，裏庭の奥に建つ。桁行４間，梁間２間半，土蔵造，２階建，切妻造，桟瓦葺，平入で，西面戸前に庇を付ける。戸口，窓廻りは掛子塗とし，軒，螻羽には蛇腹を廻し，庇部分も柱，桁，梁や軒裏を塗り込める。細部までつくり込んだ重厚な外観を呈する。,https://bunka.nii.ac.jp/heritage/43967/_105557/43967_105557111225015300659_300.jpg
101,00004568,旧磯部家住宅物置,きゅういそべけじゅうたくものおき,1棟,,登録有形文化財(建造物),住宅,建築物,,明治,明治8,1875,木造2階建、瓦葺、建築面積52㎡,,23 － 0172,45,2005.02.28(平成17.02.28),2005.02.09(平成17.02.09),,20050209,,国土の歴史的景観に寄与しているもの,,愛知県,愛知県犬山市大字犬山字東古券72,,犬山市,,,35.38163000000000,136.93970000000000,東西に長い敷地の最奥に奥土蔵と並んで建つ。２階建，南北棟の切妻造，桟瓦葺で，中央に独立柱を建て，桁行に２階梁を通し大引を受ける。小屋組は和小屋。１，２階とも床を張り広い収納空間とし１階北は全面開放する。大型で屋敷背後の構えに欠かせない建物。,https://bunka.nii.ac.jp/heritage/43967/_105558/43967_105558111225015303064_300.jpg
101,00004569,小島家住宅主屋,こじまけじゅうたくしゅおく,1棟,,登録有形文化財(建造物),産業3次,建築物,,明治,明治30頃,1897頃,木造2階建、瓦葺、建築面積150㎡,,23 － 0173,45,2005.02.28(平成17.02.28),2005.02.09(平成17.02.09),,20050209,,国土の歴史的景観に寄与しているもの,,愛知県,愛知県犬山市大字犬山字東古券633,,,,,35.38299759000000,136.94043000000000,約千坪の広大な敷地をもつ酒造業の家。通りに東面しつし２階をもつ切妻造，桟瓦葺，平入の町家で，１階は広い間口の通り庭の南に２列６室の居室を配す。大型で，１，２階とも表側はほぼ全面格子を入れた重厚な外観をもち，地区の歴史的景観上欠かせない建物。,https://bunka.nii.ac.jp/heritage/43967/_105559/43967_105559351250800688214_300.jpg
101,00004570,小島家住宅座敷,こじまけじゅうたくざしき,1棟,,登録有形文化財(建造物),住宅,建築物,,江戸,弘化4,1847,木造平屋建、瓦葺、建築面積163㎡,,23 － 0174,45,2005.02.28(平成17.02.28),2005.02.09(平成17.02.09),,20050209,,国土の歴史的景観に寄与しているもの,,愛知県,愛知県犬山市大字犬山字東古券633,,,,,35.38286351000000,136.94034262000000,主屋南西に接続する接客施設。切妻造，桟瓦葺で，４方に下屋を廻らす。東正面北寄りに式台を備え，１５畳の広間，仏間，残月の間風の書院等をもつ。大型で，４方柾の柱，神代杉の天井板など銘木を用い，座敷飾や欄間等の細部も凝った意匠になる上質な建物。,https://bunka.nii.ac.jp/heritage/43967/_105560/43967_105560294054891329700_300.jpg
101,00004571,小島家住宅南蔵,こじまけじゅうたくみなみぐら,1棟,,登録有形文化財(建造物),住宅,建築物,,江戸,江戸末期,1830-1867,土蔵造2階建、瓦葺、建築面積37㎡,,23 － 0175,45,2005.02.28(平成17.02.28),2005.02.09(平成17.02.09),,20050209,,国土の歴史的景観に寄与しているもの,,愛知県,愛知県犬山市大字犬山字東古券633,,,,,35.38281279000000,136.94014361000000,敷地南方，座敷の西裏に建つ。土蔵造２階建，切妻造，桟瓦葺，平入で，東面に庇を設け戸前とする。正側面に庇付の小窓を開き，戸口，窓廻りは掛子塗，軒には蛇腹を廻した本格的なつくりとする。小規模ながら細部まで丁寧な仕事で，屋敷構えに欠かせない建物。,https://bunka.nii.ac.jp/heritage/43967/_105561/43967_105561788569969899617_300.jpg
101,00004572,小島家住宅北酒蔵及び北蔵,こじまけじゅうたくきたさかぐらおよびきたぐら,1棟,,登録有形文化財(建造物),産業2次,建築物,,江戸,江戸末期,1830-1867,土蔵造2階建、瓦葺、建築面積150㎡,,23 － 0176,45,2005.02.28(平成17.02.28),2005.02.09(平成17.02.09),,20050209,,国土の歴史的景観に寄与しているもの,,愛知県,愛知県犬山市大字犬山字東古券633,,,,,35.38315132000000,136.94022292000000,敷地北端部に建つ。北酒蔵主体部，北蔵とも，土蔵造２階建，切妻造，桟瓦葺で，東西棟北酒蔵と南北棟北蔵が隣接して建ち，北酒蔵南面西半に下屋（絞り場）を葺下ろし一体化した形式となる。複雑で変化に富んだ外観を呈し，敷地北半の作業空間を象徴する建物。,https://bunka.nii.ac.jp/heritage/43967/_105562/43967_105562602323714668021_300.jpg
101,00004573,小島家住宅西酒蔵及び仕込場,こじまけじゅうたくにしさかぐらおよびしこみば,1棟,,登録有形文化財(建造物),産業2次,建築物,,江戸,江戸末期,1830-1867,土蔵造及び木造3階一部平屋建、瓦葺、建築面積307㎡,,23 － 0177,45,2005.02.28(平成17.02.28),2005.02.09(平成17.02.09),,20050209,,国土の歴史的景観に寄与しているもの,,愛知県,愛知県犬山市大字犬山字東古券633,,,,,35.38296676000000,136.94012933000000,主屋の西背後に平屋，切妻造，桟瓦葺の仕込場を配し，その奥に土蔵造３階建，切妻造，桟瓦葺の西酒蔵が接続する。仕込場は全体が吹放しで洗場，釜場をとり，西酒蔵は１階を麹室，熟成場，２階以上を原料，道具置場とする。大規模で醸造業独特の構えをつくる。,https://bunka.nii.ac.jp/heritage/43967/_105563/43967_105563867874628009282_300.jpg
101,00004574,小島家住宅寄付,こじまけじゅうたくよりつき,1棟,,登録有形文化財(建造物),住宅,建築物,,江戸,江戸末期,1830-1867,木造平屋建、瓦葺、建築面積19㎡,,23 － 0178,45,2005.02.28(平成17.02.28),2005.02.09(平成17.02.09),,20050209,,国土の歴史的景観に寄与しているもの,,愛知県,愛知県犬山市大字犬山字東古券633,,,,,35.38273354000000,136.94044428000000,茶事等に用いられた施設で，敷地南東隅に建つ。床付の７畳半座敷北に腰掛を兼ねた上り口を付けた規模で，桟瓦葺屋根は敷地側を大きく葺下ろした招き屋根の形式とし，表側の東面と北側面に庇を付ける。変化に富んだ構成をもつ赤壁塗の外観は屋敷を特徴付ける。,https://bunka.nii.ac.jp/heritage/43967/_105564/43967_105564891541294588692_300.jpg
101,00004575,小島家住宅屋根塀,こじまけじゅうたくやねべい,1棟,,登録有形文化財(建造物),住宅,その他工作物,,明治,明治中期,1868-1911,木造、瓦葺、延長56m、間口1.9m門付,,23 － 0179,45,2005.02.28(平成17.02.28),2005.02.09(平成17.02.09),,20050209,,国土の歴史的景観に寄与しているもの,,愛知県,愛知県犬山市大字犬山字東古券633,,,,,35.38272965000000,136.94010146000000,敷地の東と南を矩折れに仕切る塀。座敷の式台斜め前に棟門形式，桟瓦葺の御成門，主屋及び寄付の各北に潜り戸２所を開く。上半は塗込め，下半は下見板張とし，腕木で桁を受け，桟瓦葺の屋根をかける。長大で上質なつくりで，屋敷の表構えに欠かせない建造物。,https://bunka.nii.ac.jp/heritage/43967/_105565/43967_105565557852983235861_300.jpg
101,00004576,遠藤家住宅主屋,えんどうけじゅうたくしゅおく,1棟,,登録有形文化財(建造物),産業3次,建築物,,明治,明治33,1900,木造2階建、瓦葺、建築面積119㎡,,23 － 0180,45,2005.02.28(平成17.02.28),2005.02.09(平成17.02.09),,20050209,,国土の歴史的景観に寄与しているもの,,愛知県,愛知県犬山市大字犬山字東古券662,,,,,35.38212000000000,136.93950000000000,料理屋として建てられた町家。２階建で，西表と南の２方を通りに面するため，切妻造の北妻に対して南妻は入母屋造とし，１階も西面とともに南面に庇を廻らす。料理屋らしく２階にも本格的な座敷を配するためたちが高く，町並みの中にあっても一際目立つ存在。,https://bunka.nii.ac.jp/heritage/43967/_105566/43967_105566111225015317569_300.jpg
101,00004577,伊藤家住宅主屋,いとうけじゅうたくしゅおく,1棟,,登録有形文化財(建造物),産業3次,建築物,,江戸,江戸末期,1830-1867,木造平屋建、瓦葺、建築面積175㎡,,23 － 0181,45,2005.02.28(平成17.02.28),2005.02.09(平成17.02.09),,20050209,,国土の歴史的景観に寄与しているもの,,愛知県,愛知県犬山市大字犬山字東古券677,,,,,35.38334000000000,136.93950000000000,本町通りに西面する。つし２階をもち，間口６間半奥行８間，切妻造，平入，桟瓦葺で，１階は北に通り庭，南に居室を２列に配し，背面北に土蔵に至る渡廊下，南に便所と渡廊下を付す。犬山では比較的大型の町家で，たちの低い表構えは古い時代の姿を伝える。,https://bunka.nii.ac.jp/heritage/43967/_105567/43967_105567756760098024328_300.jpg
101,00004578,伊藤家住宅蔵,いとうけじゅうたくくら,1棟,,登録有形文化財(建造物),住宅,建築物,,江戸,江戸末期,1830-1867,土蔵造2階建、瓦葺、建築面積59㎡,,23 － 0182,45,2005.02.28(平成17.02.28),2005.02.09(平成17.02.09),,20050209,,国土の歴史的景観に寄与しているもの,,愛知県,愛知県犬山市大字犬山字東古券677,,,,,35.38330000000000,136.93980000000000,主屋東裏，敷地の最奥に建つ。桁行４間半，梁間２間半，土蔵造２階建，切妻造，桟瓦葺，平入で，西面の戸前全面に出が１間半の深い庇を付す。柱は丸太で，軒裏や妻面の破風，桁端を塗り込めただけの簡素な造りだが，比較的大型でたちの低い重厚な構えをもつ。,https://bunka.nii.ac.jp/heritage/43967/_105568/43967_105568160404092002292_300.jpg
101,00004579,瀧川家住宅主屋,たきがわけじゅうたくしゅおく,1棟,,登録有形文化財(建造物),住宅,建築物,,江戸,文化11／明治2移築,1814／1869移築,木造平屋建、瓦葺、建築面積125㎡,,23 － 0183,45,2005.02.28(平成17.02.28),2005.02.09(平成17.02.09),,20050209,,造形の規範となっているもの,,愛知県,愛知県新城市出沢字中ケ谷4,,,,,34.94105000000000,137.53810000000000,旗本設楽氏の陣屋を移築したもの。裏山中腹の，東西に長い敷地のやや東寄りに南面して建つ。平屋，桟瓦葺（もと茅葺）で，表側２間続きの座敷を中心に，裏に納戸をとり，東側に大きな地炉のある土間，台所等を配する。数少ない旗本陣屋の姿を伝えていて貴重。,https://bunka.nii.ac.jp/heritage/43967/_105569/43967_105569111225015322132_300.jpg
101,00004580,瀧川家住宅長屋門,たきがわけじゅうたくながやもん,1棟,,登録有形文化財(建造物),住宅,建築物,,江戸,宝暦13,1763,木造平屋建、瓦葺、建築面積46㎡,,23 － 0184,45,2005.02.28(平成17.02.28),2005.02.09(平成17.02.09),,20050209,,国土の歴史的景観に寄与しているもの,,愛知県,愛知県新城市出沢字中ケ谷4,,,,,34.94093000000000,137.53810000000000,主屋の南方に建つ。桁行６間半，梁間２間，切妻造，桟瓦葺で，西寄りに鏡柱を立て脇戸付の戸口を開き，両脇に大小２部屋を取り，西面に下屋を付す。部屋内部は改造されているが戸口廻り，正面の武者窓等の構えはよく残り，旗本代官屋敷としての家格を伝える。,https://bunka.nii.ac.jp/heritage/43967/_105570/43967_105570111225015323947_300.jpg
101,00004581,瀧川家住宅祠,たきがわけじゅうたくほこら,1棟,,登録有形文化財(建造物),住宅,建築物,,江戸,大永5／大正15移築,1525／1926移築,石造、面積0.1㎡,,23 － 0185,45,2005.02.28(平成17.02.28),2005.02.09(平成17.02.09),,20050209,,国土の歴史的景観に寄与しているもの,,愛知県,愛知県新城市出沢字中ケ谷4,,,,,34.94120000000000,137.53760000000000,敷地の西端部にある。自然石を積上げた台座上に置かれ，基礎，龕部，屋根を各１石で造り，龕部は内部に仏像を彫り出し，屋根は照り起りの寄棟造で，正面に軒唐破風を付す。観音開きの扉も石で造る。鳳来寺峯薬師如来を祀るといい，屋敷構えに欠かせない施設。,https://bunka.nii.ac.jp/heritage/43967/_105571/43967_105571111225015326541_300.jpg
101,00004582,實成寺本堂,じつじょうじほんどう,1棟,,登録有形文化財(建造物),宗教,建築物,,江戸,江戸前期,1615-1660,木造平屋建、瓦葺、建築面積246㎡,,23 － 0186,45,2005.02.28(平成17.02.28),2005.02.09(平成17.02.09),,20050209,,造形の規範となっているもの,,愛知県,愛知県あま市中萱津南宿254,,宗教法人實成寺,,,35.18683000000000,136.84280000000000,桁行５間，梁間６間，宝形造，桟瓦葺で，正側面に１間幅の縁を廻し，正面に向拝１間を付す。内部は前方２間を外陣，後方中央間口３間，奥行４間を内陣，両脇を脇陣とし，内陣後方に来迎柱を後退し須弥壇を構える。平面や軸部構成に日蓮宗本堂の古式を伝える。,https://bunka.nii.ac.jp/heritage/43967/_105572/43967_105572111225015328313_300.jpg
101,00004583,實成寺山門,じつじょうじさんもん,1棟,,登録有形文化財(建造物),宗教,その他工作,,江戸,江戸中期,1661-1750,木造、瓦葺、間口3.5m,,23 － 0187,45,2005.02.28(平成17.02.28),2005.02.09(平成17.02.09),,20050209,,国土の歴史的景観に寄与しているもの,,愛知県,愛知県あま市中萱津南宿254,,宗教法人實成寺,,,35.18679000000000,136.84330000000000,本堂の前方，やや北寄りに東面して建つ。四脚門，切妻造，本瓦葺で，礎盤上に親柱，控柱とも丸柱を立て，頭貫と妻虹梁で固め，軒は二軒疎垂木で，木舞打ちとする。丸柱は粽付で，親柱を上部に延ばした禅宗様の大型の山門で，寺観正面の構えに欠かせない建物。,https://bunka.nii.ac.jp/heritage/43967/_105573/43967_105573111225015329935_300.jpg
101,00004680,九重味淋大蔵,ここのえみりんおおぐら,1棟,,登録有形文化財(建造物),産業2次,建築物,,江戸,宝永3／天明7移築改造,1706／1787移築改造,土蔵造2階建、瓦葺、建築面積384㎡,,23 － 0163,45,2005.02.28(平成17.02.28),2005.02.09(平成17.02.09),,20050209,,国土の歴史的景観に寄与しているもの,,愛知県,愛知県碧南市浜寺町2-11,,,,,34.87417000000000,136.98080000000000,味淋の基となる酒造のための蔵。土蔵造，２階建，切妻造，桟瓦葺で，東西棟の主体部の南面西端に鈎の手に突出部を設ける。内部は東端部を仕切る以外は１，２階とも広い空間で，外壁は黒塗の押縁下見板で囲う。北面を接道する大型の蔵で味淋工場の象徴的建物。,https://bunka.nii.ac.jp/heritage/43967/_105670/43967_105670111225015614886_300.jpg
101,00004762,名古屋テレビ塔,なごやてれびとう,1基,,登録有形文化財(建造物),産業3次,その他工作,,昭和中,昭和29,1954,鉄骨造及び鉄筋コンクリート造、高さ180m、脚間35m、展望室付,,23 － 0188,46,2005.08.02(平成17.08.02),2005.07.12(平成17.07.12),,20050712,,国土の歴史的景観に寄与しているもの,,愛知県,愛知県名古屋市中区錦3-6-15先,,名古屋テレビ塔株式会社,,,35.17232000000000,136.90830000000000,市中心部の久屋大通公園に位置する。１４２ｍ高の鉄骨トラスに３８ｍ高のアンテナを載せる。展望台等を兼ねる建屋はカーテンウォール構造で築き，鉄骨とＲＣ造交差アーチで支える。名古屋の戦後復興のシンボルで，テレビ放送用集約電波鉄塔としては日本最古。,https://bunka.nii.ac.jp/heritage/43967/_105752/43967_105752111225015814305_300.jpg
101,00004763,春江院本堂,しゅんこういんほんどう,1棟,,登録有形文化財(建造物),宗教,建築物,,江戸,文政13,1830,木造平屋建、瓦葺、建築面積424㎡,,23 － 0189,46,2005.08.02(平成17.08.02),2005.07.12(平成17.07.12),,20050712,,造形の規範となっているもの,,愛知県,愛知県名古屋市緑区大高町字西向山5,,宗教法人春江院,,,35.06186000000000,136.93430000000000,北を正面とする入母屋造，正面向拝付，本瓦葺の本堂。正面に広縁を設けた６間取平面で，北と東に切目縁を廻す。軸部は来迎柱を除いて角柱で，長押・貫で結ぶ。妻飾の虹梁・蟇股・懸魚などに江戸後期らしい装飾を施すが，簡明で端正な方丈形式のつくりになる。,https://bunka.nii.ac.jp/heritage/43967/_105753/43967_105753111225015818852_300.jpg
101,00004764,春江院本玄関及び書院,しゅんこういんほんげんかんおよびしょいん,1棟,,登録有形文化財(建造物),宗教,建築物,,江戸,江戸後期／明治12移築増改造,1830-1867／1879移築増改造,木造平屋建、瓦葺、建築面積182㎡,,23 － 0190,46,2005.08.02(平成17.08.02),2005.07.12(平成17.07.12),,20050712,,造形の規範となっているもの,,愛知県,愛知県名古屋市緑区大高町字西向山5,,宗教法人春江院,,,35.06190000000000,136.93420000000000,書院は本堂の西に建つ平屋建で，その間を本玄関が繋ぐ。本玄関は廊下と和室からなり，北面中央に式台を設ける。書院は床・棚・付書院のある１２畳間と床付の１８畳間からなり，Ｌ字型に広縁がつき，建具や欄間が繊細で，襖絵や板絵などもよく残る瀟洒な建物。,https://bunka.nii.ac.jp/heritage/43967/_105754/43967_105754111225015821324_300.jpg
101,00004765,春江院不老閣,しゅんこういんふろうかく,1棟,,登録有形文化財(建造物),宗教,建築物,,昭和前,昭和11,1936,木造平屋建、銅板葺、建築面積44㎡,,23 － 0191,46,2005.08.02(平成17.08.02),2005.07.12(平成17.07.12),,20050712,,造形の規範となっているもの,,愛知県,愛知県名古屋市緑区大高町字西向山5,,宗教法人春江院,,,35.06180000000000,136.93400000000000,書院の南西方にある切妻造，下屋庇付の平屋建で，外観は簡素な建物。内部は南に床付８畳の一の間，北に４畳半の二の間を配し，南と西に縁を廻す。磨き丸太の床柱，床脇の網代天井，丸垂木に木舞打とした縁の化粧屋根裏など，数寄屋の趣向が凝らされている。,https://bunka.nii.ac.jp/heritage/43967/_105755/43967_105755111225015823131_300.jpg
101,00004766,春江院茶室,しゅんこういんちゃしつ,1棟,,登録有形文化財(建造物),宗教,建築物,,明治,明治後期,1868-1911,木造平屋建、瓦葺一部檜皮葺、建築面積15㎡,,23 － 0192,46,2005.08.02(平成17.08.02),2005.07.12(平成17.07.12),,20050712,,造形の規範となっているもの,,愛知県,愛知県名古屋市緑区大高町字西向山5,,宗教法人春江院,,,35.06189000000000,136.93400000000000,書院の西にあり，尾州久田流茶道の開祖である下村實栗の作になる草庵風茶室。床を入れて４畳ほどと小規模だが，杉皮葺屋根は格子状に組んだ竹で押さえ，格子だけでなく，棹縁天井の棹や化粧屋根裏の垂木や木舞を竹とするなど，竹を多用した独特の構成になる。,https://bunka.nii.ac.jp/heritage/43967/_105756/43967_105756111225015824858_300.jpg
101,00004767,春江院庫裏,しゅんこういんくり,1棟,,登録有形文化財(建造物),宗教,建築物,,昭和前,昭和8,1933,木造2階建、瓦葺、建築面積387㎡,,23 － 0193,46,2005.08.02(平成17.08.02),2005.07.12(平成17.07.12),,20050712,,造形の規範となっているもの,,愛知県,愛知県名古屋市緑区大高町字西向山5,,宗教法人春江院,,,35.06213000000000,136.93410000000000,書院の北にある。南北棟の切妻造，桟瓦葺，２階建で，北面に下屋を降ろし，東面北寄に玄関を配する。北東隅の吹抜土間は豪放な梁組を現すが，１階・２階とも中廊下式とした近代的な平面構成で，洋風意匠の階段手摺子など，伝統の中に近代的要素が認められる。,https://bunka.nii.ac.jp/heritage/43967/_105757/43967_105757111225015826957_300.jpg
101,00004768,春江院山門,しゅんこういんさんもん,1棟,,登録有形文化財(建造物),宗教,その他工作,,江戸,文政13,1830,木造、瓦葺、間口3.2m,,23 － 0194,46,2005.08.02(平成17.08.02),2005.07.12(平成17.07.12),,20050712,,造形の規範となっているもの,,愛知県,愛知県名古屋市緑区大高町字西向山5,,宗教法人春江院,,,35.06272000000000,136.93440000000000,境内の北入口に北面して建つ。正面の控柱は後世の補強材で，形式は１間１戸薬医門で，二軒疎垂木，屋根は切妻造，本瓦葺である。組物は三斗と簡素であるが，妻飾には大柄の板蟇股を用い，意匠の要にする。虹梁・木鼻・蟇股の絵様には時代の特徴が現れている。,https://bunka.nii.ac.jp/heritage/43967/_105758/43967_105758111225015828780_300.jpg
101,00004769,春江院鐘楼,しゅんこういんしょうろう,1棟,,登録有形文化財(建造物),宗教,その他工作,,江戸,慶応元,1865,木造、瓦葺、建築面積22㎡,,23 － 0195,46,2005.08.02(平成17.08.02),2005.07.12(平成17.07.12),,20050712,,造形の規範となっているもの,,愛知県,愛知県名古屋市緑区大高町字西向山5,,宗教法人春江院,,,35.06221000000000,136.93430000000000,本堂北にある。玉石で築いた基壇上に建ち，袴腰は簓子下見板張，縁には擬宝珠高欄を廻す。組物は出三斗の詰組であるが，壁付を横広がりとし，二軒扇垂木，入母屋造，桟瓦葺で，格天井の格間には彩色を施す。禅宗様意匠になる均整のとれた方１間の袴腰付鐘楼。,https://bunka.nii.ac.jp/heritage/43967/_105759/43967_105759111225015831456_300.jpg
101,00004770,寂光院本堂,じゃっこういんほんどう,1棟,,登録有形文化財(建造物),宗教,建築物,,明治,明治12,1879,木造平屋建、瓦葺、建築面積145㎡、渡廊付,,23 － 0196,46,2005.08.02(平成17.08.02),2005.07.12(平成17.07.12),,20050712,,造形の規範となっているもの,,愛知県,愛知県犬山市大字継鹿尾字杉ノ段12,,宗教法人寂光院,,,35.39534000000000,136.96360000000000,桁行５間，梁間５間，寄棟造，正面１間向拝付，桟瓦葺で，４周に切目縁を廻す。前２間分を吹放しで小組格天井の外陣とし，後方の内陣には禅宗様須弥壇を構え，厨子を置く。軸部は円柱で，組物は出組とする。装飾を押さえた伝統的形式になる本格的な本堂建築。,https://bunka.nii.ac.jp/heritage/43967/_105760/43967_105760111225015833128_300.jpg
101,00004771,寂光院随求堂,じゃっこういんずいぐどう,1棟,,登録有形文化財(建造物),宗教,建築物,,江戸,文化2,1805,木造平屋建、瓦葺、建築面積64㎡,,23 － 0197,46,2005.08.02(平成17.08.02),2005.07.12(平成17.07.12),,20050712,,造形の規範となっているもの,,愛知県,愛知県犬山市大字継鹿尾字杉ノ段12,,宗教法人寂光院,,,35.39537000000000,136.96340000000000,本堂西に東面して建ち，渡廊下で結ばれる。桁行５間，梁間３間，一軒，入母屋造，桟瓦葺で，４周に擬宝珠高欄付の切目縁を廻す。軸部は角柱で床下部を高くつくり，縁を絵様付持送り板で受ける。側廻りに蔀戸を多用した住宅風の外観は籠堂の性質を示している。,https://bunka.nii.ac.jp/heritage/43967/_105761/43967_105761111225015834875_300.jpg
101,00004772,寂光院弁天堂,じゃっこういんべんてんどう,1棟,,登録有形文化財(建造物),宗教,建築物,,江戸,文政3,1820,木造平屋建、銅板葺、建築面積3㎡,,23 － 0198,46,2005.08.02(平成17.08.02),2005.07.12(平成17.07.12),,20050712,,造形の規範となっているもの,,愛知県,愛知県犬山市大字継鹿尾字杉ノ段12,,宗教法人寂光院,,,35.39561000000000,136.96370000000000,本堂北方の高所にある。ほぼ正六角形の平面をもつ小堂で，前半を吹放しで板床張の見世棚風とし，中央境に格子戸を設け，後方を板壁で囲った内陣とする。柱や屋根を六角形につくり，天井の棹や垂木は放射状に配る。弁天像台座裏の墨書銘と同時期と考えられる。,https://bunka.nii.ac.jp/heritage/43967/_105762/43967_105762111225015836866_300.jpg
101,00004773,寂光院山門,じゃっこういんさんもん,1棟,,登録有形文化財(建造物),宗教,その他工作,,江戸,天保7,1836,木造、瓦葺、間口2.2m、袖塀付,,23 － 0199,46,2005.08.02(平成17.08.02),2005.07.12(平成17.07.12),,20050712,,造形の規範となっているもの,,愛知県,愛知県犬山市大字継鹿尾字杉ノ段12,,宗教法人寂光院,,,35.39622000000000,136.96220000000000,境内入口に建つ。形式は１間１戸薬医門で，二軒繁垂木，屋根は切妻造，本瓦葺である。組物は三斗で，妻は詰組，背面は中備に龍の彫物を入れる。妻飾は大瓶束で，両側には牡丹を彫った笈形をつける。木太いつくりで，虹梁・木鼻の絵様に時代の特徴がみられる。,https://bunka.nii.ac.jp/heritage/43967/_105763/43967_105763111225015837807_300.jpg
101,00004774,覚王寺本堂,かくおうじほんどう,1棟,,登録有形文化財(建造物),宗教,建築物,,江戸,文化11,1814,木造平屋建、瓦葺、建築面積354㎡,,23 － 0200,46,2005.08.02(平成17.08.02),2005.07.12(平成17.07.12),,20050712,,造形の規範となっているもの,,愛知県,愛知県丹羽郡扶桑町大字高雄字南屋敷135,,宗教法人覚王寺,,,35.35335000000000,136.92200000000000,ほぼ南面して建つ入母屋造，桟瓦葺，方丈形式の本堂。正面に広縁を設けた６間取平面で，室中と上間・下間は境を竹の節欄間として格天井を連続させ，上奥間の２室構成やつし２階は独特である。装飾は控えているが，たちの高い外観は江戸後期の造形とみられる。,https://bunka.nii.ac.jp/heritage/43967/_105764/43967_105764111225015839599_300.jpg
101,00004775,覚王寺庫裏,かくおうじくり,1棟,,登録有形文化財(建造物),宗教,建築物,,江戸,天保11,1840,木造平屋建、瓦葺、建築面積400㎡,,23 － 0201,46,2005.08.02(平成17.08.02),2005.07.12(平成17.07.12),,20050712,,造形の規範となっているもの,,愛知県,愛知県丹羽郡扶桑町大字高雄字南屋敷135,,宗教法人覚王寺,,,35.35327000000000,136.92220000000000,南北棟で煙出付の切妻造，妻入，桟瓦葺で，本堂とは西面の廊下で繋がる。平面は南側を土間とし，床上部は棟通りで東西に分かれ，北西部に１５畳大で床・棚付の座敷を設ける。桁行２４ｍに及ぶ雄大な規模で，禅宗寺院庫裏らしく，南妻面は海老虹梁などで飾る。,https://bunka.nii.ac.jp/heritage/43967/_105765/43967_105765111225015842055_300.jpg
101,00004776,覚王寺大日堂,かくおうじだいにちどう,1棟,,登録有形文化財(建造物),宗教,建築物,,江戸,寛政6,1794,木造平屋建、瓦葺、建築面積38㎡,,23 － 0202,46,2005.08.02(平成17.08.02),2005.07.12(平成17.07.12),,20050712,,造形の規範となっているもの,,愛知県,愛知県丹羽郡扶桑町大字高雄字南屋敷135,,宗教法人覚王寺,,,35.35327000000000,136.92170000000000,本堂の南西にあり，東を正面とする。８畳大の１室の背面に仏壇を張り出した平面で，１間向拝を設け，正面と両側面に切目縁をつける。屋根は宝形造，桟瓦葺で，仏壇廻りでは丸柱で組物を用いる。簡素なつくりの小堂であるが，近世の境内構成を伝える上で貴重。,https://bunka.nii.ac.jp/heritage/43967/_105766/43967_105766111225015843831_300.jpg
101,00004777,覚王寺鐘楼,かくおうじしょうろう,1棟,,登録有形文化財(建造物),宗教,その他工作,,昭和前,昭和9,1934,木造、瓦葺、建築面積29㎡,,23 － 0203,46,2005.08.02(平成17.08.02),2005.07.12(平成17.07.12),,20050712,,造形の規範となっているもの,,愛知県,愛知県丹羽郡扶桑町大字高雄字南屋敷135,,宗教法人覚王寺,,,35.35319000000000,136.92170000000000,本堂南方にある。切石積基壇上に建ち，袴腰を簓子下見板張，擬宝珠高欄付の縁は出組詰組で受け，中備に蟇股を入れる。組物は出組詰組，蟇股・軒支輪を設ける。二軒繁垂木，入母屋造，桟瓦葺で，板天井には天女を描く。手の込んだつくりの方１間の袴腰付鐘楼。,https://bunka.nii.ac.jp/heritage/43967/_105767/43967_105767111225015845447_300.jpg
101,00004778,覚王寺山門,かくおうじさんもん,1棟,,登録有形文化財(建造物),宗教,その他工作,,明治,明治35,1902,木造、瓦葺、間口3.2m、潜門及び左右袖塀付,,23 － 0204,46,2005.08.02(平成17.08.02),2005.07.12(平成17.07.12),,20050712,,国土の歴史的景観に寄与しているもの,,愛知県,愛知県丹羽郡扶桑町大字高雄字南屋敷135,,宗教法人覚王寺,,,35.35293000000000,136.92190000000000,１間１戸薬医門で，左右に潜門と塀を附属し，段違いの屋根を連続する。軒は二軒繁垂木，切妻造，桟瓦葺の屋根で，組物は三斗，妻飾は虹梁・大瓶束とする。虹梁等の絵様は彫りが深いが華美ではなく，総欅になる丁寧なつくりで，正面入口に相応しい品格を持つ。,https://bunka.nii.ac.jp/heritage/43967/_105768/43967_105768111225015847480_300.jpg
101,00004981,甘強味淋旧本社事務所,かんきょうみりんきゅうほんしゃじむしょ,1棟,,登録有形文化財(建造物),産業3次,建築物,,昭和前,昭和12,1937,鉄筋コンクリート造3階建、建築面積92㎡、塔屋付,,23 － 0205,47,2005.12.05(平成17.12.05),2005.11.10(平成17.11.10),,20051110,,国土の歴史的景観に寄与しているもの,,愛知県,愛知県海部郡蟹江町城4-1地先内法,,甘強酒造株式会社,,,35.13139000000000,136.78970000000000,蟹江川に西面して建つ。南北に細長い台形平面のＲＣ造３階建塔屋付であるが，堤防際のため，西面は２階建外観になる。窓は縦長の上げ下げ窓，外壁はスクラッチタイル張，頂部はコーニスを廻し，玄関はテラコッタ飾りで縁取る。地方における事務所建築の好事例。,https://bunka.nii.ac.jp/heritage/43967/_105971/43967_105971111225020308317_300.jpg
101,00004982,甘強味淋工場,かんきょうみりんこうじょう,1棟,,登録有形文化財(建造物),産業2次,建築物,,明治,明治10／明治39・大正2増築,1877／1906・1913増築,土蔵造2階建、瓦葺、建築面積759㎡,,23 － 0206,47,2005.12.05(平成17.12.05),2005.11.10(平成17.11.10),,20051110,,国土の歴史的景観に寄与しているもの,,愛知県,愛知県海部郡蟹江町城4-1,,甘強酒造株式会社,,,35.13130000000000,136.79010000000000,敷地東にコの字型平面で建つ。北辺が古く，次に西辺が増築，これより東に延びた南辺が増築，現在の形となった。土蔵造２階建を基本とするが，一部煉瓦壁を用い，外壁の高い位置に窓を整然と並べる。伝統産業の発展過程を示す施設で，独特の景観を創っている。,https://bunka.nii.ac.jp/heritage/43967/_105972/43967_105972111225020310002_300.jpg
101,00004983,甘強味淋住宅主屋,かんきょうみりんじゅうたくしゅおく,1棟,,登録有形文化財(建造物),住宅,建築物,,大正,大正12／昭和12増改造,1923／1937増改造,木造2階建、瓦葺、建築面積272㎡,,23 － 0207,47,2005.12.05(平成17.12.05),2005.11.10(平成17.11.10),,20051110,,造形の規範となっているもの,,愛知県,愛知県海部郡蟹江町城4-1,,,,,35.13136000000000,136.78980000000000,社屋と工場の間にある２階建の和風住宅。東西棟の入母屋造，桟瓦葺，西面に玄関を設けた妻入で，東面に茶室を接続し，北辺が増築部である。良材を用い，洗練された書院造風を基調としつつ，２階の洋室や開放的な開口部を設け，当時の住宅の有様を示している。,https://bunka.nii.ac.jp/heritage/43967/_105973/43967_105973111225020311642_300.jpg
101,00004984,甘強味淋住宅土蔵,かんきょうみりんじゅうたくどぞう,1棟,,登録有形文化財(建造物),住宅,建築物,,大正,大正12,1923,土蔵造2階建、瓦葺、建築面積42㎡,,23 － 0208,47,2005.12.05(平成17.12.05),2005.11.10(平成17.11.10),,20051110,,造形の規範となっているもの,,愛知県,愛知県海部郡蟹江町城4-1,,,,,35.13128000000000,136.78990000000000,主屋の南東隅にあり，蔵前は主屋と接続している。土蔵造２階建，南北棟の切妻造，桟瓦葺で，１階西面に観音開扉を設け，東面の窓には庇を架ける。外壁は黒漆喰塗，頂部に鉢巻を廻す。小屋は登梁式とし，垂木を用いずに厚板を載せる。堅牢なつくりになる土蔵。,https://bunka.nii.ac.jp/heritage/43967/_105974/43967_105974111225020313319_300.jpg
101,00005078,長母寺庫裡,ちょうぼじくり,1棟,,登録有形文化財(建造物),宗教,建築物,,江戸,文政11,1828,木造平屋建、瓦葺、建築面積361㎡,,23 － 0037,21,1999.12.02(平成11.12.02),1999.11.18(平成11.11.18),,19991118,,国土の歴史的景観に寄与しているもの,,愛知県,愛知県名古屋市東区矢田町字寺畑2161,,宗教法人長母寺,,,35.19693000000000,136.94510000000000,本堂の東側に建ち，本堂とは廊下および客間と接続し，北西隅に茶室が繋がっている。切妻造・妻入・桟瓦葺で，桁行９間梁間５間の雄大な規模をもち，内部の梁組も重厚である。棟札より大工棟梁は川合半七で，建築年代が明確な庫裡として貴重な存在である。,https://bunka.nii.ac.jp/heritage/43967/_106068/43967_106068111225020541860_300.jpg
101,00005079,龍影閣（旧名古屋博物館品評所）,りょうえいかく（きゅうなごやはくぶつかんひんぴょうじょ）,1棟,,登録有形文化財(建造物),文化福祉,建築物,,明治,明治11,1878,木造2階建、瓦葺、建築面積295㎡,,23 － 0055,28,2001.05.15(平成13.05.15),2001.04.24(平成13.04.24),,20010424,,造形の規範となっているもの,,愛知県,愛知県名古屋市熱田区神宮1-1-1,,宗教法人熱田神宮,,,35.12583000000000,136.90800000000000,博覧会場の品評所として建設。木造２階建，寄棟造の和風建築で，階下に１８畳と１６畳半の座敷，階上に１０畳と上段付８畳（明治天皇御座所）を配置し，四周に廊下を巡らし，奥に階段室を設ける。棟梁は鈴木幸右衛門で，初期博覧会施設の遺構として貴重。,https://bunka.nii.ac.jp/heritage/43967/_106069/43967_106069111225020544544_300.jpg
101,00005187,雲興寺鐘楼,うんこうじしょうろう,1棟,,登録有形文化財(建造物),宗教,建築物,,江戸,文化7,1810,木造、瓦葺、建築面積28㎡,,23 － 0209,48,2005.12.27(平成17.12.27),2005.12.26(平成17.12.26),,20051226,,造形の規範となっているもの,,愛知県,愛知県瀬戸市白坂町131,,宗教法人雲興寺,,,35.22233000000000,137.14490000000000,境内中心部，本堂南にある。桁行２間，梁間２間の袴腰付鐘楼で，入母屋造，桟瓦葺である。出組で縁を支え，軸部は円柱を立て，柱頭の外部に長押を廻し，二手先組物に中備を蟇股とする。棟札から年代等が明確で，地域における江戸後期の基準作のひとつである。,https://bunka.nii.ac.jp/heritage/43967/_106177/43967_106177111225020810038_300.jpg
101,00005188,浄照寺本堂,じょうしょうじほんどう,1棟,,登録有形文化財(建造物),宗教,建築物,,明治,明治31,1898,木造平屋建、瓦葺、建築面積480㎡,,23 － 0210,48,2005.12.27(平成17.12.27),2005.12.26(平成17.12.26),,20051226,,造形の規範となっているもの,,愛知県,愛知県豊田市若林西町向屋敷62,,宗教法人浄照寺,,,35.03155000000000,137.09930000000000,南東を向いて建つ。正側面ともに約２０ｍと規模が大きく，入母屋造，桟瓦葺，向拝付で，平面は吹放の縁，外陣，矢来と続き，内陣は本間とその両側の余間及び飛檐間からなり，後堂がつく。伝統的な形式を踏襲しつつ，絵様細部や彫物等に近代の造形が窺える。,https://bunka.nii.ac.jp/heritage/43967/_106178/43967_106178111225020811419_300.jpg
101,00005189,浄照寺庫裏,じょうしょうじくり,1棟,,登録有形文化財(建造物),宗教,建築物,,江戸,万延元,1860,木造平屋建、瓦葺、建築面積251㎡,,23 － 0211,48,2005.12.27(平成17.12.27),2005.12.26(平成17.12.26),,20051226,,造形の規範となっているもの,,愛知県,愛知県豊田市若林西町向屋敷62,,宗教法人浄照寺,,,35.03152000000000,137.09970000000000,本堂東にある。長大な平入建物で，屋根は切妻造段違，桟瓦葺である。正面の南面東端を玄関，その奥の土間は豪放な梁組を見せ，床上部は３室を２列に配する。軸部は差物を多用した堅固な構法である。墨書から年代と棟梁が明確で，この地域の庫裏の指標となる。,https://bunka.nii.ac.jp/heritage/43967/_106179/43967_106179111225020812901_300.jpg
101,00005190,浄照寺書院,じょうしょうじしょいん,1棟,,登録有形文化財(建造物),宗教,建築物,,昭和前,昭和9,1934,木造平屋建、瓦葺、建築面積97㎡,,23 － 0212,48,2005.12.27(平成17.12.27),2005.12.26(平成17.12.26),,20051226,,造形の規範となっているもの,,愛知県,愛知県豊田市若林西町向屋敷62,,宗教法人浄照寺,,,35.03176000000000,137.09950000000000,本堂の北方にある。東西棟の切妻造で，四面に下屋を廻し，桟瓦葺とする。平面は８畳２室と６畳２室を田の字形とし，四周を縁で囲む。規模が小さく，下見板張の外観は素朴であるが，良材を吟味して用い，繊細な板欄間など瀟洒な数寄屋風のつくりとする。,https://bunka.nii.ac.jp/heritage/43967/_106180/43967_106180111225020815351_300.jpg
101,00005466,旧津島信用金庫本店,きゅうつしましんようきんこほんてん,1棟,,登録有形文化財(建造物),産業3次,建築物,,昭和前,昭和4,1929,鉄筋コンクリート造2階建、建築面積221㎡,,23 － 0213,50,2006.04.12(平成18.04.12),2006.03.27(平成18.03.27),,20060327,,造形の規範となっているもの,,愛知県,愛知県津島市本町1-52-1,,津島市,,,35.17875000000000,136.72330000000000,鉄筋コンクリート造２階建の銀行店舗である。１階正面中央に玄関を枠取り，入口両側に双子柱を飾る。２階は柱形で垂直性を強調する。外壁は目地切りの人造石洗い出しで，腰回りを花崗岩張りとする。営業室上部は吹き抜けで，ギャラリーを巡らせている,https://bunka.nii.ac.jp/heritage/43967/_106454/43967_106454111225021445559_300.jpg
101,00005467,堀部家住宅主屋,ほりべけじゅうたくしゅおく,1棟,,登録有形文化財(建造物),住宅,建築物,,明治,明治16,1883,木造2階建、瓦葺、建築面積196㎡,,23 － 0214,50,2006.04.12(平成18.04.12),2006.03.27(平成18.03.27),,20060327,,国土の歴史的景観に寄与しているもの,,愛知県,愛知県犬山市大字犬山字南古券272,,,,,35.37889000000000,136.93950000000000,北側道路に沿って建つ木造２階建で，切妻造，桟瓦葺の平入である。桁行９間半，梁間４間で，表と裏に瓦葺半間の下屋がつく。南面西端には水屋が付属する。内部は西に土間と台所，東に六間取の居室を配す。２階は座敷２室の他は物置とし，養蚕を行ったと伝える。,https://bunka.nii.ac.jp/heritage/43967/_106455/43967_106455111225021447111_300.jpg
101,00005468,堀部家住宅離座敷,ほりべけじゅうたくはなれざしき,1棟,,登録有形文化財(建造物),住宅,建築物,,大正,大正期,1912-1925,木造平屋建、瓦葺、建築面積50㎡,,23 － 0215,50,2006.04.12(平成18.04.12),2006.03.27(平成18.03.27),,20060327,,国土の歴史的景観に寄与しているもの,,愛知県,愛知県犬山市大字犬山字南古券272,,,,,35.37879000000000,136.93960000000000,主屋の南面東端に接続する木造平屋建で，桁行５間，梁間２間半の入母屋造，桟瓦葺とする。床，棚を備えた８畳座敷と押入を取り込んだ次の間７畳からなる。西面から南面へ縁を巡らせ，ガラス障子を建て込み，ガラス欄間を設ける。近代和風建築の一例である。,https://bunka.nii.ac.jp/heritage/43967/_106456/43967_106456111225021449244_300.jpg
101,00005469,堀部家住宅渡り廊,ほりべけじゅうたくわたりろう,1棟,,登録有形文化財(建造物),住宅,建築物,,明治,明治26頃,1893頃,木造平屋建、瓦葺、建築面積47㎡,,23 － 0216,50,2006.04.12(平成18.04.12),2006.03.27(平成18.03.27),,20060327,,国土の歴史的景観に寄与しているもの,,愛知県,愛知県犬山市大字犬山字南古券272,,,,,35.37880000000000,136.93950000000000,主屋南面西端の水屋から敷地西辺に沿って南の土蔵前まで延びる。桁行９間，梁間７尺規模，片流れ屋根の桟瓦葺である。敷地外側の壁上部は波板鉄板張で，腰を押縁下見板張とする。内部には物置，便所，風呂等を配し，敷地内側に設けた土庇下を通路とする。,https://bunka.nii.ac.jp/heritage/43967/_106457/43967_106457111225021449958_300.jpg
101,00005470,堀部家住宅土蔵,ほりべけじゅうたくどぞう,1棟,,登録有形文化財(建造物),住宅,建築物,,明治,明治26,1893,土蔵造2階建、瓦葺、建築面積54㎡,,23 － 0217,50,2006.04.12(平成18.04.12),2006.03.27(平成18.03.27),,20060327,,国土の歴史的景観に寄与しているもの,,愛知県,愛知県犬山市大字犬山字南古券272,,,,,35.37866000000000,136.93960000000000,敷地の中央に建つ，桁行４間半，梁間２間半の土蔵造２階建で，切妻造，桟瓦葺とする。北側に片引戸の戸口２箇所を設け，１間幅の瓦葺庇をつける。外壁は漆喰塗で，軒下まで押縁下見板張で養生する。内部は西から２間位置で間仕切りする。小屋組は登り梁である。,https://bunka.nii.ac.jp/heritage/43967/_106458/43967_106458111225021450225_300.jpg
101,00005471,堀部家住宅作業場,ほりべけじゅうたくさぎょうば,1棟,,登録有形文化財(建造物),住宅,建築物,,明治,明治26頃,1893頃,木造平屋建、瓦葺、建築面積69㎡,,23 － 0218,50,2006.04.12(平成18.04.12),2006.03.27(平成18.03.27),,20060327,,国土の歴史的景観に寄与しているもの,,愛知県,愛知県犬山市大字犬山字南古券272,,,,,35.37867000000000,136.93980000000000,土蔵の東に接続する切妻造，桟瓦葺の木造平屋建。桁行３間半，梁間２間の物置に，落棟で桁行３間，梁間２間の農作業小屋が接続し，これに桁行３間，梁間２間の蚕室を並置する。外壁は真壁造の白漆喰塗りで，腰を下見板張りとする。同家の生業を示す遺構である。,https://bunka.nii.ac.jp/heritage/43967/_106459/43967_106459111225021451612_300.jpg
101,00005472,堀部家住宅高塀,ほりべけじゅうたくたかべい,1棟,,登録有形文化財(建造物),住宅,その他工作,,昭和前,昭和初期,1926-1988,木造、瓦葺、延長22m,,23 － 0219,50,2006.04.12(平成18.04.12),2006.03.27(平成18.03.27),,20060327,,国土の歴史的景観に寄与しているもの,,愛知県,愛知県犬山市大字犬山字南古券272,,,,,35.37896000000000,136.93960000000000,敷地の北辺，主屋の前面に並行する木造の塀である。折曲がり延長２２ｍで瓦屋根を葺く。玉石積の基礎上に建ち，要所に控柱を添える。外面は腰に波形鉄板張り，内面は土壁中塗仕上げとする。主屋との間は１間半幅の前庭とする。重厚な街路景観を形成している。,https://bunka.nii.ac.jp/heritage/43967/_106460/43967_106460111225021453245_300.jpg
101,00005616,木曽川資料館主屋（旧木曽川町会議事堂）,きそがわしりょうかんしゅおく（きゅうきそがわちょうかいぎじどう）,1棟,,登録有形文化財(建造物),官公庁舎,建築物,,大正,大正13,1924,木造2階建、瓦葺、建築面積199㎡,,23 － 0220,51,2006.08.24(平成18.08.24),2006.08.03(平成18.08.03),,20060803,,造形の規範となっているもの,,愛知県,愛知県一宮市木曽川町黒田字宝光寺東13-2他,,一宮市,,,35.34439000000000,136.77810000000000,南北に細長い寄棟造，桟瓦葺，２階建で，正面の南に円柱を立てた玄関ポーチを構え，内部はホール，議場，控室等で構成され，ホール側上部に傍聴席を設ける。議場は吹き抜けで格天井とし，壁面は折上部まで漆喰塗とする。地方における洋風意匠の議場建築の好例。,https://bunka.nii.ac.jp/heritage/43967/_106604/43967_106604111225021749469_300.jpg
101,00005617,木曽川資料館収蔵室（旧木曽川町役場倉庫）,きそがわしりょうかんしゅうぞうしつ（きゅうきそがわちょうやくばそうこ）,1棟,,登録有形文化財(建造物),官公庁舎,建築物,,大正,大正13頃,1924頃,鉄筋コンクリート造2階建、瓦葺、建築面積41㎡,,23 － 0221,51,2006.08.24(平成18.08.24),2006.08.03(平成18.08.03),,20060803,,造形の規範となっているもの,,愛知県,愛知県一宮市木曽川町黒田字宝光寺東13-2,,一宮市,,,35.34454000000000,136.77810000000000,議事堂の北に建つ。東西棟で切妻造，桟瓦葺の２階建倉庫で，柱や壁を鉄筋コンクリート造とし，木造のキングポストトラスを架ける。壁面は白色モルタル塗で，軒蛇腹を廻し，鉄扉付の扉口や窓に小庇を架けるなど，近代工法で伝統形式を造った好例。,https://bunka.nii.ac.jp/heritage/43967/_106605/43967_106605111225021751932_300.jpg
101,00005618,真清田神社本殿及び渡殿,ますみだじんじゃほんでんおよびわたどの,1棟,,登録有形文化財(建造物),宗教,建築物,,昭和中,昭和29,1954,木造平屋建、銅板葺、建築面積186㎡,,23 － 0222,51,2006.08.24(平成18.08.24),2006.08.03(平成18.08.03),,20060803,,造形の規範となっているもの,,愛知県,愛知県一宮市真清田1-2-1,,宗教法人真清田神社,,,35.30771000000000,136.80200000000000,南面して建つ。本殿は三間社流造で，四周に縁を廻し，三斗組，二軒繁垂木，妻飾は二重虹梁である。前面に両下造で，中央格天井，両側間を化粧屋根裏とした渡殿が繋がる。檜材を用い，蟇股など装飾細部を最少限に抑え，優れた比例と荘厳な造形を達成している。,https://bunka.nii.ac.jp/heritage/43967/_106606/43967_106606111225021753546_300.jpg
101,00005619,興禅寺本堂,こうぜんじほんどう,1棟,,登録有形文化財(建造物),宗教,建築物,,明治,明治31,1898,木造平屋建、瓦葺、建築面積332㎡,,23 － 0223,51,2006.08.24(平成18.08.24),2006.08.03(平成18.08.03),,20060803,,国土の歴史的景観に寄与しているもの,,愛知県,愛知県犬山市大字羽黒字城屋敷16,,宗教法人興禅寺,,,35.35316000000000,136.94890000000000,南面して建つ。六間取平面で，南・東・西の各面に入側を廻し，四周切目縁付で，背面に後堂を出す。出組，二軒で寄棟造の屋根を架け，四周に舟肘木，二軒の下屋を廻す。方丈形式の本堂では珍しい二重屋根の堂々たる外観を構成し，地域の景観の核となっている。,https://bunka.nii.ac.jp/heritage/43967/_106607/43967_106607111225021755173_300.jpg
101,00005620,興禅寺山門,こうぜんじさんもん,1棟,,登録有形文化財(建造物),宗教,その他工作,,昭和前,昭和14,1939,木造、瓦葺、間口3.6m、左右袖塀付,,23 － 0224,51,2006.08.24(平成18.08.24),2006.08.03(平成18.08.03),,20060803,,造形の規範となっているもの,,愛知県,愛知県犬山市大字羽黒字城屋敷16,,宗教法人興禅寺,,,35.35273000000000,136.94900000000000,切妻造，本瓦葺の四脚門で，本堂前方に南面して建ち，左右にＬ字型の築地塀を延ばす。軸部は親柱を円，控柱を角とし，三斗を組む。妻飾は虹梁大瓶束笈形，軒は二軒繁垂木とする。化粧材は総欅で，木目が美しい鏡天井，精緻で流麗な装飾細部等，造形的にも優作。,https://bunka.nii.ac.jp/heritage/43967/_106608/43967_106608111225021756798_300.jpg
101,00005621,柴田家住宅主屋,しばたけじゅうたくしゅおく,1棟,,登録有形文化財(建造物),住宅,建築物,,明治,明治29,1896,木造2階建、瓦葺、建築面積144㎡,,23 － 0225,51,2006.08.24(平成18.08.24),2006.08.03(平成18.08.03),,20060803,,造形の規範となっているもの,,愛知県,愛知県清須市西枇把島町辰新田65,,,,,35.19298000000000,136.85990000000000,南面して建つ切妻造，桟瓦葺，２階建，平入で，南に下屋を設け，後方は敷地に合わせ，くの字に折れる。１階は東に通り土間，西に４室を並べ，最奥に床付の座敷を設ける。たちの低い２階は前に茶室等，奥に１５畳の座敷を配する。美濃路に面した近代町家の好例。,https://bunka.nii.ac.jp/heritage/43967/_106609/43967_106609111225021758438_300.jpg
101,00005764,オリエンタルビル屋上観覧車,おりえんたるびるおくじょうかんらんしゃ,1基,,登録有形文化財(建造物),その他,その他工作,,昭和中,昭和31,1956,鉄骨造、高さ12m、脚間6.2m,,23 － 0233,55,,2007.07.31(平成19.07.31),,20070731,,造形の規範となっているもの,,愛知県,愛知県名古屋市中区栄3-5-1,,オリエンタルビル株式会社,,,35.16851000000000,136.90590000000000,デパートの屋上に設置。二基の三角錐状鉄骨架構の支柱間に直径１０ｍの鉄骨製円形ホイールを取り付け，ホイール外周部に鉄骨製の４人乗ケージ９個を吊り下げる。娯楽遊戯施設の専門業者である東京の昭和鉄工株式会社が納入している。現存最古級の観覧車遺構。,https://bunka.nii.ac.jp/heritage/43967/_106752/43967_106752111225022154257_300.jpg
101,00005842,松楓閣本館,しょうふうかくほんかん,1棟,,登録有形文化財(建造物),産業3次,建築物,,昭和前,昭和9,1934,木造2階建、瓦葺、建築面積564㎡,,23 － 0226,52,,2006.10.18(平成18.10.18),,20061018,,造形の規範となっているもの,,愛知県,愛知県名古屋市千種区山門町2-3,,MTT有限責任事業組合,,,35.16806800000000,136.95222500000000,覚王山日泰寺の門前近くに所在する料亭建築で，１階は１２～２０畳の小間と３０畳の中広間７室から成り，２階は本舞台をもつ折上げ挌天井の９０畳大広間とする。四つの破風を見せる豪勢な正面の構えに特徴がある。棟札から上棟年代と棟梁山田浅次郎が判明。,https://bunka.nii.ac.jp/heritage/43967/_106828/43967_106828608003785936522_300.jpg
