台帳ID,管理対象ID,名称,ふりがな,員数,棟名,文化財種類,種別1,種別2,国,時代,年代,西暦,構造及び形式等,その他参考となるべき事項,登録番号,登録回,登録告示年月日,登録年月日,追加年月日,重文指定年月日,国宝指定年月日,登録基準1,登録基準2,都道府県,所在地,保管施設の名称,所有者名,所有者種別,管理団体又は責任者,緯度,経度,解説文,画像URL
101,00000527,新津記念館,にいつきねんかん,1棟,,登録有形文化財(建造物),住宅,建築物,,昭和前,昭和13,1938,鉄筋コンクリート造３階建塔屋付，建築面積153㎡,,15 － 0001,9,1998.06.09(平成10.06.09),1998.04.21(平成10.04.21),,19980421,,造形の規範となっているもの,,新潟県,新潟県新潟市中央区旭町通1番町754-34,,公益財団法人新津記念館,,,37.91902000000000,139.03700000000000,新潟の石油王といわれる新津恒吉が自邸内に迎賓館として建設したもの。清水組の設計施工になる。鉄筋コンクリート造、タイル貼り、地下１階、地上３階建塔屋付で、市内中心部の高台に建ち、装飾的なコーニスと２本の煙突がランドマークになっている。,https://bunka.nii.ac.jp/heritage/43967/_101517/43967_101517151214162130837_300.jpg
101,00000657,水道タンク,すいどうたんく,1基,,登録有形文化財(建造物),生活関連,その他工作,,昭和前,昭和2,1927,鉄筋コンクリート造，一部鉄製，高さ41.5m,,15 － 0002,11,1998.09.25(平成10.09.25),1998.09.02(平成10.09.02),,19980902,,国土の歴史的景観に寄与しているもの,,新潟県,新潟県長岡市水道町3-11-1,,長岡市,,,37.45666000000000,138.84310000000000,創設長岡市水道のモニュメントで，長岡のランドマークとして親しまれている。配水塔で，塔体は鉄筋コンクリート造６階建，平面円形で外周にトスカナ式のピラスターを付す。タンク部は鉄骨造の架構に鋼製の水槽を納める。金井彦三郎の設計と伝える。,https://bunka.nii.ac.jp/heritage/43967/_101647/43967_101647111225011010821_300.jpg
101,00000658,彌彦神社本殿,いやひこじんじゃほんでん,1棟,,登録有形文化財(建造物),宗教,建築物,,大正,大正5,1916,木造平屋建，銅板葺，建築面積26㎡,,15 － 0003,11,1998.09.25(平成10.09.25),1998.09.02(平成10.09.02),,19980902,,造形の規範となっているもの,,新潟県,新潟県西蒲原郡弥彦村大字弥彦2898,,宗教法人彌彦神社,,,37.70679000000000,138.82570000000000,明治４５年焼失の再建社殿。再建にあたり，弥彦山を背負う位置に社殿を移す。再建の設計は伊東忠太と桐山平太郎，監督は奥本五一。飾金具の意匠は大江新太郎ら明治神宮造営局のグループがあたる。本殿は焼失前と同様の流造を採用し，屋根は銅板葺とする。,https://bunka.nii.ac.jp/heritage/43967/_101648/43967_101648151023193358864_300.jpg
101,00000659,彌彦神社幣殿,いやひこじんじゃへいでん,1棟,,登録有形文化財(建造物),宗教,建築物,,大正,大正5,1916,木造平屋建，銅板葺，建築面積28㎡,,15 － 0004,11,1998.09.25(平成10.09.25),1998.09.02(平成10.09.02),,19980902,,造形の規範となっているもの,,新潟県,新潟県西蒲原郡弥彦村大字弥彦2898,,宗教法人彌彦神社,,,37.70674000000000,138.82580000000000,拝殿・祝詞舎の最奥部に位置し，内部を畳敷とする。平面的には一体であるが，外見上は本殿と同様の三間社流造の形式をとり，祝詞舎側に張りだした奥行一間の階段付大床を納める。背面は石階段と石廊下で本殿と連絡している。,https://bunka.nii.ac.jp/heritage/43967/_101649/43967_101649151023193359487_300.jpg
101,00000660,彌彦神社祝詞舎,いやひこじんじゃのりとしゃ,1棟,,登録有形文化財(建造物),宗教,建築物,,大正,大正5,1916,木造平屋建，銅板葺，建築面積66㎡,,15 － 0005,11,1998.09.25(平成10.09.25),1998.09.02(平成10.09.02),,19980902,,造形の規範となっているもの,,新潟県,新潟県西蒲原郡弥彦村大字弥彦2898,,宗教法人彌彦神社,,,37.70672000000000,138.82590000000000,幣殿と拝殿の間に位置する。屋根は切妻で，棟の一方を幣殿の棟に突きつけ，他方は拝殿屋根の妻に納める。内部は桁行方向に大虹梁を架け，それに梁間方向の虹梁を二重に載せ，化粧屋根裏とする。当初は畳敷であった。神饌所と伺候所との連絡口をもつ。,https://bunka.nii.ac.jp/heritage/43967/_101650/43967_101650151023193400100_300.jpg
101,00000661,彌彦神社拝殿,いやひこじんじゃはいでん,1棟,,登録有形文化財(建造物),宗教,建築物,,大正,大正5,1916,木造平屋建，銅板葺，建築面積165㎡,,15 － 0006,11,1998.09.25(平成10.09.25),1998.09.02(平成10.09.02),,19980902,,造形の規範となっているもの,,新潟県,新潟県西蒲原郡弥彦村大字弥彦2898,,宗教法人彌彦神社,,,37.70665000000000,138.82610000000000,桁行９間，梁間５間の規模で，入母屋造，妻入とし，後方左右に神饌所と伺候所を従え，前面に唐破風の向拝を付けて正面性を強調した造りとする。内部は桁行方向に大虹梁を架けて無柱の室内を造っている。近代建築家のてがけた神社建築の好例である。,https://bunka.nii.ac.jp/heritage/43967/_101651/43967_101651151023193401136_300.jpg
101,00000662,彌彦神社神饌所,いやひこじんじゃしんせんしょ,1棟,,登録有形文化財(建造物),宗教,建築物,,大正,大正5,1916,木造平屋建，銅板葺，建築面積73㎡,,15 － 0007,11,1998.09.25(平成10.09.25),1998.09.02(平成10.09.02),,19980902,,造形の規範となっているもの,,新潟県,新潟県西蒲原郡弥彦村大字弥彦2898,,宗教法人彌彦神社,,,37.70659000000000,138.82580000000000,神社の台所に相当する施設。拝殿の後方左手に位置し，渡廊下で祝詞舎とつながれ，最奥部に階段があり前庭に通じる。入母屋造，平を正面とした寝殿風の建物で，正面４間に蔀戸を建て込み，前面に高欄付の縁を設ける。,https://bunka.nii.ac.jp/heritage/43967/_101652/43967_101652111225011014207_300.jpg
101,00000663,彌彦神社瑞垣・裏門,いやひこじんじゃみずがき・うらもん,1棟,,登録有形文化財(建造物),宗教,その他工作物,,大正,大正5,1916,木造棟門，銅板葺，及び左右瑞垣56.2mよりなる,,15 － 0008,11,1998.09.25(平成10.09.25),1998.09.02(平成10.09.02),,19980902,,造形の規範となっているもの,,新潟県,新潟県西蒲原郡弥彦村大字弥彦2898,,宗教法人彌彦神社,,,37.70682000000000,138.82560000000000,本殿を囲む垣で，正面は幣殿に発し，側面９間建て，正面寄りに潜り門をとり，背面７間建ての中央に裏門を設ける。石製基壇上に建ち，内側に控えの柱をとり，柱間に組格子の狭間を建て込む。屋根は両流れ銅板葺で，裏門は平入唐破風屋根とする。,https://bunka.nii.ac.jp/heritage/43967/_101653/43967_101653151023193401756_300.jpg
101,00000664,彌彦神社伺候所,いやひこじんじゃしこうじょ,1棟,,登録有形文化財(建造物),宗教,建築物,,大正,大正5,1916,木造平屋建，銅板葺，建築面積73㎡,,15 － 0009,11,1998.09.25(平成10.09.25),1998.09.02(平成10.09.02),,19980902,,造形の規範となっているもの,,新潟県,新潟県西蒲原郡弥彦村大字弥彦2898,,宗教法人彌彦神社,,,37.70681000000000,138.82600000000000,神社の宿直所に相当する施設。拝殿の後方右手に位置し，祝詞舎とは渡廊下で連絡し，最奥部は階段となり前庭に通じる。内部は床付１０畳間と１２畳間とから成り，前面に高欄付の縁側を設ける。外見は神饌所と同様のものとなっている。,https://bunka.nii.ac.jp/heritage/43967/_101654/43967_101654151023193402359_300.jpg
101,00000665,彌彦神社摂社乙子神社,,1棟,,登録有形文化財(建造物),宗教,建築物,,大正,大正5,1916,木造平屋建，銅板葺，建築面積5.0㎡,,15 － 0010,11,1998.09.25(平成10.09.25),1998.09.02(平成10.09.02),,19980902,,造形の規範となっているもの,,新潟県,新潟県西蒲原郡弥彦村大字弥彦2898,,宗教法人彌彦神社,,,37.70666000000000,138.82690000000000,摂末社８棟のうち焼失した３棟の復興建築のひとつで，横並び８棟（右端の十柱神社は重要文化財）のうち向かって左より５棟目にあたる。焼失前と同様形式の一間社流造で，浜床・三方縁・脇障子付の社殿になり，屋根を銅板葺とする。,https://bunka.nii.ac.jp/heritage/43967/_101655/43967_101655151023193402972_300.jpg
101,00000666,彌彦神社摂社今山神社,,1棟,,登録有形文化財(建造物),宗教,建築物,,大正,大正5,1916,木造平屋建，銅板葺，建築面積5.0㎡,,15 － 0011,11,1998.09.25(平成10.09.25),1998.09.02(平成10.09.02),,19980902,,造形の規範となっているもの,,新潟県,新潟県西蒲原郡弥彦村大字弥彦2898,,宗教法人彌彦神社,,,37.70669000000000,138.82690000000000,摂末社８棟のうち焼失した３棟の復興建築のひとつで，横並び８棟のうち向かって左より３棟目にあたる。五代目の今山大神を祭る。七代目を祭る乙子神社と同規模同型式で，浜床・三方縁・脇障子付き，銅板葺，一間社流造とする。,https://bunka.nii.ac.jp/heritage/43967/_101656/43967_101656151023193403837_300.jpg
101,00000667,彌彦神社摂社草薙神社,いやひこじんじゃせっしゃくさなぎじんじゃ,1棟,,登録有形文化財(建造物),宗教,建築物,,大正,大正5,1916,木造平屋建，銅板葺，建築面積5.0㎡,,15 － 0012,11,1998.09.25(平成10.09.25),1998.09.02(平成10.09.02),,19980902,,造形の規範となっているもの,,新潟県,新潟県西蒲原郡弥彦村大字弥彦2898,,宗教法人彌彦神社,,,37.70670000000000,138.82680000000000,摂末社８棟のうち焼失した３棟の復興建築のひとつで，横並び８棟のうち向かって左より２棟目にあたる。四代目の草薙神を祭る。今山神社，乙子神社と同規模同型式で，浜床・三方縁・脇障子付，銅板葺，一間社流造とする。,https://bunka.nii.ac.jp/heritage/43967/_101657/43967_101657151023193404139_300.jpg
101,00000668,彌彦神社一之鳥居,いやひこじんじゃいちのとりい,1基,,登録有形文化財(建造物),宗教,その他工作物,,大正,大正5,1916,木造，銅板葺，高さ8.5m,,15 － 0013,11,1998.09.25(平成10.09.25),1998.09.02(平成10.09.02),,19980902,,造形の規範となっているもの,,新潟県,新潟県西蒲原郡弥彦村大字弥彦2898,,宗教法人彌彦神社,,,37.70491000000000,138.82760000000000,表参道の突き当たり，境内への入口に位置し，手前右手に社号標，左手に制札台を従える。柱間約６ｍ，高さ約８．４ｍの規模で，四脚建て両部鳥居の形式をとる。笠木の屋根は銅板葺，朱塗りで境内地のランドマークとなっている。,https://bunka.nii.ac.jp/heritage/43967/_101658/43967_101658151023193405128_300.jpg
101,00000669,彌彦神社石廊下,いやひこじんじゃいしろうか,1基,,登録有形文化財(建造物),宗教,その他工作物,,大正,大正5,1916,石造，長さ5.7m，幅3.6m,,15 － 0014,11,1998.09.25(平成10.09.25),1998.09.02(平成10.09.02),,19980902,,造形の規範となっているもの,,新潟県,新潟県西蒲原郡弥彦村大字弥彦2898,,宗教法人彌彦神社,,,37.70675000000000,138.82580000000000,本殿と幣殿とを繋ぐ。遷宮式の際にはこの石廊下の上に木造の覆屋を架けた。石積三段で基壇を造り，瑞垣の潜り戸通り筋に三段の石階段を設ける。本殿基壇へは三段の石階段で，また幣殿の裏扉へは五段の石階段で連絡する造りとなっている。,https://bunka.nii.ac.jp/heritage/43967/_101659/43967_101659151023193405421_300.jpg
101,00000670,彌彦神社舞殿,いやひこじんじゃまいでん,1棟,,登録有形文化財(建造物),宗教,建築物,,大正,大正5,1916,木造平屋建橋掛廊下付，銅板葺，建築面積33㎡,,15 － 0015,11,1998.09.25(平成10.09.25),1998.09.02(平成10.09.02),,19980902,,造形の規範となっているもの,,新潟県,新潟県西蒲原郡弥彦村大字弥彦2898,,宗教法人彌彦神社,,,37.70640000000000,138.82720000000000,拝殿に向かう参道中程の右手，摂末社の下段に位置する。亀腹基壇の上に腰組付の高欄を回し，四方を吹き放ちとした舞台建築で，隣接する楽舎から突きだした橋掛廊下を付す。屋根は入母屋造であるが，これのみ扇乗木とし他との違いを際出させている。,https://bunka.nii.ac.jp/heritage/43967/_101660/43967_101660151023193405724_300.jpg
101,00000671,彌彦神社楽舎,いやひこじんじゃがくしゃ,1棟,,登録有形文化財(建造物),宗教,建築物,,大正,大正5,1916,木造平屋建，瓦葺，建築面積58㎡,,15 － 0016,11,1998.09.25(平成10.09.25),1998.09.02(平成10.09.02),,19980902,,造形の規範となっているもの,,新潟県,新潟県西蒲原郡弥彦村大字弥彦2898,,宗教法人彌彦神社,,,37.70637000000000,138.82740000000000,舞殿と並び建ち，東に玄関を付す。内部は畳敷で，橋掛廊下入口の左手，舞殿側に奥行一間六畳分の床を高くした楽座を設けている。舞殿と対比して，石積基壇，舟肘木，一軒疎乗木，桟瓦葺など仕様を控えめにしている。,https://bunka.nii.ac.jp/heritage/43967/_101661/43967_101661151023193406327_300.jpg
101,00000672,彌彦神社参集殿（旧拝観所）,いやひこじんじゃさんしゅうでん（きゅうはいかんじょ）,1棟,,登録有形文化財(建造物),宗教,建築物,,大正,大正5,1916,木造平屋建，瓦葺，建築面積169㎡,,15 － 0017,11,1998.09.25(平成10.09.25),1998.09.02(平成10.09.02),,19980902,,造形の規範となっているもの,,新潟県,新潟県西蒲原郡弥彦村大字弥彦2898,,宗教法人彌彦神社,,,37.70642000000000,138.82750000000000,舞殿での神楽を観覧するための施設。舞殿・楽舎と平行して建ち，東に玄関を付す。北側片廊下の細長い建物で，南面の蔀戸を上げて神楽を拝観する。入母屋造，桟瓦葺，舟肘木など楽舎にほぼ準じた仕様となっている。,https://bunka.nii.ac.jp/heritage/43967/_101662/43967_101662151023193406925_300.jpg
101,00000673,彌彦神社二之鳥居,いやひこじんじゃにのとりい,1基,,登録有形文化財(建造物),宗教,その他工作物,,大正,大正5,1916,石造，高さ6.4m,,15 － 0018,11,1998.09.25(平成10.09.25),1998.09.02(平成10.09.02),,19980902,,造形の規範となっているもの,,新潟県,新潟県西蒲原郡弥彦村大字弥彦2898,,宗教法人彌彦神社,,,37.70600000000000,138.82760000000000,表参道を手水舎のところで左に折れ，しばらく行った石階段の上に建つ。稲田石による石造鳥居で，明神鳥居の形式をとる。柱間４．５ｍ，高さ約６ｍ，笠木石の長さ８．４ｍの規模で，この鳥居から社殿がはじめて望見できることになる。,https://bunka.nii.ac.jp/heritage/43967/_101663/43967_101663151023193407541_300.jpg
101,00000674,彌彦神社手水舎,いやひこじんじゃちょうずしゃ,1棟,,登録有形文化財(建造物),宗教,その他工作物,,大正,大正5,1916,木造平屋建，銅板葺，建築面積7.０㎡,,15 － 0019,11,1998.09.25(平成10.09.25),1998.09.02(平成10.09.02),,19980902,,造形の規範となっているもの,,新潟県,新潟県西蒲原郡弥彦村大字弥彦2898,,宗教法人彌彦神社,,,37.70584000000000,138.82780000000000,表参道から二之鳥居方向に折れる地点に建つ。銅板葺き反り付き切妻屋根の前後に唐破風を付ける。四方の隅柱に転びをつけ，２本宛の控柱を添わす。天井は格天井，軒は二軒繁乗木で，三斗組を備えるなど舞殿とほぼ同様の仕様としている。,https://bunka.nii.ac.jp/heritage/43967/_101664/43967_101664151023193408198_300.jpg
101,00000675,彌彦神社斎館（旧勅使館）,いやひこじんじゃさいかん（きゅうちょくしかん）,1棟,,登録有形文化財(建造物),宗教,建築物,,大正,大正5,1916,木造平屋建，瓦葺，建築面積149㎡,,15 － 0020,11,1998.09.25(平成10.09.25),1998.09.02(平成10.09.02),,19980902,,造形の規範となっているもの,,新潟県,新潟県西蒲原郡弥彦村大字弥彦2898,,宗教法人彌彦神社,,,37.70663000000000,138.82770000000000,二之鳥居から神馬舎のところで折れた突き当たりに建つ勅使の宿泊施設で，１０畳の書院座敷，１０畳間，２０畳間，６畳二間から成り，西北に湯殿・便所を配し，東で社務所（現在は宝物殿が建つ）に連絡していた。神社の格の高さを示す建造物である。,https://bunka.nii.ac.jp/heritage/43967/_101665/43967_101665151023193408807_300.jpg
101,00000676,彌彦神社鼓楼,いやひこじんじゃころう,1棟,,登録有形文化財(建造物),宗教,建築物,,大正,大正5,1916,木造平屋建，瓦葺，建築面積5.9㎡,,15 － 0021,11,1998.09.25(平成10.09.25),1998.09.02(平成10.09.02),,19980902,,造形の規範となっているもの,,新潟県,新潟県西蒲原郡弥彦村大字弥彦2898,,宗教法人彌彦神社,,,37.70603000000000,138.82690000000000,旧社務所に隣接して建てられていたが，昭和３７年新社務所が完成した際に現在地に移築された。桁行梁間とも８尺，軒高１６尺の規模で，高欄付きの縁を回し，箕甲付切妻屋根を架け，下部を袴腰とする。現在も時を告げる鼓楼として機能しつづけている。,https://bunka.nii.ac.jp/heritage/43967/_101666/43967_101666151023193409418_300.jpg
101,00000677,彌彦神社絵馬殿,いやひこじんじゃえまでん,1棟,,登録有形文化財(建造物),宗教,建築物,,大正,大正5,1916,木造平屋建，瓦葺，建築面積132㎡,,15 － 0022,11,1998.09.25(平成10.09.25),1998.09.02(平成10.09.02),,19980902,,造形の規範となっているもの,,新潟県,新潟県西蒲原郡弥彦村大字弥彦2898,,宗教法人彌彦神社,,,37.70569000000000,138.82760000000000,手水舎の手前，やや奥まったところに建つ。反りのある箕甲付入母屋屋根の前後に千鳥破風を構えているところに特徴がある。境内地に隣接して存在した陸上競技場（現在は競輪場）で開催された競技会の入賞額などが掲げられ神社活動の一端を物語っている。,https://bunka.nii.ac.jp/heritage/43967/_101667/43967_101667151023193409724_300.jpg
101,00000678,彌彦神社制札台,いやひこじんじゃせいさつだい,1棟,,登録有形文化財(建造物),宗教,その他工作物,,大正,大正5,1916,木造，銅板葺,,15 － 0023,11,1998.09.25(平成10.09.25),1998.09.02(平成10.09.02),,19980902,,造形の規範となっているもの,,新潟県,新潟県西蒲原郡弥彦村大字弥彦2898,,宗教法人彌彦神社,,,37.70489000000000,138.82760000000000,一之鳥居に向かって左手前に位置する。石積基壇に建ち，周囲に木製玉垣をめぐらす。柱間１．３５ｍ，棟高約３ｍの規模で，柱より腕木を出して銅板葺切妻屋根を架ける。檜材を用い，腕木を舟肘木と巻斗で支えるなど小規模ながら格の高い仕様をとっている。,https://bunka.nii.ac.jp/heritage/43967/_101668/43967_101668151023193410046_300.jpg
101,00000679,彌彦神社神符授与所,,1棟,,登録有形文化財(建造物),宗教,建築物,,大正,大正5,1916,木造平屋建，瓦葺，建築面積41㎡,,15 － 0024,11,1998.09.25(平成10.09.25),1998.09.02(平成10.09.02),,19980902,,造形の規範となっているもの,,新潟県,新潟県西蒲原郡弥彦村大字弥彦2898,,宗教法人彌彦神社,,,37.70577000000000,138.82800000000000,表参道が二之鳥居に向かって折れる地点の手前右手，手水舎の向かいに建つ。瓦葺切妻屋根，舟肘木仕様の建物で，銅板葺の裳階は後補である。神苑沿いの東参道からのアプローチを考慮して妻面の構成に意を凝らした造りとなっている。,https://bunka.nii.ac.jp/heritage/43967/_101669/43967_101669151023193410345_300.jpg
101,00000680,彌彦神社神木石柵,いやひこじんじゃしんぼくいしだな,1基,,登録有形文化財(建造物),宗教,その他工作,,大正,大正5,1916,石造，延長32.8m,,15 － 0025,11,1998.09.25(平成10.09.25),1998.09.02(平成10.09.02),,19980902,,造形の規範となっているもの,,新潟県,新潟県西蒲原郡弥彦村大字弥彦2898,,宗教法人彌彦神社,,,37.70611000000000,138.82790000000000,神木は二之鳥居手前右手のやや高地，旧本殿跡の手前に位置する。石柵はこの神木を取り囲むよう不等辺七角形のプランを有し，自然石を積んだ基壇の上に建てられている。柵の高さは１．２ｍで，正面幅１．５ｍ，７段の階段上に石扉２枚を釣り込んでいる。,https://bunka.nii.ac.jp/heritage/43967/_101670/43967_101670111225011023552_300.jpg
101,00000681,彌彦神社石橋,いやひこじんじゃいしばし,1基,,登録有形文化財(建造物),宗教,土木構造物,,大正,大正5,1916,石造，幅6.4m，長さ4.5m,,15 － 0026,11,1998.09.25(平成10.09.25),1998.09.02(平成10.09.02),,19980902,,造形の規範となっているもの,,新潟県,新潟県西蒲原郡弥彦村大字弥彦2898,,宗教法人彌彦神社,,,37.70502000000000,138.82770000000000,一之鳥居の奥，御手洗川に架けられた石造桁橋で，橋長４．５ｍ，橋幅５．４ｍ，前後に各一間の袖高欄をつける。橋板は７枚石で，緩やかな太鼓橋とする。高欄は，親柱・地覆石・斗・架木ともすべてをひとつの石から彫り出している。,https://bunka.nii.ac.jp/heritage/43967/_101671/43967_101671151023193410654_300.jpg
101,00000682,彌彦神社狛犬,いやひこじんじゃこまいぬ,1対,,登録有形文化財(建造物),宗教,その他工作物,,大正,大正5,1916,石造，高さ2.1m,,15 － 0027,11,1998.09.25(平成10.09.25),1998.09.02(平成10.09.02),,19980902,,造形の規範となっているもの,,新潟県,新潟県西蒲原郡弥彦村大字弥彦2898,,宗教法人彌彦神社,,,37.70642000000000,138.82650000000000,かっての三之鳥居（現在は随身門）前に建立。伊東忠太の図案により，新海竹太郎が原型を作成している。招魂社系の神社によくみられる両足を突っ張ったタイプの狛犬で，細身で精悍な顔立ちをしている。東京の名石工酒井八右衛門の代表作でもある。,https://bunka.nii.ac.jp/heritage/43967/_101672/43967_101672151023193412594_300.jpg
101,00000961,旧武石家住宅味噌蔵,きゅうたけいしけじゅうたくみそぐら,1棟,,登録有形文化財(建造物),住宅,建築物,,明治,明治初期,1868-1911,木造平屋建，茅葺，建築面積20㎡,,15 － 0028,15,1998.12.25(平成10.12.25),1998.12.11(平成10.12.11),,19981211,,国土の歴史的景観に寄与しているもの,,新潟県,新潟県西蒲原郡弥彦村大字麓7056,,弥彦村,,,37.68130000000000,138.82240000000000,村指定文化財である主屋の南手前に建つ。桁行３間，梁間２間の規模で，平入，寄棟造，茅葺，出入口に庇を付ける。部材や構法が上質であることから，当初は道具蔵であったとみられている。屋敷構えを構成する主要建造物として貴重。,https://bunka.nii.ac.jp/heritage/43967/_101951/43967_101951111225011340047_300.jpg
101,00000962,旧武石家住宅薪小屋,きゅうたけいしけじゅうたくたきぎごや,1棟,,登録有形文化財(建造物),住宅,建築物,,昭和前,昭和4,1929,木造平屋建，茅葺，建築面積10㎡,,15 － 0029,15,1998.12.25(平成10.12.25),1998.12.11(平成10.12.11),,19981211,,国土の歴史的景観に寄与しているもの,,新潟県,新潟県西蒲原郡弥彦村大字麓7056,,弥彦村,,,37.68123000000000,138.82230000000000,村指定文化財である主屋の南方，味噌蔵の西後方に位置する。桁行２間，梁間１間半の規模で，切妻造，茅葺，平入，側柱のみの吹放ち建物。側柱は土台に建ち，２筋の貫を回す。素朴で小規模な小屋ではあるが，茅屋根のヴォリュームが相応の存在感を与えている。,https://bunka.nii.ac.jp/heritage/43967/_101952/43967_101952111225011340310_300.jpg
101,00001040,谷村家住宅主屋,たにむらけじゅうたくしゅおく,1棟,,登録有形文化財(建造物),住宅,建築物,,江戸,19世紀初期,1801-1900,木造平屋建，鉄板葺，建築面積163㎡,,15 － 0030,16,1999.03.12(平成11.03.12),1999.02.17(平成11.02.17),,19990217,,国土の歴史的景観に寄与しているもの,,新潟県,新潟県糸魚川市大字蓮台寺952,,,,,37.03707000000000,137.87290000000000,中央を「六妙の川」が流れる通称「蓮台寺谷」の中間に位置し，石垣が並ぶ川沿い道路東側に屋敷地を構える。もとは地域の庄屋の家になり，間取りは四間取りを基本とし，ダイドコロがニワにはりだす「西頸城型」民家の特徴を持ち，旧態をよく留める。,https://bunka.nii.ac.jp/heritage/43967/_102030/43967_102030111225011425539_300.jpg
101,00001041,谷村家住宅土蔵,たにむらけじゅうたくどぞう,1棟,,登録有形文化財(建造物),住宅,建築物,,江戸,嘉永年間,1848-1854,木造２階建，鉄板葺，建築面積14㎡,,15 － 0031,16,1999.03.12(平成11.03.12),1999.02.17(平成11.02.17),,19990217,,国土の歴史的景観に寄与しているもの,,新潟県,新潟県糸魚川市大字蓮台寺952,,,,,37.03697000000000,137.87300000000000,主屋の背後，敷地の南東隅に建つ。木造２階建，切妻造，平入，置屋根形式の土蔵で，風雪を考慮して，２階床の高さまで杉下見板を貼る。棟木の下面に「保食命　倉護守」の墨書がある木札が打ちつけられている。入口の切妻，妻入の庇は後補である。,https://bunka.nii.ac.jp/heritage/43967/_102031/43967_102031111225011426050_300.jpg
101,00001251,吉川家住宅主屋,きっかわけじゅうたくしゅおく,1棟,,登録有形文化財(建造物),住宅,建築物,,明治,明治12頃,1879頃,木造２階建，鉄板葺，建築面積315㎡,,15 － 0032,19,1999.09.07(平成11.09.07),1999.08.23(平成11.08.23),,19990823,,国土の歴史的景観に寄与しているもの,,新潟県,新潟県村上市大町195,,,,,38.22431000000000,139.47890000000000,大町通りと市役所通りに挟まれた東西に長い敷地の中央部に建つ。鮭の加工販売を営む商家の住宅で、明治１２年の大火直後の再建と伝える。北側は２列の部屋列とし、西北端の座敷部分を２階建とする。南側は鮭加工の場として通り土間としている点に特徴がある。,https://bunka.nii.ac.jp/heritage/43967/_102241/43967_102241140930093232789_300.jpg
101,00001252,吉川家住宅土蔵,きっかわけじゅうたくどぞう,1棟,,登録有形文化財(建造物),住宅,建築物,,江戸,天保12,1841,木造２階建，瓦葺，建築面積161㎡,,15 － 0033,19,1999.09.07(平成11.09.07),1999.08.23(平成11.08.23),,19990823,,国土の歴史的景観に寄与しているもの,,新潟県,新潟県村上市大町195,,,,,38.22431000000000,139.47910000000000,主屋の背後に建つ切妻造、桟瓦葺、妻入、総２階の土蔵で、棟札により建設年代が判明する。内部に２列４本の柱を持つ規模の大きな土蔵で、造り酒屋を営んだ時期の酒蔵とされる。村上市の旧市街地における明治維新前の建築遺構として貴重である。,https://bunka.nii.ac.jp/heritage/43967/_102242/43967_102242140930093233273_300.jpg
101,00001328,平田大六家住宅主屋,ひらただいろくけじゅうたくしゅおく,1棟,,登録有形文化財(建造物),住宅,建築物,,大正,大正10,1921,木造平屋建一部2階建、瓦葺（下屋庇部分金属板葺）、建築面積504㎡,,15 － 0034,20,1999.10.28(平成11.10.28),1999.10.14(平成11.10.14),,19991014,,国土の歴史的景観に寄与しているもの,,新潟県,新潟県岩船郡関川村小見237,,,,,38.10391000000000,139.55040000000000,近世初頭に当地に居を構えたとされる平田家は，元禄年間から酒造業を営み，広大な屋敷地に主屋，酒蔵等を配している。主屋は大正10年竣工の大規模な近代和風建築で，書院風意匠で統一された座敷等の各部屋や，豪壮な梁組をみせる台所等に見所がある。,https://bunka.nii.ac.jp/heritage/43967/_102318/43967_102318111225011715757_300.jpg
101,00001329,平田大六家住宅味噌蔵・米蔵,ひらただいろくけじゅうたくみそぐら・こめぐら,1棟,,登録有形文化財(建造物),住宅,建築物,,大正,大正年間,1912-1925,土蔵造2階建、瓦葺（下屋庇部分金属板葺）、建築面積79㎡,,15 － 0035,20,1999.10.28(平成11.10.28),1999.10.14(平成11.10.14),,19991014,,国土の歴史的景観に寄与しているもの,,新潟県,新潟県岩船郡関川村小見237,,,,,38.10366000000000,139.55040000000000,桁行８間・梁間３間で，主屋とほぼ同時期の建築である。中央間仕切を境に北半分を味噌蔵，南半分を米蔵として使い分けている。勾配の急な置屋根形式の桟瓦葺，外壁はもと下見板壁になり，屋敷地の東南隅，主屋の南に建ち，屋敷構えの主要素となっている。,https://bunka.nii.ac.jp/heritage/43967/_102319/43967_102319111225011716264_300.jpg
101,00001330,平田大六家住宅酒母蔵,ひらただいろくけじゅうたくもとぐら,1基,,登録有形文化財(建造物),産業2次,建築物,,明治,明治初期以前,1911以前,土蔵造平屋建、瓦葺、建築面積54㎡,,15 － 0036,20,1999.10.28(平成11.10.28),1999.10.14(平成11.10.14),,19991014,,国土の歴史的景観に寄与しているもの,,新潟県,新潟県岩船郡関川村小見237,,,,,38.10411000000000,139.55070000000000,屋敷地の北，主屋の北東に建つ。桁行６間半・梁間２間の細長平面で，酒造業を営んでいた時期，酒母を仕込み育成する施設として使われていた。荒壁仕上げの外壁を保護するため，周囲を縦板壁で囲んだ外観は，特色ある意匠として景観になじんでいる。,https://bunka.nii.ac.jp/heritage/43967/_102320/43967_102320111225011716775_300.jpg
101,00001331,平田大六家住宅酒蔵,ひらただいろくけじゅうたくさかぐら,1棟,,登録有形文化財(建造物),産業2次,建築物,,江戸,弘化2／明治初期頃増築,1845／1868-1911頃増築,土蔵造平屋建一部2階建、瓦葺、建築面積119㎡,,15 － 0037,20,1999.10.28(平成11.10.28),1999.10.14(平成11.10.14),,19991014,,国土の歴史的景観に寄与しているもの,,新潟県,新潟県岩船郡関川村小見237,,,,,38.10417000000000,139.55050000000000,主屋の真北に並行して建つ。桁行９間・梁間４間の東西棟の建物であるが，東側５間分が棟札より弘化２年の建築，西側４間分は明治初期頃の増築とされる。酒造業を営んでいた時期，酒を仕込み貯蔵する施設で，内部梁間２間分には２階床組が設けられている。,https://bunka.nii.ac.jp/heritage/43967/_102321/43967_102321111225011717281_300.jpg
101,00001332,平田大六家住宅土蔵,ひらただいろくけじゅうたくどぞう,1棟,,登録有形文化財(建造物),住宅,建築物,,江戸,天保6,1835,土蔵造2階建、瓦葺（下屋庇部分金属板葺）、建築面積29㎡,,15 － 0038,20,1999.10.28(平成11.10.28),1999.10.14(平成11.10.14),,19991014,,国土の歴史的景観に寄与しているもの,,新潟県,新潟県岩船郡関川村小見237,,,,,38.10413000000000,139.55040000000000,主屋と酒蔵の中間に建つ土蔵で，棟札より天保６年の建築。桁行３間半・梁間２間半，緩い置屋根形式の石州瓦葺，外壁は荒壁仕上げである。もともと道具蔵で，内部は総２階になっており，酒造業を営んだ大規模な屋敷に欠かせない建築である。,https://bunka.nii.ac.jp/heritage/43967/_102322/43967_102322111225011717794_300.jpg
101,00001333,平田大六家住宅煙突,ひらただいろくけじゅうたくえんとつ,1基,,登録有形文化財(建造物),産業2次,その他工作,,明治,明治後期,1868-1911,煉瓦積み、1.2m四方、高さ3.6m,,15 － 0039,20,1999.10.28(平成11.10.28),1999.10.14(平成11.10.14),,19991014,,国土の歴史的景観に寄与しているもの,,新潟県,新潟県岩船郡関川村小見237,,,,,38.10400000000000,139.55060000000000,主屋と酒母蔵に挟まれた位置に建ち，もとはここに洗米，蒸米，酒しぼりなどを行う建物があった。羊羹を用いたイギリス積み煉瓦造煙突で，高さ約３．６ｍ。現在は屋敷の一点景となっているが，酒造業を営んだ当時の様相を知る上で，欠かせない構成要素である。,https://bunka.nii.ac.jp/heritage/43967/_102323/43967_102323111225011718963_300.jpg
101,00001568,太古山日長堂主屋,,1棟,,登録有形文化財(建造物),住宅,建築物,,江戸,18世紀中期,1701-1800,木造平屋建、鉄板葺、建築面積349㎡,,15 － 0040,23,2000.05.17(平成12.05.17),2000.04.28(平成12.04.28),,20000428,,国土の歴史的景観に寄与しているもの,,新潟県,新潟県新潟市北区新崎2-4-57,,一級財団法人太古山日長堂,,,37.92485000000000,139.15300000000000,この地の庄屋を務めた古山家の主屋で，広大な敷地のほぼ中央に南面して建つ。Ｔ字型平面で，前側に広間や座敷等があり，背面に居室部が突出する。正面に破風をみせた屋根をあげた撞木造風の壮大な外観は，都市化の進む景観の中の歴史的要素となっている。,https://bunka.nii.ac.jp/heritage/43967/_102558/43967_102558151214162133749_300.jpg
101,00001569,太古山日長堂仏蔵,,1棟,,登録有形文化財(建造物),住宅,建築物,,江戸,19世紀初期,1801-1900,木造2階建、瓦葺、建築面積20㎡,,15 － 0041,23,2000.05.17(平成12.05.17),2000.04.28(平成12.04.28),,20000428,,国土の歴史的景観に寄与しているもの,,新潟県,新潟県新潟市北区新崎2-4-57,,一級財団法人太古山日長堂,,,37.92497000000000,139.15290000000000,主屋北西に建つ総二階建の蔵で，切妻造・桟瓦葺，西に庇を設け，出入り口とする。一階は板床，格天井で壁面に仏壇を設け，二階を物置とする。古山家の持仏堂的な機能を有していた。主屋と一連の施設で，旧家の仏座のあり方を示す要素である。,https://bunka.nii.ac.jp/heritage/43967/_102559/43967_102559151214162134126_300.jpg
101,00001570,佐野商店店舗兼住宅,さのしょうてんてんぽけんじゅうたく,1棟,,登録有形文化財(建造物),産業3次,建築物,,昭和前,昭和12,1937,木造2階建、瓦葺、建築面積60㎡,,15 － 0042,23,2000.05.17(平成12.05.17),2000.04.28(平成12.04.28),,20000428,,国土の歴史的景観に寄与しているもの,,新潟県,新潟県新潟市中央区沼垂東4-5622,,,,,37.92336000000000,139.06760000000000,雑貨商を営む佐野商店の店舗兼住宅で，木造総二階建，寄棟造・桟瓦葺で，昭和１２年の建設と伝える。軒をせがい造りとし，一階・二階の開口部に庇を設け，外壁を縦板張とする。直交する街路の一角に建ち，この地域の伝統的な町家の形式をよく保持している。,https://bunka.nii.ac.jp/heritage/43967/_102560/43967_102560111225011943030_300.jpg
101,00001572,二宮家住宅主屋,にのみやけじゅうたくしゅおく,1棟,,登録有形文化財(建造物),住宅,建築物,,大正,大正7,1918,木造平屋建、瓦葺、建築面積215㎡,,15 － 0044,23,2000.05.17(平成12.05.17),2000.04.28(平成12.04.28),,20000428,,国土の歴史的景観に寄与しているもの,,新潟県,新潟県新潟市江南区俵柳65-2,,,,,37.86184000000000,139.02540000000000,二宮家は新潟市街の南方，信濃川東岸にある農家で，主屋は大正６年の水害後に再建された。切妻造・桟瓦葺・妻入の伝統的な形式になるが，均質な柱や梁の部材に近代和風の造形がみられる。大正期の民家であるが，信濃川沿いの農村景観とよく調和している。,https://bunka.nii.ac.jp/heritage/43967/_102562/43967_102562111225011943547_300.jpg
101,00001573,二宮家住宅農舎,にのみやけじゅうたくのうしゃ,1棟,,登録有形文化財(建造物),住宅,建築物,,昭和中,昭和23,1948,木造2階建、瓦葺、建築面積77㎡,,15 － 0045,23,2000.05.17(平成12.05.17),2000.04.28(平成12.04.28),,20000428,,国土の歴史的景観に寄与しているもの,,新潟県,新潟県新潟市江南区俵柳65-2,,,,,37.86170000000000,139.02560000000000,東を正面とした細長の屋敷地奥に主屋が建ち，その前面に農舎や堆肥小屋などの附属屋がある。農舎は切妻造・桟瓦葺で，東と北に庇を設け，倉庫として用いるため柱を高くし，西側には二階部屋がある。主屋と一体となって屋敷の構えをかたちづくっている。,https://bunka.nii.ac.jp/heritage/43967/_102563/43967_102563111225011944059_300.jpg
101,00001574,斎藤家住宅主屋,さいとうけじゅうたくしゅおく,1棟,,登録有形文化財(建造物),住宅,建築物,,明治,明治初期,1868-1911,木造2階建、瓦葺、建築面積395㎡,,15 － 0046,23,2000.05.17(平成12.05.17),2000.04.28(平成12.04.28),,20000428,,造形の規範となっているもの,,新潟県,新潟県新潟市中央区関屋本村町1-148-1,,株式会社斎藤不動産,,,37.91234000000000,139.01960000000000,斎藤家は江戸時代には米沢藩の陣屋とされていた旧家。主屋は戊辰戦争で焼失し，その後に再建された。大規模な切妻造・妻入の形式で，外観の妻面は直梁と貫を数段重ねた構成とし，内部は茶の間など豪快な梁組をみせるが，座敷を瀟洒な書院風にまとめている。,https://bunka.nii.ac.jp/heritage/43967/_102564/43967_102564111225011944586_300.jpg
101,00001575,斎藤家住宅土蔵,さいとうけじゅうたくどぞう,1棟,,登録有形文化財(建造物),住宅,建築物,,江戸,江戸後期／弘化2（1845）移築,1751-1829／1845移築,木造2階建、瓦葺、建築面積59㎡,,15 － 0047,23,2000.05.17(平成12.05.17),2000.04.28(平成12.04.28),,20000428,,再現することが容易でないもの,,新潟県,新潟県新潟市中央区関屋本村町1-148-1,,株式会社斎藤不動産,,,37.91236000000000,139.01940000000000,敷地最奥，主屋の北西側に建つ土蔵は，弘化２年頃に亀田町の堀家のものを移築したと伝える。切妻造・桟瓦葺で置き屋根式とし，２階建で両側面に各階の窓を設け，外壁は漆喰塗とする。保存状態も良好で，江戸期の土蔵形式をよく伝えている。,https://bunka.nii.ac.jp/heritage/43967/_102565/43967_102565111225011946001_300.jpg
101,00001576,樋木酒造店舗兼主屋,ひきしゅぞうてんぽけんしゅおく,1棟,,登録有形文化財(建造物),産業2次,建築物,,明治,明治末期／昭和30移築,1868-1911／1955移築,木造2階建、瓦葺、建築面積340㎡,,15 － 0048,23,2000.05.17(平成12.05.17),2000.04.28(平成12.04.28),,20000428,,造形の規範となっているもの,,新潟県,新潟県新潟市西区内野町582,,公益財団法人鶴友会,,,37.85754000000000,138.93870000000000,樋木酒造は天保７年，西蒲原郡巻町前田に創業したが，安政年間に現在の新潟市西部に移ったと伝える。主屋は昭和３０年に新津市柄目木の民家を移築した。前面右端に店舗を設けるが，大型の寄棟造・桟瓦葺の民家で，当地方の六間取平面をよく保持している。,https://bunka.nii.ac.jp/heritage/43967/_102566/43967_102566151214162134860_300.jpg
101,00001577,樋木酒造西酒蔵,ひきしゅぞうにしさかぐら,1棟,,登録有形文化財(建造物),産業2次,建築物,,明治,明治26,1893,木造2階建、瓦葺、建築面積183㎡,,15 － 0049,23,2000.05.17(平成12.05.17),2000.04.28(平成12.04.28),,20000428,,再現することが容易でないもの,,新潟県,新潟県新潟市西区内野町582,,,,,37.85778000000000,138.93840000000000,樋木酒造は南北に長い敷地を持ち，南正面に建つ主屋の奥に，仕込蔵などの酒造施設が並ぶ。南北に細長い切妻造・桟瓦葺の西酒蔵は明治２６年の建築である。外壁を漆喰塗と腰縦板張とし，内部は一階が貯蔵庫，二階が作業場になる伝統的な酒造蔵である。,https://bunka.nii.ac.jp/heritage/43967/_102567/43967_102567111225011946764_300.jpg
101,00001578,樋木酒造東酒蔵,ひきしゅぞうひがしさかぐら,1棟,,登録有形文化財(建造物),産業2次,建築物,,明治,明治45,1912,木造2階建、瓦葺、建築面積280㎡,,15 － 0050,23,2000.05.17(平成12.05.17),2000.04.28(平成12.04.28),,20000428,,再現することが容易でないもの,,新潟県,新潟県新潟市西区内野町582,,,,,37.85792000000000,138.93870000000000,敷地東の東酒蔵は，南北棟・切妻造・桟瓦葺で西酒蔵とほぼ同形式であるが，ひとまわり大きく，東面に２間下屋庇の増設がある。明治４５年の建築で，小屋組は杉丸太の陸梁を用いたキングポストトラスとする。近代工法を取り入れた大規模な酒造蔵である。,https://bunka.nii.ac.jp/heritage/43967/_102568/43967_102568111225011947272_300.jpg
101,00001580,木揚場教会,きあげばきょうかい,1棟,,登録有形文化財(建造物),宗教,建築物,,大正,大正15,1926,木造2階建、瓦葺、建築面積343㎡,,15 － 0052,23,2000.05.17(平成12.05.17),2000.04.28(平成12.04.28),,20000428,,再現することが容易でないもの,,新潟県,新潟県新潟市中央区礎町通1-1957,,,,,37.92003000000000,139.04890000000000,浄土真宗大谷派の説教施設で，明治４３年の火災後，大正１５年に再建された。木造で，一階は真宗仏堂とし，前半の二階を一室の道場とする。玄関付・２階建・寄棟造の前半と，これに直交する平屋建で入母屋造の大屋根を組み合わせた特異な形態となっている。,https://bunka.nii.ac.jp/heritage/43967/_102570/43967_102570111225011947794_300.jpg
101,00001584,行形亭主屋,いきなりやしゅおく,1棟,,登録有形文化財(建造物),産業3次,建築物,,江戸,江戸末期,1830-1867,木造2階建、鉄板葺、建築面積107㎡,,15 － 0056,23,2000.05.17(平成12.05.17),2000.04.28(平成12.04.28),,20000428,,国土の歴史的景観に寄与しているもの,,新潟県,新潟県新潟市中央区西大畑町573,,株式会社行形亭,,,37.92628000000000,139.04100000000000,料亭・行形亭は元禄年間の創業といわれる。総２階建の主屋の１階前面には，庇下の空間を利用したＬ字型の土間が配される。正面妻では上部の梁と小壁，下部の板壁と窓を効果的に組み合わせ，両側の２階庇の破風が意匠を引き立てている。,https://bunka.nii.ac.jp/heritage/43967/_102574/43967_102574111225011950575_300.jpg
101,00001585,行形亭三番の間,いきなりやさんばんのま,1棟,,登録有形文化財(建造物),産業3次,建築物,,明治,明治10,1877,木造平屋建、鉄板葺、建築面積40㎡,,15 － 0057,23,2000.05.17(平成12.05.17),2000.04.28(平成12.04.28),,20000428,,国土の歴史的景観に寄与しているもの,,新潟県,新潟県新潟市中央区西大畑町573,,株式会社行形亭,,,37.92661000000000,139.04080000000000,行形亭では敷地中央の池付の庭を囲むように各建物が配される。木造平屋建の三番の間は敷地の北側に位置し，その両端が広間及び二番の間と廊下で接続される。腰壁黒塗簓子下見板張，上部を真壁造りとする。数寄屋風の内部は掛込天井及び舟底天井の形式を取る。,https://bunka.nii.ac.jp/heritage/43967/_102575/43967_102575111225011951090_300.jpg
101,00001586,行形亭寿の間・二番の間,いきなりやことぶきのま・にばんのま,1棟,,登録有形文化財(建造物),産業3次,建築物,,明治,明治10,1877,木造平屋建、鉄板葺、建築面積252㎡,,15 － 0058,23,2000.05.17(平成12.05.17),2000.04.28(平成12.04.28),,20000428,,国土の歴史的景観に寄与しているもの,,新潟県,新潟県新潟市中央区西大畑町573,,株式会社行形亭,,,37.92649000000000,139.04050000000000,行形亭は新潟市内の代表的老舗料亭として知られている。この木造平屋建の座敷棟は，広大な敷地の最奥部に位置し庭と広く面する。木造平屋建，黒塗簓子下見板張，鉄板葺寄棟屋根で，大広間を中心に構成される寿の間が，主屋から連続する内部空間の終点となる。,https://bunka.nii.ac.jp/heritage/43967/_102576/43967_102576111225011953256_300.jpg
101,00001587,行形亭九番の間,いきなりやきゅうばんのま,1棟,,登録有形文化財(建造物),産業3次,建築物,,明治,明治10,1877,木造平屋建、鉄板葺、建築面積29㎡,,15 － 0059,23,2000.05.17(平成12.05.17),2000.04.28(平成12.04.28),,20000428,,造形の規範となっているもの,,新潟県,新潟県新潟市中央区西大畑町573,,株式会社行形亭,,,37.92627000000000,139.04070000000000,離れ座敷に隣接する。一室の座敷に加えて玄関，廊下を備える独立した客室。木造平屋建，鉄板葺で，腰壁黒塗簓子下見板張，建物上部を真壁造りとする。建物後部は築山に載り，建物前面が懸造状に高い床束に載ることで，舞台装置的に庭に張り出す。,https://bunka.nii.ac.jp/heritage/43967/_102577/43967_102577111225011953728_300.jpg
101,00001588,行形亭湯殿,いきなりやゆどの,1棟,,登録有形文化財(建造物),産業3次,建築物,,明治,明治20,1887,木造平屋建、鉄板葺、建築面積58㎡,,15 － 0060,23,2000.05.17(平成12.05.17),2000.04.28(平成12.04.28),,20000428,,国土の歴史的景観に寄与しているもの,,新潟県,新潟県新潟市中央区西大畑町573,,株式会社行形亭,,,37.92606000000000,139.04060000000000,九番の間に隣接し，客用の浴室として設けられた，木造平屋建の建屋。前面の庇の下に通土間が配され，それに沿って脱衣室，廊下，浴室が並んでいる。脱衣室には床の間が設けられ，数寄屋風の意匠とし，浴室の天井には白漆喰で龍の鏝絵が描かれる。,https://bunka.nii.ac.jp/heritage/43967/_102578/43967_102578111225011954245_300.jpg
101,00001589,行形亭離れ座敷,いきなりやはなれざしき,1棟,,登録有形文化財(建造物),産業3次,建築物,,昭和前,昭和3,1928,木造2階建、瓦葺、建築面積319㎡,,15 － 0061,23,2000.05.17(平成12.05.17),2000.04.28(平成12.04.28),,20000428,,再現することが容易でないもの,,新潟県,新潟県新潟市中央区西大畑町573,,株式会社行形亭,,,37.92621000000000,139.04080000000000,敷地の南側に位置する木造２階建の建屋。入母屋造り，桟瓦葺，簓子下見板張で，和風を基調とした玄関には，多種の洋風照明器具，自然木を用いた階段手摺りなどに独特な造作を施している。また，内部の随所に，行形亭のシンボルである鶴を模した意匠が見られる。,https://bunka.nii.ac.jp/heritage/43967/_102579/43967_102579111225011954766_300.jpg
101,00001590,行形亭土蔵,いきなりやどぞう,1棟,,登録有形文化財(建造物),産業3次,建築物,,昭和前,昭和3,1928,木造2階建、瓦葺、建築面積59㎡,,15 － 0062,23,2000.05.17(平成12.05.17),2000.04.28(平成12.04.28),,20000428,,国土の歴史的景観に寄与しているもの,,新潟県,新潟県新潟市中央区西大畑町573,,株式会社行形亭,,,37.92604000000000,139.04080000000000,離れ座敷と同時期に建設される。置屋根型式の桟瓦葺で，２階床部まで腰板が張られ，その上部を漆喰仕上げとする。道路側の妻面には鶴の鏝絵が施される。前面道路から見る黒板塀と黒松越しの土蔵は新潟の風情を表す代表的景観として親しまれている。,https://bunka.nii.ac.jp/heritage/43967/_102580/43967_102580111225011955280_300.jpg
101,00001591,行形亭表門,いきなりやおもてもん,1棟,,登録有形文化財(建造物),産業3次,その他工作,,大正,大正3,1914,木造、鉄板葺、間口2.3m,,15 － 0063,23,2000.05.17(平成12.05.17),2000.04.28(平成12.04.28),,20000428,,国土の歴史的景観に寄与しているもの,,新潟県,新潟県新潟市中央区西大畑町573,,株式会社行形亭,,,37.92610000000000,139.04100000000000,敷地の南東部に位置する。銅板葺の薄いムクリ屋根を載せた数寄屋風の門であるが，内側に広がった小屋根付きの控え板壁を伸ばして高麗門風の構えをとる。鶴の透し彫りが施された板欄間付きの縦格子透し門扉に気品が感じられる。,https://bunka.nii.ac.jp/heritage/43967/_102581/43967_102581111225011956602_300.jpg
101,00001592,行形亭裏門,いきなりやうらもん,1棟,,登録有形文化財(建造物),産業3次,その他工作,,江戸,江戸末期,1830-1867,木造、鉄板葺、間口2.1m,,15 － 0064,23,2000.05.17(平成12.05.17),2000.04.28(平成12.04.28),,20000428,,国土の歴史的景観に寄与しているもの,,新潟県,新潟県新潟市中央区西大畑町573,,株式会社行形亭,,,37.92665000000000,139.04050000000000,敷地北端の裏山の上に位置する。表門と同様の銅板葺のムクリ屋根を載せる。疎ら垂木，片開きの縦格子透し門で，その一枚戸に引き戸形式の潜戸を付ける。柱には念入りな面取りがなされ，裏庭の景観を引き締めている。,https://bunka.nii.ac.jp/heritage/43967/_102582/43967_102582111225011957116_300.jpg
101,00001593,行形亭中門及び塀,いきなりやちゅうもんおよびへい,1棟,,登録有形文化財(建造物),産業3次,その他工作,,昭和前,昭和3,1928,木造、木羽葺、間口1.4m,,15 － 0065,23,2000.05.17(平成12.05.17),2000.04.28(平成12.04.28),,20000428,,国土の歴史的景観に寄与しているもの,,新潟県,新潟県新潟市中央区西大畑町573,,株式会社行形亭,,,37.92616000000000,139.04070000000000,離れ座敷の庭を囲み，土蔵と対面する。間口４尺５寸の中門は自然木で棟木を支え，屋根は木羽葺，門扉は網代戸とし，瀟洒な印象を与える。塀は腰壁板張り，上部漆喰塗りとし，土蔵壁面と調和した意匠で，離れ座敷表玄関への通路を形成している。,https://bunka.nii.ac.jp/heritage/43967/_102583/43967_102583111225011957377_300.jpg
101,00001594,鍋茶屋主屋,なべぢゃやしゅおく,1棟,,登録有形文化財(建造物),産業3次,建築物,,明治,明治43／昭和12増改築,1910／1937増改築,木造3階建、瓦葺、建築面積1251㎡,,15 － 0066,23,2000.05.17(平成12.05.17),2000.04.28(平成12.04.28),,20000428,,再現することが容易でないもの,,新潟県,新潟県新潟市中央区東堀通8-1420,,合資会社鍋茶屋,,,37.92416000000000,139.04620000000000,鍋茶屋は幕末期創業と伝わる料亭である。主屋は概ねＨ字型に構成され，南側の東西棟部分以外が昭和１２年に清水組によって増築される。１階から３階に向かって規模が大きくなる各室では，欄間・棚等に多様な意匠が施され，近代和風の粋が凝らされている。,https://bunka.nii.ac.jp/heritage/43967/_102584/43967_102584111225011957891_300.jpg
101,00001595,鍋茶屋応接室棟,なべぢゃやおうせつしつとう,1棟,,登録有形文化財(建造物),産業3次,建築物,,昭和前,昭和6,1931,木造一部鉄筋コンクリート造3階建、瓦葺、建築面積48㎡,,15 － 0067,23,2000.05.17(平成12.05.17),2000.04.28(平成12.04.28),,20000428,,再現することが容易でないもの,,新潟県,新潟県新潟市中央区東堀通8-1420,,合資会社鍋茶屋,,,37.92385000000000,139.04600000000000,主屋の南側に位置する。１階はＲＣ造で，外壁石張の洋間には矩形上げ下げ窓とステンドグラスの入った２連の尖頭アーチ型窓が付けられる。精緻な細工を凝らした漆喰天井や装飾照明が，内部空間に華美な趣を与える。２，３階は木造の和風。設計施工は清水組。,https://bunka.nii.ac.jp/heritage/43967/_102585/43967_102585111225011958400_300.jpg
101,00001596,鍋茶屋離れ座敷,なべぢゃやはなれざしき,1棟,,登録有形文化財(建造物),産業3次,建築物,,昭和前,昭和6,1931,木造2階建、瓦葺、建築面積84㎡,,15 － 0068,23,2000.05.17(平成12.05.17),2000.04.28(平成12.04.28),,20000428,,国土の歴史的景観に寄与しているもの,,新潟県,新潟県新潟市中央区東堀通8-1420,,合資会社鍋茶屋,,,37.92382000000000,139.04620000000000,敷地の南東端に位置する。木造２階建，瓦葺。１階には座敷の他に茶室，２階は二間続きの座敷を配し，全体的に数寄屋風の意匠でまとめられる。道路を望む広い開口部及び細い水平材と束の組合わせからなる繊細な妻飾りが，街路の景観形成に寄与している。,https://bunka.nii.ac.jp/heritage/43967/_102586/43967_102586111225011958910_300.jpg
101,00001597,鍋茶屋表門及び外塀,なべぢゃやおもてもんおよびそとべい,1棟,,登録有形文化財(建造物),産業3次,その他工作,,昭和前,昭和12,1937,鉄筋コンクリート造、瓦葺、間口2.6m、外塀延長35m,,15 － 0069,23,2000.05.17(平成12.05.17),2000.04.28(平成12.04.28),,20000428,,国土の歴史的景観に寄与しているもの,,新潟県,新潟県新潟市中央区東堀通8-1420,,合資会社鍋茶屋,,,37.92412000000000,139.04590000000000,敷地西面の通称鍋茶屋通りに面して建つ。表門は片流れ桟瓦葺。外塀には，表門と同様に，腰壁石積にＲＣ造壁面が載り，上下の接続部をリシン仕上げとする。縦格子の開口部によって，門と壁の意匠的統一性がさらに図られる。離れ座敷と共に清水組による施工。,https://bunka.nii.ac.jp/heritage/43967/_102587/43967_102587111225012000048_300.jpg
101,00001598,鍋茶屋土蔵,なべぢゃやどぞう,1棟,,登録有形文化財(建造物),産業3次,建築物,,明治,明治43頃,1910頃,木造2階建、瓦葺、建築面積43㎡,,15 － 0070,23,2000.05.17(平成12.05.17),2000.04.28(平成12.04.28),,20000428,,国土の歴史的景観に寄与しているもの,,新潟県,新潟県新潟市中央区東堀通8-1420,,合資会社鍋茶屋,,,37.92401000000000,139.04630000000000,主屋と並び，建物群に埋め尽くされた敷地の東部に位置する。新建材で覆われる外部東面は，妻面と開口部に土蔵造りの痕跡を残す。２階中央部の棟木と母屋を支える大梁に自然木の極端な曲り材を用い，内部空間の見所を作る。,https://bunka.nii.ac.jp/heritage/43967/_102588/43967_102588111225012000304_300.jpg
101,00001599,鍋茶屋煉瓦蔵,なべぢゃやれんがぞう,1棟,,登録有形文化財(建造物),産業3次,建築物,,明治,明治43頃,1910頃,煉瓦造平屋建、瓦葺、建築面積63㎡,,15 － 0071,23,2000.05.17(平成12.05.17),2000.04.28(平成12.04.28),,20000428,,国土の歴史的景観に寄与しているもの,,新潟県,新潟県新潟市中央区東堀通8-1420,,合資会社鍋茶屋,,,37.92394000000000,139.04630000000000,敷地東部で，離れ座敷と土蔵に挟まれて建つ。煉瓦造平屋建で，壁面は小口積で作られる。片流れ桟瓦葺の屋根の上に，防火・目隠用の煉瓦壁を立ち上げる。土蔵と同じく外壁を介せずに東堀通りに面し，主屋・離れ座敷と共に街路に多様な景観をもたらしている。,https://bunka.nii.ac.jp/heritage/43967/_102589/43967_102589111225012000812_300.jpg
101,00001600,鍋茶屋離れ土蔵,なべぢゃやはなれどぞう,1棟,,登録有形文化財(建造物),産業3次,建築物,,昭和前,昭和初期,1926-1988,土蔵造2階建、瓦葺、建築面積72㎡,,15 － 0072,23,2000.05.17(平成12.05.17),2000.04.28(平成12.04.28),,20000428,,国土の歴史的景観に寄与しているもの,,新潟県,新潟県新潟市中央区東堀通8-1420,,合資会社鍋茶屋,,,37.92427000000000,139.04600000000000,敷地の北西端，主屋と中庭を挟んで建つ。現在，食堂として使われる。土蔵造２階建，切妻桟瓦葺。腰の海鼠壁の上を漆喰塗りとし，１・２階に形式・意匠を同じくする観音開き扉を配す。広大な敷地を持つ鍋茶屋正面の隅部を飾る。,https://bunka.nii.ac.jp/heritage/43967/_102590/43967_102590111225012001317_300.jpg
101,00001601,燕喜館（旧斎藤家住宅）主屋,えんきかん（きゅうさいとうけじゅうたく）しゅおく,1棟,,登録有形文化財(建造物),住宅,建築物,,明治,明治41,1908,木造平屋建、瓦葺、建築面積241㎡,,15 － 0073,23,2000.05.17(平成12.05.17),2000.04.28(平成12.04.28),,20000428,,造形の規範となっているもの,,新潟県,新潟県新潟市中央区一番堀通町1-2,,新潟市,,,37.91493000000000,139.03780000000000,幕末期の新潟の名士斎藤家の座敷棟を移築したもの。現在，蓮池を望む白山公園内に位置する。座敷とその縁側は池に向けられ庭と一体となり開放感ある空間を作る。全体的に数寄屋風でまとめた内部には銘木が多く用いられ，襖絵・欄間等に趣向が凝らされている。,https://bunka.nii.ac.jp/heritage/43967/_102591/43967_102591111225012001599_300.jpg
101,00001664,北方文化博物館新潟分館主屋,ほっぽうぶんかはくぶつかんにいがたぶんかんしゅおく,1棟,,登録有形文化財(建造物),住宅,建築物,,明治,明治28頃,1895頃,木造2階建、瓦葺、建築面積174㎡,,15 － 0074,24,2000.05.25(平成12.05.25),2000.04.28(平成12.04.28),,20000428,,造形の規範となっているもの,,新潟県,新潟県新潟市中央区南浜通2-561-3,,一般財団法人北方文化博物館,,,37.92557000000000,139.04040000000000,主屋は長岡在住の清水氏が明治２８年頃に建てたと伝える２階建の和風建築。のちに横越町の豪農，伊藤家が購入，昭和２１年より北方文化博物館分館となった。下見板張，桟瓦葺の外観は質素だが，内部は洗練された数寄屋風で，当時の別邸のあり方を物語る。,https://bunka.nii.ac.jp/heritage/43967/_102654/43967_102654151214162135188_300.jpg
101,00001665,北方文化博物館新潟分館洋館,ほっぽうぶんかはくぶつかんにいがたぶんかんようかん,1棟,,登録有形文化財(建造物),住宅,建築物,,昭和前,昭和3頃,1928頃,木造2階建、瓦葺、建築面積79㎡,,15 － 0075,24,2000.05.25(平成12.05.25),2000.04.28(平成12.04.28),,20000428,,造形の規範となっているもの,,新潟県,新潟県新潟市中央区南浜通2-561-3,,一般財団法人北方文化博物館,,,37.92547000000000,139.04050000000000,洋館は明治末期に購入した伊藤家が，昭和３年頃に建設した。昭和２１年から約１０年間，會津八一が起居し，現在は展示室とされている。主屋の南東に接続する総２階建の洋風建築で，外壁はドイツ風モルタル塗，建具や天井蛇腹などに昭和初期の造形が見られる。,https://bunka.nii.ac.jp/heritage/43967/_102655/43967_102655151214162135529_300.jpg
101,00001666,北方文化博物館新潟分館茶室,ほっぽうぶんかはくぶつかんにいがたぶんかんちゃしつ,1棟,,登録有形文化財(建造物),住宅,建築物,,大正,大正14頃,1925頃,木造平屋建、瓦葺、建築面積20㎡,,15 － 0076,24,2000.05.25(平成12.05.25),2000.04.28(平成12.04.28),,20000428,,造形の規範となっているもの,,新潟県,新潟県新潟市中央区南浜通2-561-3,,一般財団法人北方文化博物館,,,37.92567000000000,139.04030000000000,主屋の北西，やや奥まった位置にあり，のちに會津八一が清行庵と命名した。伊藤家が別邸の構えを再整備した大正末期の建築と伝える。屋根はもと急勾配の茅葺で，庭園側に銅板葺の庇を廻した三帖台目の瀟洒な茶室で，数寄屋風の意匠を凝らしている。,https://bunka.nii.ac.jp/heritage/43967/_102656/43967_102656151214162135886_300.jpg
101,00001667,北方文化博物館新潟分館待合,ほっぽうぶんかはくぶつかんにいがたぶんかんまちあい,1棟,,登録有形文化財(建造物),住宅,建築物,,大正,大正14頃,1925頃,木造平屋建、木羽葺、建築面積2.3㎡,,15 － 0077,24,2000.05.25(平成12.05.25),2000.04.28(平成12.04.28),,20000428,,造形の規範となっているもの,,新潟県,新潟県新潟市中央区南浜通2-561-3,,一般財団法人北方文化博物館,,,37.92573000000000,139.04050000000000,茶室関係の施設は，主屋と洋館の奧につくられた枯山水の庭園に面して設けられている。土蔵の南側に建つ待合は，主屋と茶室を望むよう腰掛を設け，背面の窓を大きくとる。杉皮を竹で押さえた素朴な屋根で，曲がりのある自然木を用い，丁寧なつくりである。,https://bunka.nii.ac.jp/heritage/43967/_102657/43967_102657151214162136249_300.jpg
101,00001668,北方文化博物館新潟分館土蔵,ほっぽうぶんかはくぶつかんにいがたぶんかんどぞう,1棟,,登録有形文化財(建造物),住宅,建築物,,大正,大正4,1915,木造2階建、瓦葺、建築面積44㎡,,15 － 0078,24,2000.05.25(平成12.05.25),2000.04.28(平成12.04.28),,20000428,,再現することが容易でないもの,,新潟県,新潟県新潟市中央区南浜通2-561-3,,一般財団法人北方文化博物館,,,37.92578000000000,139.04050000000000,敷地最奥の北隅に位置する蔵で，伊藤家が建設した。切妻造・妻入・桟瓦葺・２階建で，観音扉を設けた妻面に下屋庇を設け，他の三面の１階部分外壁を海鼠壁，上部は白漆喰塗とする。全体は丁寧なつくりで，別邸の構成要素としても欠かせない倉庫建築。,https://bunka.nii.ac.jp/heritage/43967/_102658/43967_102658151214162136977_300.jpg
101,00001669,北方文化博物館新潟分館表門,ほっぽうぶんかはくぶつかんにいがたぶんかんおもてもん,1棟,,登録有形文化財(建造物),住宅,その他工作物,,大正,大正4,1915,木造薬医門、間口2.3m,,15 － 0079,24,2000.05.25(平成12.05.25),2000.04.28(平成12.04.28),,20000428,,造形の規範となっているもの,,新潟県,新潟県新潟市中央区南浜通2-561-3,,一般財団法人北方文化博物館,,,37.92541000000000,139.04030000000000,屋敷の南西正面ほぼ中央にあり，伊藤家が購入後，別邸を整備した時に建てられた。良質の材料を用いた間口１間の腕木門形式で，背面には控え柱を建てる。銅板葺の屋根は緩やかな起りをもたせ，軒裏を木舞打とし，主屋に繋がる数寄屋風の造形としている。,https://bunka.nii.ac.jp/heritage/43967/_102659/43967_102659151214162137319_300.jpg
101,00001670,北方文化博物館新潟分館煉瓦塀,ほっぽうぶんかはくぶつかんにいがたぶんかんれんがべい,1棟,,登録有形文化財(建造物),住宅,その他工作物,,大正,大正4,1915,煉瓦造、延長37m,,15 － 0080,24,2000.05.25(平成12.05.25),2000.04.28(平成12.04.28),,20000428,,造形の規範となっているもの,,新潟県,新潟県新潟市中央区南浜通2-561-3,,一般財団法人北方文化博物館,,,37.92549000000000,139.04060000000000,屋敷の南東部を区切る高さ約３ｍ，全長３７ｍの煉瓦塀。外側は煉瓦を見せるが，内側はバットレス状の控えと柱型を備えてモルタル塗とし，柱型の間を扁平なアーチ状にかたちづくる。煉瓦造からコンクリート造への転換期の様相が伺える。,https://bunka.nii.ac.jp/heritage/43967/_102660/43967_102660151214162137673_300.jpg
101,00001671,北方文化博物館主屋,ほっぽうぶんかはくぶつかんしゅおく,1棟,,登録有形文化財(建造物),住宅,建築物,,明治,明治20,1887,木造2階建、瓦葺、建築面積636㎡,,15 － 0081,24,2000.05.25(平成12.05.25),2000.04.28(平成12.04.28),,20000428,,国土の歴史的景観に寄与しているもの,,新潟県,新潟県新潟市江南区沢海2-6970,,一般財団法人北方文化博物館,,,37.82964000000000,139.15210000000000,北方文化博物館は、近代土地所有制のもとに発展した豪農の伊藤家の本邸。主屋は棟札より明治２０年と判る。東を正面とする寄棟造・妻入、２階建で、奧に仏間等を持ち、構造的に通し柱を多用するなど、合理性を意識した伝統的大工技術も内包した巨大な建築。,https://bunka.nii.ac.jp/heritage/43967/_102661/43967_102661151214162138023_300.jpg
101,00001672,北方文化博物館大広間,ほっぽうぶんかはくぶつかんおおひろま,1棟,,登録有形文化財(建造物),住宅,建築物,,明治,明治22,1889,木造平屋建、瓦葺、建築面積287㎡,,15 － 0082,24,2000.05.25(平成12.05.25),2000.04.28(平成12.04.28),,20000428,,国土の歴史的景観に寄与しているもの,,新潟県,新潟県新潟市江南区沢海2-6970,,一般財団法人北方文化博物館,,,37.82944000000000,139.15230000000000,主屋の南側に中庭を挟んで並行して建ち、渡廊下で繋がっている。平屋建、入母屋造の大建築で、東面に唐破風付の玄関を設け、３２畳の大広間、各１５畳の中断の間・上段の間と続く。南の庭園側には長大な土縁を設け、雄大な構成になる豪農の接客建築。,https://bunka.nii.ac.jp/heritage/43967/_102662/43967_102662151214162138385_300.jpg
101,00001673,北方文化博物館内土蔵,ほっぽうぶんかはくぶつかんうちどぞう,1棟,,登録有形文化財(建造物),住宅,建築物,,明治,明治20,1887,木造2階建、瓦葺、建築面積140㎡,,15 － 0083,24,2000.05.25(平成12.05.25),2000.04.28(平成12.04.28),,20000428,,再現することが容易でないもの,,新潟県,新潟県新潟市江南区沢海2-6970,,一般財団法人北方文化博物館,,,37.82933000000000,139.15190000000000,内土蔵は敷地西側に建ち、その前面にある主屋・大広間と廊下で接続している。南北棟の２階建の土蔵で、切妻造・妻入・桟瓦葺の形式。長大なため、内部には間仕切壁がある。外壁は白漆喰塗で、二階に観音扉を設ける。豪農の屋敷に相応しい雄大な倉庫建築。,https://bunka.nii.ac.jp/heritage/43967/_102663/43967_102663151214162139063_300.jpg
101,00001674,北方文化博物館湯殿,ほっぽうぶんかはくぶつかんゆどの,1棟,,登録有形文化財(建造物),住宅,建築物,,明治,明治22,1889,木造平屋建、瓦葺、建築面積35㎡,,15 － 0084,24,2000.05.25(平成12.05.25),2000.04.28(平成12.04.28),,20000428,,再現することが容易でないもの,,新潟県,新潟県新潟市江南区沢海2-6970,,一般財団法人北方文化博物館,,,37.82936000000000,139.15250000000000,大広間の南東に位置し、廊下風の通路で結ばれている。寄棟造・桟瓦葺の形式で、湯殿部分と畳敷の休憩所及び手洗いからなる。小規模な建物であるが、側廻りは腰壁押さえとして網代を付け、窓に竹格子を用いるなど、内外とも数寄屋風の意匠を凝らしている。,https://bunka.nii.ac.jp/heritage/43967/_102664/43967_102664151214162139411_300.jpg
101,00001675,北方文化博物館銅門及び塀,ほっぽうぶんかはくぶつかんどうもんおよびへい,1棟,,登録有形文化財(建造物),住宅,その他工作物,,明治,明治22,1889,木造、間口2.1m、塀延長20m,,15 － 0085,24,2000.05.25(平成12.05.25),2000.04.28(平成12.04.28),,20000428,,造形の規範となっているもの,,新潟県,新潟県新潟市江南区沢海2-6970,,一般財団法人北方文化博物館,,,37.82944000000000,139.15280000000000,屋敷南東の塀と湯殿を結ぶ塀と、湯殿寄りに設けられた門。大広間の玄関前空間と庭園とを効果的に区切っている。門は間口１間の棟門形式で、庭園側に控え柱を持ち、瓦棒銅板葺の屋根は緩やかに湾曲している。門・塀とも丁寧なつくりの附属建築。,https://bunka.nii.ac.jp/heritage/43967/_102665/43967_102665151214162139771_300.jpg
101,00001676,北方文化博物館新座敷,ほっぽうぶんかはくぶつかんしんざしき,1棟,,登録有形文化財(建造物),住宅,建築物,,明治,明治22,1889,木造2階建、瓦葺、建築面積108㎡,,15 － 0086,24,2000.05.25(平成12.05.25),2000.04.28(平成12.04.28),,20000428,,造形の規範となっているもの,,新潟県,新潟県新潟市江南区沢海2-6970,,一般財団法人北方文化博物館,,,37.82958000000000,139.15180000000000,新座敷は敷地奥の西側にあり、総２階建、寄棟造・瓦葺の形式で、１階には半間幅の庇を廻す。数寄屋風をもととした意匠と造形であるが、良質の材を繊細に用い、内部の壁を落ち着いた砂漆喰仕上とするなど、同時期に建てられた主屋等とは異なる趣をみせる。,https://bunka.nii.ac.jp/heritage/43967/_102666/43967_102666151214162140132_300.jpg
101,00001677,北方文化博物館三楽亭,ほっぽうぶんかはくぶつかんさんらくてい,1棟,,登録有形文化財(建造物),住宅,建築物,,明治,明治24,1891,木造平屋建、銅板葺、建築面積38㎡,,15 － 0087,24,2000.05.25(平成12.05.25),2000.04.28(平成12.04.28),,20000428,,再現することが容易でないもの,,新潟県,新潟県新潟市江南区沢海2-6970,,一般財団法人北方文化博物館,,,37.82973000000000,139.15180000000000,主屋建設後、当主であった伊藤文吉氏が自ら設計した書斎兼茶室建築で、棟梁は主屋と同じ斉藤金蔵。１辺９メートルの三角形平面を三角形の茶室と書斎および菱形の座敷にわける。部材も三角や菱形に細工するなど、三角形を基本とした特異な造形をもつ建築。,https://bunka.nii.ac.jp/heritage/43967/_102667/43967_102667151214162140512_300.jpg
101,00001678,北方文化博物館佐度看亭,ほっぽうぶんかはくぶつかんさどかんてい,1棟,,登録有形文化財(建造物),住宅,建築物,,昭和中,昭和20代,1945-1954,木造平屋建、瓦葺、建築面積64㎡,,15 － 0088,24,2000.05.25(平成12.05.25),2000.04.28(平成12.04.28),,20000428,,造形の規範となっているもの,,新潟県,新潟県新潟市江南区沢海2-6970,,一般財団法人北方文化博物館,,,37.82909000000000,139.15200000000000,敷地の南西隅の小高い地にある佐度看亭は、字の如く佐渡島を眺望できるように建てられた数寄屋風の茶室建築。設計は廻遊式庭園をつくった庭師の田中泰阿弥。農家風の素朴な外観で、内部も巧みな梁組をみせるなど、近代の農家風和風建築の系譜に連なる。,https://bunka.nii.ac.jp/heritage/43967/_102668/43967_102668151214162141213_300.jpg
101,00001679,北方文化博物館いはのや,ほっぽうぶんかはくぶつかんいはのや,1棟,,登録有形文化財(建造物),住宅,建築物,,昭和中,昭和20代,1945-1954,木造平屋建、瓦葺、建築面積8㎡,,15 － 0089,24,2000.05.25(平成12.05.25),2000.04.28(平成12.04.28),,20000428,,造形の規範となっているもの,,新潟県,新潟県新潟市江南区沢海2-6970,,一般財団法人北方文化博物館,,,37.82906000000000,139.15220000000000,大広間の南に築かれた広大な池を持つ廻遊式庭園の南、積翠庵・是空軒と佐度看亭を結ぶ動線の中間に建っている。茶室の待合を兼ねたような小規模な建築。寄棟造の屋根は、中央桟瓦葺・周囲銅板葺の形式で、茶室の附属施設として庭園の点景にもなっている。,https://bunka.nii.ac.jp/heritage/43967/_102669/43967_102669151214162141557_300.jpg
101,00001680,北方文化博物館積翠庵・是空軒,ほっぽうぶんかはくぶつかんせきすいあん・ぜくうけん,1棟,,登録有形文化財(建造物),住宅,建築物,,昭和中,昭和25,1950,木造平屋建、茅葺一部瓦葺、建築面積41㎡,,15 － 0090,24,2000.05.25(平成12.05.25),2000.04.28(平成12.04.28),,20000428,,造形の規範となっているもの,,新潟県,新潟県新潟市江南区沢海2-6970,,一般財団法人北方文化博物館,,,37.82923000000000,139.15260000000000,大広間の南東、回遊式庭園を北に望むようにたたずんでいる。Ｌ字型の平面で、庭園側の茅葺屋根が積翠庵、東に延びる桟瓦葺部分が是空軒。設計は佐度看亭と同じ田中泰阿弥。草庵風の積翠庵と書院風の是空軒という、趣向の違った意匠を巧みにまとめた茶室建築。,https://bunka.nii.ac.jp/heritage/43967/_102670/43967_102670151214162141755_300.jpg
101,00001681,北方文化博物館帳庫,ほっぽうぶんかはくぶつかんちょうこ,1棟,,登録有形文化財(建造物),住宅,建築物,,昭和前,昭和初期,1926-1988,木造2階建、瓦葺、建築面積43㎡,,15 － 0091,24,2000.05.25(平成12.05.25),2000.04.28(平成12.04.28),,20000428,,再現することが容易でないもの,,新潟県,新潟県新潟市江南区沢海2-6970,,一般財団法人北方文化博物館,,,37.82957000000000,139.15270000000000,屋敷正面の南塀沿いにある伊藤家の家財を収納した倉庫で、昭和初期の建設と伝える。切妻造・平入で、主屋側に観音扉を設け、蔵前の庇を設ける。低い基壇上に建ち、外観は上部白漆喰、腰を海鼠壁とし、柱や梁など全体に太い部材を用い、重厚なつくりになる。,https://bunka.nii.ac.jp/heritage/43967/_102671/43967_102671151214162142116_300.jpg
101,00001682,北方文化博物館土蔵門,ほっぽうぶんかはくぶつかんどぞうもん,1棟,,登録有形文化財(建造物),住宅,建築物,,明治,明治20,1887,木造2階建、瓦葺、建築面積145㎡,,15 － 0092,24,2000.05.25(平成12.05.25),2000.04.28(平成12.04.28),,20000428,,国土の歴史的景観に寄与しているもの,,新潟県,新潟県新潟市江南区沢海2-6970,,一般財団法人北方文化博物館,,,37.82978000000000,139.15260000000000,屋敷の東正面に構えられた土蔵造の門で、総２階建、桟瓦葺、北妻側を寄棟造、南妻側は門構えを介して門土蔵と連続する。豪農としての基盤を固めつつあった時期に建設されたもので、桁行約２４ｍの長大な規模を有し、今なお地域の景観の象徴になっている。,https://bunka.nii.ac.jp/heritage/43967/_102672/43967_102672151214162142494_300.jpg
101,00001683,北方文化博物館門土蔵,ほっぽうぶんかはくぶつかんもんどぞう,1棟,,登録有形文化財(建造物),住宅,建築物,,明治,明治20,1887,木造2階建、瓦葺、建築面積46㎡,,15 － 0093,24,2000.05.25(平成12.05.25),2000.04.28(平成12.04.28),,20000428,,国土の歴史的景観に寄与しているもの,,新潟県,新潟県新潟市江南区沢海2-6970,,一般財団法人北方文化博物館,,,37.82966000000000,139.15270000000000,土蔵門の南側に連続し、外観は屋敷の東正面の構えとなっている。総２階建、桟瓦葺、南妻側を寄棟造とし、北妻側は間口３間で中央に内開扉を備えた門を備える。土蔵部分は伊藤家の漆器類を収納している。土蔵門とともに、地域の景観の象徴となっている。,https://bunka.nii.ac.jp/heritage/43967/_102673/43967_102673151214162142874_300.jpg
101,00001684,北方文化博物館井戸小屋,ほっぽうぶんかはくぶつかんいどごや,1棟,,登録有形文化財(建造物),住宅,建築物,,明治,明治18,1885,木造平屋建、瓦葺、建築面積30㎡,,15 － 0094,24,2000.05.25(平成12.05.25),2000.04.28(平成12.04.28),,20000428,,再現することが容易でないもの,,新潟県,新潟県新潟市江南区沢海2-6970,,一般財団法人北方文化博物館,,,37.82989000000000,139.15230000000000,主屋の北東に建ち、切妻造・桟瓦葺の簡素な建物。内部西よりに井戸があり、この水で洗濯等の作業が行われたといい、冬期の使用のため井戸を覆ったと思われる。当地方における豪農の生活の一端を伺い知る建築で、現在は茶坊として活用されている。,https://bunka.nii.ac.jp/heritage/43967/_102674/43967_102674151214162143434_300.jpg
101,00001685,北方文化博物館集古館,ほっぽうぶんかはくぶつかんしゅうこかん,1棟,,登録有形文化財(建造物),住宅,建築物,,明治,明治34,1901,木造2階建、瓦葺、建築面積168㎡,,15 － 0095,24,2000.05.25(平成12.05.25),2000.04.28(平成12.04.28),,20000428,,再現することが容易でないもの,,新潟県,新潟県新潟市江南区沢海2-6970,,一般財団法人北方文化博物館,,,37.82992000000000,139.15170000000000,主屋の北西にあり、大規模な切妻造・平入、置き屋根式・桟瓦葺の２階建土蔵。南面のほぼ中央を開放として、東と西にわかれる。もと米蔵で、現在は展示ギャラリーとなっている。切石積の基壇、調和のとれた海鼠壁と漆喰壁、トラス組の小屋など建築の質も高い。,https://bunka.nii.ac.jp/heritage/43967/_102675/43967_102675151214162143814_300.jpg
101,00001686,北方文化博物館旧作業場,ほっぽうぶんかはくぶつかんきゅうさぎょうば,1棟,,登録有形文化財(建造物),住宅,建築物,,明治,明治16,1883,木造平屋建、瓦葺、建築面積240㎡,,15 － 0096,24,2000.05.25(平成12.05.25),2000.04.28(平成12.04.28),,20000428,,国土の歴史的景観に寄与しているもの,,新潟県,新潟県新潟市江南区沢海2-6970,,一般財団法人北方文化博物館,,,37.83047000000000,139.15190000000000,主屋の北に位置する長大な建物。主屋建設に際して、普請用の製材のために建てられた作業所。桁行１８ｍ、南北棟の切妻造・桟瓦葺で、南面に吹放しの庇をつける。倉庫風の構造主体を持つ建築で、現在は来訪者のための売店として再利用されている。,https://bunka.nii.ac.jp/heritage/43967/_102676/43967_102676151214162144192_300.jpg
101,00001687,北方文化博物館大工場,ほっぽうぶんかはくぶつかんだいくば,1棟,,登録有形文化財(建造物),住宅,建築物,,明治,明治16,1883,木造平屋建、瓦葺、建築面積140㎡,,15 － 0097,24,2000.05.25(平成12.05.25),2000.04.28(平成12.04.28),,20000428,,国土の歴史的景観に寄与しているもの,,新潟県,新潟県新潟市江南区沢海2-6970,,一般財団法人北方文化博物館,,,37.83035000000000,139.15190000000000,屋敷の最も北に位置し、主屋等の建設や建物の補修のため、大工等が工作場として用いた。切妻造・平入、桟瓦葺、下見板壁の質素な平屋建の建物であるが、柱の立ちが高く、工作場としての用途をあらわしており、大規模屋敷の普請関係の数少ない施設。,https://bunka.nii.ac.jp/heritage/43967/_102677/43967_102677151214162144574_300.jpg
101,00001688,北方文化博物館店蔵,ほっぽうぶんかはくぶつかんみせぐら,1棟,,登録有形文化財(建造物),住宅,建築物,,明治,明治18,1885,木造平屋建、瓦葺、建築面積228㎡,,15 － 0098,24,2000.05.25(平成12.05.25),2000.04.28(平成12.04.28),,20000428,,国土の歴史的景観に寄与しているもの,,新潟県,新潟県新潟市江南区沢海2-6970,,一般財団法人北方文化博物館,,,37.83022000000000,139.15200000000000,作業所と大工場の間に位置し、大工の道具置場として用いていた。切妻造・平入、桟瓦葺、下見板壁の平屋建で、主体部を高くして南面に長い梁間の庇を設け、収蔵空間を広くとる。現在は倉庫とされているが、大工場とともに普請関係の数少ない施設。,https://bunka.nii.ac.jp/heritage/43967/_102678/43967_102678151214162144774_300.jpg
101,00001689,北方文化博物館味噌蔵,ほっぽうぶんかはくぶつかんみそぐら,1棟,,登録有形文化財(建造物),住宅,建築物,,明治,明治20,1887,木造平屋建、瓦葺、建築面積280㎡,,15 － 0099,24,2000.05.25(平成12.05.25),2000.04.28(平成12.04.28),,20000428,,再現することが容易でないもの,,新潟県,新潟県新潟市江南区沢海2-6970,,一般財団法人北方文化博物館,,,37.83015000000000,139.15230000000000,主屋北東方に建つ桁行２８ｍの真壁造で外壁の腰を簓子下見板張とした倉庫。切妻造・平屋建であるが、身舎を高く立ち上げ両側面に庇を付けて広い内部空間をつくりだし、かつては数十樽の味噌桶を貯蔵していた。現在、床を張って食堂に利用している。,https://bunka.nii.ac.jp/heritage/43967/_102679/43967_102679151214162144975_300.jpg
101,00001690,北方文化博物館刈羽民家,ほっぽうぶんかはくぶつかんかりわみんか,1棟,,登録有形文化財(建造物),住宅,建築物,,江戸,江戸後期,1751-1829,木造平屋建、茅葺、建築面積70㎡,,15 － 0100,24,2000.05.25(平成12.05.25),2000.04.28(平成12.04.28),,20000428,,造形の規範となっているもの,,新潟県,新潟県新潟市江南区沢海2-6970,,一般財団法人北方文化博物館,,,37.83005000000000,139.15260000000000,屋敷北東部にあり、柏崎市より移築した民家。３間取平面で、台所前方に厩をもつ出入口を突き出し、全体に茅葺屋根をかける。内部は天井を張らずに梁組をみせ、座敷だけを転根太床とするが、ほかはすべて土間床になり、全体に簡素で、古風な形式を伝える。,https://bunka.nii.ac.jp/heritage/43967/_102680/43967_102680151214162145168_300.jpg
101,00001691,北方文化博物館吉ヶ平民家,ほっぽうぶんかはくぶつかんよしがひらみんか,1棟,,登録有形文化財(建造物),住宅,建築物,,江戸,江戸後期,1751-1829,木造平屋建、茅葺、建築面積97㎡,,15 － 0101,24,2000.05.25(平成12.05.25),2000.04.28(平成12.04.28),,20000428,,造形の規範となっているもの,,新潟県,新潟県新潟市江南区沢海2-6970,,一般財団法人北方文化博物館,,,37.83015000000000,139.15290000000000,新潟県中東部に位置する下田村から移築した民家で、刈羽民家の南隣にある。寄棟造・茅葺に石置板葺の厩を延ばした形式である。３間取平面で、広間等を床張とし、差物や貫を多用した構造である。側廻りに建つ柱列が、雪深い地にあった民家の特徴を示している。,https://bunka.nii.ac.jp/heritage/43967/_102681/43967_102681151214162145922_300.jpg
101,00001692,北方文化博物館常盤荘,ほっぽうぶんかはくぶつかんときわそう,1棟,,登録有形文化財(建造物),住宅,建築物,,江戸,万延1,1860,木造平屋建、瓦葺、建築面積150㎡,,15 － 0102,24,2000.05.25(平成12.05.25),2000.04.28(平成12.04.28),,20000428,,造形の規範となっているもの,,新潟県,新潟県新潟市江南区沢海2-6970,,一般財団法人北方文化博物館,,,37.83037000000000,139.15270000000000,敷地北東隅にあり、床の間の板裏墨書より建立年代が判る。寄棟造・桟瓦葺・平屋建で、正面左側に切妻造の玄関を持ち、かつては離れとして使われていた。最奥を床棚付の部屋とするが、材料なども含め全体に質素で、江戸末期の住宅の様相があらわれている。,https://bunka.nii.ac.jp/heritage/43967/_102682/43967_102682151214162146266_300.jpg
101,00001693,北方文化博物館大呂菴,ほっぽうぶんかはくぶつかんだいろあん,1棟,,登録有形文化財(建造物),住宅,建築物,,昭和前,昭和2,1927,木造2階建、瓦葺、建築面積200㎡,,15 － 0103,24,2000.05.25(平成12.05.25),2000.04.28(平成12.04.28),,20000428,,国土の歴史的景観に寄与しているもの,,新潟県,新潟県新潟市江南区沢海2-6970,,一般財団法人北方文化博物館,,,37.83050000000000,139.15230000000000,敷地の北方に位置する２階建で、物見台を持つ建物。伊藤家の分家が居住した住宅。全体に各階が高く、壁面の割付や建具も縦長の長方形をモチーフにしている。地方における２階建和風住宅の様相の一端をよく示すとともに、景観の点景にもなっている。,https://bunka.nii.ac.jp/heritage/43967/_102683/43967_102683151214162146632_300.jpg
101,00001694,北方文化博物館東蔵,ほっぽうぶんかはくぶつかんひがしぐら,1棟,,登録有形文化財(建造物),住宅,建築物,,昭和前,昭和初期,1926-1988,木造2階建、瓦葺、建築面積52㎡,,15 － 0104,24,2000.05.25(平成12.05.25),2000.04.28(平成12.04.28),,20000428,,再現することが容易でないもの,,新潟県,新潟県新潟市江南区沢海2-6970,,一般財団法人北方文化博物館,,,37.83044000000000,139.15260000000000,敷地東北方、大呂庵の一画にあり、北を正面とした土蔵で、家財を収納した。２階建、切妻造・桟瓦葺で、北面に蔵前の庇を架ける。低い切石積基壇に建ち、屋根は置屋根式で、敷梁の先端を延ばして出桁を受け、深い軒をつくり、全体につくりが丁寧。,https://bunka.nii.ac.jp/heritage/43967/_102684/43967_102684151214162146987_300.jpg
101,00001695,北方文化博物館米蔵,ほっぽうぶんかはくぶつかんこめぐら,1棟,,登録有形文化財(建造物),住宅,建築物,,昭和前,昭和初期,1926-1988,木造平屋建、瓦葺、建築面積88㎡,,15 － 0105,24,2000.05.25(平成12.05.25),2000.04.28(平成12.04.28),,20000428,,再現することが容易でないもの,,新潟県,新潟県新潟市江南区沢海2-6970,,一般財団法人北方文化博物館,,,37.83038000000000,139.15210000000000,大呂庵の一画の西辺にあり、南北棟の細長の建物。梁間は短く、長い柱を用いて、高い内部空間をつくり、食料などを貯蔵していた。切妻造・桟瓦葺、東面に庇を架け、腰部を厚めの横板張りとした真壁造で、片引戸を２箇所設けるなど、用途に適った形態をもつ。,https://bunka.nii.ac.jp/heritage/43967/_102685/43967_102685151214162147174_300.jpg
101,00001696,北方文化博物館塀,ほっぽうぶんかはくぶつかんへい,1棟,,登録有形文化財(建造物),住宅,その他工作物,,明治,明治20頃,1887頃,木造、瓦葺、延長211m,,15 － 0106,24,2000.05.25(平成12.05.25),2000.04.28(平成12.04.28),,20000428,,国土の歴史的景観に寄与しているもの,,新潟県,新潟県新潟市江南区沢海2-6970,,一般財団法人北方文化博物館,,,37.82901000000000,139.15200000000000,屋敷の周囲を取り囲む真壁造の塀で、外側は腰を簓子下見板張、小壁を砂漆喰とし、所々に連子窓を設ける。塀の外周には今も幅広い濠が部分的に残っており、濠の石垣や屋敷内の樹木などと一体となって、豪農の館に相応しい景観をつくりだしている。,https://bunka.nii.ac.jp/heritage/43967/_102686/43967_102686151214162147369_300.jpg
101,00001905,西永寺本堂,さいえいじほんどう,1棟,,登録有形文化財(建造物),宗教,建築物,,江戸,嘉永1,1848,木造平屋建、鉄板葺、建築面積480㎡,,15 － 0107,26,2000.11.06(平成12.11.06),2000.10.18(平成12.10.18),,20001018,,造形の規範となっているもの,,新潟県,新潟県十日町市上野甲87-8,,宗教法人西永寺,,,37.17836000000000,138.74630000000000,信濃川左岸近くに位置する真宗本堂で，天保６年焼失後の再建になる。棟梁は柏崎の篠田總吉。間口約１９ｍ，入母屋造，平入，向拝１間のやや規模の大きな本堂で，もと茅葺の急勾配屋根をあげる。平面・構造は真宗寺院の法式に則り，内外の彫刻が特に優れる。,https://bunka.nii.ac.jp/heritage/43967/_102895/43967_102895111225012334369_300.jpg
101,00001906,西永寺経蔵,さいえいじきょうぞう,1棟,,登録有形文化財(建造物),宗教,建築物,,江戸,嘉永1頃,1848頃,土蔵造平屋建、鉄板葺、建築面積13㎡,,15 － 0108,26,2000.11.06(平成12.11.06),2000.10.18(平成12.10.18),,20001018,,造形の規範となっているもの,,新潟県,新潟県十日町市上野甲87-8,,宗教法人西永寺,,,37.17834000000000,138.74670000000000,本堂前方の左手に位置し，ほぼ北面して建つ。本堂と同時期の再建とみられる。土蔵造，方２間，切妻造，妻入，もと板葺で，正面に切妻造の向拝を付ける。内部は，円柱２本と組物とで仏壇を構え，仏壇両脇から両側面に経棚を配するなど本格的な造りになる。,https://bunka.nii.ac.jp/heritage/43967/_102896/43967_102896111225012334858_300.jpg
101,00001907,西永寺鐘楼,さいえいじしょうろう,1棟,,登録有形文化財(建造物),宗教,建築物,,江戸,嘉永1頃,1848頃,木造平屋建、鉄板葺、建築面積9.2㎡,,15 － 0109,26,2000.11.06(平成12.11.06),2000.10.18(平成12.10.18),,20001018,,国土の歴史的景観に寄与しているもの,,新潟県,新潟県十日町市上野甲87-8,,宗教法人西永寺,,,37.17847000000000,138.74680000000000,経蔵の北方，境内に入って直ぐ左手に位置し，高い基壇上に建つ。本堂と同時期の再建とみられる。切妻造，平入，もと茅葺で，４本角柱を内転びに建て，梁中央に載せた地棟状の横架材に鐘を吊す。今も毎日午前１１時に時を告げていることで親しまれている。,https://bunka.nii.ac.jp/heritage/43967/_102897/43967_102897111225012335385_300.jpg
101,00001908,西永寺庫裏及び廊下,さいえいじくりおよびろうか,1棟,,登録有形文化財(建造物),宗教,建築物,,江戸,嘉永元年頃,1848頃,木造2階建、鉄板葺、建築面積284㎡,,15 － 0110,26,2000.11.06(平成12.11.06),2000.10.18(平成12.10.18),,20001018,,造形の規範となっているもの,,新潟県,新潟県十日町市上野甲87-8,,宗教法人西永寺,,,37.17857000000000,138.74630000000000,本堂の北方に建ち，本堂と廊下で結ばれる。本堂と同時期の再建とみられ，庫裏は，切妻造，妻入で，本堂と同様に正面を東にとる。外装，内部は大きく改変を受けてはいるが，庫裏の書院座敷などは当初の型式と格式をよく残す。,https://bunka.nii.ac.jp/heritage/43967/_102898/43967_102898111225012336653_300.jpg
101,00001909,西永寺六和亭（旧永徳寺本堂）,,1棟,,登録有形文化財(建造物),宗教,建築物,,江戸,安政4,1857,木造平屋建、鉄板葺、建築面積34㎡,,15 － 0111,26,2000.11.06(平成12.11.06),2000.10.18(平成12.10.18),,20001018,,造形の規範となっているもの,,新潟県,新潟県十日町市上野甲87-8,,宗教法人西永寺,,,37.17874000000000,138.74650000000000,庫裏の前方に西面して建つ。もと境内に在った別の寺院本堂で，昭和１０年代に廃寺となった後，現在地に移築された。正面２間半，奥行４間の寄棟造，妻入で，内部は内陣，外陣に分かれ，梁などに絵様を彫るなど小規模ながら整った御堂になる。,https://bunka.nii.ac.jp/heritage/43967/_102899/43967_102899111225012337170_300.jpg
101,00002229,板垣工務店温出保養所主屋,いたがきこうむてんぬくいでほようじょしゅおく,1棟,,登録有形文化財(建造物),住宅,建築物,,明治,明治17,1884,木造平屋建、茅葺、建築面積226㎡,,15 － 0112,29,2001.09.14(平成13.09.14),2001.08.28(平成13.08.28),,20010828,,国土の歴史的景観に寄与しているもの,,新潟県,新潟県村上市温出289-1,,富樫正二郎,,,38.51422000000000,139.55240000000000,県北，山北町北部を西流する小俣川沿いの温出地区に位置する。六間取形式の寄棟造，茅葺民家で，農村集落景観の主要な構成要素となる。もと本間家の住宅と伝えるが，現在は新発田市の工務店が取得し，同社の福利厚生施設として整備され有効に活用されている。,https://bunka.nii.ac.jp/heritage/43967/_103219/43967_103219111225012657080_300.jpg
101,00002230,板垣工務店温出保養所倉庫,いたがきこうむてんぬくいでほようしょそうこ,1棟,,登録有形文化財(建造物),住宅,建築物,,明治,明治前期,1868-1911,土蔵造2階建、瓦葺、建築面積83㎡,,15 － 0113,29,2001.09.14(平成13.09.14),2001.08.28(平成13.08.28),,20010828,,再現することが容易でないもの,,新潟県,新潟県村上市温出289-1,,富樫正二郎,,,38.51403000000000,139.55240000000000,主屋の南方に北面して建つ。切妻造，桟瓦葺の平入２階建土蔵で，外部は押縁下見で覆い，北面に桟瓦葺の庇を架け，３戸前とする。内部も３室に仕切り，西端の２階に座敷を設ける。出入口は漆喰塗の観音扉で，まぐさ部に龍などの精巧な鏝絵を施す。,https://bunka.nii.ac.jp/heritage/43967/_103220/43967_103220111225012657580_300.jpg
101,00002534,諸橋家住宅主屋,もろはしけじゅうたくしゅおく,1棟,,登録有形文化財(建造物),住宅,建築物,,大正,大正10頃,1921頃,木造平屋建、瓦葺、建築面積277㎡,,15 － 0114,31,2001.12.04(平成13.12.04),2001.11.20(平成13.11.20),,20011120,,造形の規範となっているもの,,新潟県,新潟県新潟市江南区茗荷谷410,,,,,37.88076000000000,139.13560000000000,地元で屈指の大農家の主屋で，ニワ部分を前方に突出させた中門造の平面形式をもつ。勾配の緩い桟瓦葺屋根の外観は質素だが，内部では表側に一列に並ぶ座敷の柱，長押，差鴨居などに良材を用い，古材の梁を転用した架構を現すなど，意匠的に凝った造りになる。,https://bunka.nii.ac.jp/heritage/43967/_103524/43967_103524111225013000994_300.jpg
101,00002535,諸橋家住宅土蔵,もろはしけじゅうたくどぞう,1棟,,登録有形文化財(建造物),住宅,建築物,,明治,明治38,1905,土蔵造平屋建、瓦葺、建築面積25㎡,,15 － 0115,31,2001.12.04(平成13.12.04),2001.11.20(平成13.11.20),,20011120,,国土の歴史的景観に寄与しているもの,,新潟県,新潟県新潟市江南区茗荷谷410,,,,,37.88057000000000,139.13570000000000,主屋の南に北面して建つ。切妻造，平入，置屋根形式，桟瓦葺で，戸口に幅２間の下屋を付す。内部は桁行に２分して米蔵と物置蔵とする。外部は真壁として，腰部下見板張の上に半間毎に立つ柱を見せる一方で，漆喰塗込の軒蛇腹を付して変化に富んだ構成になる。,https://bunka.nii.ac.jp/heritage/43967/_103525/43967_103525111225013001517_300.jpg
101,00002624,大河津分水洗堰,おおかわづぶんすいせんせき,1基,,登録有形文化財(建造物),治山治水,土木構造物,,大正,大正11,1922,鉄筋コンクリート造、27門、延長146m、管理橋1基及び門扉27枚付,,15 － 0116,32,2002.03.12(平成14.03.12),2002.02.14(平成14.02.14),,20020214,,国土の歴史的景観に寄与しているもの,,新潟県,新潟県燕市大川津字井戸下地先,,国（国土交通省）,,,37.60914000000000,138.84120000000000,越後平野を水害から守るため，放水路と共に信濃川の河口から約６０km地点に築かれた堰。堰柱２６基が連なる延長約１４６ｍの大規模なＲＣ造構造物で，本川への流量を調節する。内務省直轄の信濃川改修工事の代表的遺構の一つで，我が国最初の本格的ＲＣ造堰。,https://bunka.nii.ac.jp/heritage/43967/_103614/43967_103614111225013103042_300.jpg
101,00002760,星名家住宅雪穴,ほしなけじゅうたくゆきあな,1基,,登録有形文化財(建造物),産業2次,その他工作,,江戸,江戸期,1615-1867,石造、面積36㎡、深さ3m,,15 － 0117,33,2002.07.16(平成14.07.16),2002.06.25(平成14.06.25),,20020625,,再現することが容易でないもの,,新潟県,新潟県十日町市上野甲822-3,,,,,37.17923000000000,138.74990000000000,市東部，国道２５２号に隣接する雑木林の中にある石造構造物。雪季の積雪を保存し，主に酒造関連の冷蔵所として利用された。法面勾配３分程の玉石乱積壁面を一辺５ｍ程の正方形平面に築き，西壁面に階段を付ける。かつての酒造システムを今に伝える遺構。,https://bunka.nii.ac.jp/heritage/43967/_103750/43967_103750111225013228287_300.jpg
101,00002900,飯田家住宅土蔵,いいだけじゅうたくどぞう,1棟,,登録有形文化財(建造物),住宅,建築物,,明治,明治22,1889,土蔵造2階建、瓦葺、建築面積46㎡,,15 － 0118,34,2002.09.03(平成14.09.03),2002.08.21(平成14.08.21),,20020821,,造形の規範となっているもの,,新潟県,新潟県新潟市西区内野町1088,,,,,37.85597000000000,138.93630000000000,新潟市内の西方に所在する商家の土蔵で，主屋等の後方，路地沿に建つ。木造・２階建，切妻造・桟瓦葺，庇付，平入の土蔵造で，戸口に観音扉を用いる。棟札から地元の棟梁の作と判明するが，１尺毎に柱を立てて，その間に金物を用いた壁構造に特色がある。,https://bunka.nii.ac.jp/heritage/43967/_103890/43967_103890111225013349685_300.jpg
101,00002901,木地屋民俗資料館,きじやみんぞくしりょうかん,1棟,,登録有形文化財(建造物),住宅,建築物,,江戸,江戸末期／平成8移築,1830-1867／1996移築,木造2階建、鉄板葺、建築面積123㎡,,15 － 0119,34,2002.09.03(平成14.09.03),2002.08.21(平成14.08.21),,20020821,,造形の規範となっているもの,,新潟県,新潟県糸魚川市大字大所797-1,,糸魚川市,,,36.87496000000000,137.83070000000000,江戸末期に飛騨から移住した木地師集落にある民家。集落内で移建し，民俗資料館として活用している。寄棟造・もと茅葺で手斧梁の梁組や小屋の叉首組など一般の農家と同様であるが，内部は茶の間を除いて作業場等とした２階床があり，高い外壁に特色がある。,https://bunka.nii.ac.jp/heritage/43967/_103891/43967_103891111225013351152_300.jpg
101,00002902,蓮華峰寺大門,れんげぶじおおもん,1対,,登録有形文化財(建造物),宗教,その他工作,,昭和前,昭和3,1928,石造、高さ3.7m,,15 － 0120,34,2002.09.03(平成14.09.03),2002.08.21(平成14.08.21),,20020821,,国土の歴史的景観に寄与しているもの,,新潟県,新潟県佐渡市小比叡,,宗教法人小比叡山蓮華峰寺,,,37.83562000000000,138.28770000000000,蓮華峰寺は佐渡島にある真言宗の古刹である。大門は切石を積み上げた高さ約三．七メートルの東西一対の石柱で，西側の石柱に「昭和三年八月一日　青柳貞秀建之」の刻銘がある。北からの参道の入口にあり，寺の入口を示すランドマークとして親しまれている。,https://bunka.nii.ac.jp/heritage/43967/_103892/43967_103892111225013351923_300.jpg
101,00002903,蓮華峰寺地蔵堂,れんげぶじじぞうどう,1棟,,登録有形文化財(建造物),宗教,建築物,,明治,明治26,1893,木造平屋建、瓦葺、建築面積29㎡,,15 － 0121,34,2002.09.03(平成14.09.03),2002.08.21(平成14.08.21),,20020821,,国土の歴史的景観に寄与しているもの,,新潟県,新潟県佐渡市小比叡,,宗教法人小比叡山蓮華峰寺,,,37.83591000000000,138.28850000000000,金堂東方にある末寺宝積院の本堂で，佐渡四国古遍路第一番札所。建物は正面３間，側面３間，屋根宝形造，桟瓦葺で，背面軒下に仏壇を張り出す。棟札により明治２６年の建築が明らかである。蓮華峰寺伽藍及び地方の札所を構成する要素として親しまれている。,https://bunka.nii.ac.jp/heritage/43967/_103893/43967_103893111225013352455_300.jpg
101,00002904,蓮華峰寺仁王門,れんげぶじにおうもん,1棟,,登録有形文化財(建造物),宗教,その他工作,,江戸,文政5,1822,木造平屋建、瓦葺、建築面積19㎡,,15 － 0122,34,2002.09.03(平成14.09.03),2002.08.21(平成14.08.21),,20020821,,造形の規範となっているもの,,新潟県,新潟県佐渡市小比叡,,宗教法人小比叡山蓮華峰寺,,,37.83586000000000,138.28800000000000,金堂東南にある東を正面とする八脚門で両脇間後方に金剛力士を収める。入母屋造桟瓦葺で総円柱，組物二手先の格式の高い細部を持つ。石製の礎盤１２個にはそれぞれ寄進者の名前が刻まれており，崇敬を集めた様子が偲ばれる。,https://bunka.nii.ac.jp/heritage/43967/_103894/43967_103894111225013352720_300.jpg
101,00002905,蓮華峰寺経蔵,れんげぶじきょうぞう,1棟,,登録有形文化財(建造物),宗教,建築物,,江戸,江戸中期,1661-1750,土蔵造平屋建、瓦葺、建築面積34㎡,,15 － 0124,34,2002.09.03(平成14.09.03),2002.08.21(平成14.08.21),,20020821,,造形の規範となっているもの,,新潟県,新潟県佐渡市小比叡,,宗教法人小比叡山蓮華峰寺,,,37.83604000000000,138.28780000000000,鐘楼堂北側に建つ切妻造，桟瓦葺，妻入の土蔵で，正面に１間の向拝を付ける。内部は板張で，化粧棟木に半間毎の化粧垂木をあらわす。向拝細部の様式から江戸時代中期の建築と見られ，近世寺院に見られる土蔵造経蔵の好例である。,https://bunka.nii.ac.jp/heritage/43967/_103895/43967_103895111225013353234_300.jpg
101,00002906,蓮華峰寺八角堂,れんげぶじはっかくどう,1棟,,登録有形文化財(建造物),宗教,建築物,,江戸,江戸中期,1661-1750,木造平屋建、銅板葺、建築面積10㎡,,15 － 0125,34,2002.09.03(平成14.09.03),2002.08.21(平成14.08.21),,20020821,,再現することが容易でないもの,,新潟県,新潟県佐渡市小比叡,,宗教法人小比叡山蓮華峰寺,,,37.83633000000000,138.28830000000000,経蔵北側に建つ銅板葺の八角円堂。江戸時代中期の建築と見られ，内部は柱間毎の三角形の小室に分かれ，それぞれに宮殿を収める。軒の組物は絵様肘木や彫刻を多用した三手先で，全体で雲中の竜を表現するなど異色の造形を持つ。,https://bunka.nii.ac.jp/heritage/43967/_103896/43967_103896111225013354502_300.jpg
101,00002907,蓮華峰寺八祖堂,れんげぶじはっそどう,1棟,,登録有形文化財(建造物),宗教,建築物,,江戸,江戸中期,1661-1750,木造平屋建、銅板葺、建築面積29㎡,,15 － 0126,34,2002.09.03(平成14.09.03),2002.08.21(平成14.08.21),,20020821,,再現することが容易でないもの,,新潟県,新潟県佐渡市小比叡,,宗教法人小比叡山蓮華峰寺,,,37.83649000000000,138.28790000000000,金堂北側の丘の上に立つ入母屋造，茅葺形銅板葺の三間堂。組物を異例の五手先とするため，茅葺形と相俟って特に屋根の大きい印象を受ける。内部も虹梁や太瓶束等からなる架構を見せ，全体に彩色を施した迫力のあるもので，八角堂とともに異色の造形を持つ。,https://bunka.nii.ac.jp/heritage/43967/_103897/43967_103897111225013355024_300.jpg
101,00002908,蓮華峰寺東照宮,れんげぶじとうしょうぐう,1棟,,登録有形文化財(建造物),宗教,建築物,,江戸,江戸中期,1661-1750,木造平屋建、柿葺、建築面積3.5㎡,,15 － 0127,34,2002.09.03(平成14.09.03),2002.08.21(平成14.08.21),,20020821,,再現することが容易でないもの,,新潟県,新潟県佐渡市小比叡,,宗教法人小比叡山蓮華峰寺,,,37.83655000000000,138.28820000000000,八角堂北側の覆屋内に台徳院霊屋と東照宮が左右に並んで建つ。東照宮はこけら葺の一間社で，軸部の外部全体を彫刻，彩色で埋め，組物を三手先とし，軒も彫刻付きの板軒（二軒）とするなど，豪華な仕様を採る。彫刻絵様から江戸時代中期の建築と見られる。,https://bunka.nii.ac.jp/heritage/43967/_103898/43967_103898111225013355801_300.jpg
101,00002909,蓮華峰寺台徳院御霊屋,れんげぶじだいとくいんおたまや,1棟,,登録有形文化財(建造物),宗教,建築物,,江戸,江戸中期,1661-1750,木造平屋建、柿葺、建築面積3.6㎡,,15 － 0128,34,2002.09.03(平成14.09.03),2002.08.21(平成14.08.21),,20020821,,再現することが容易でないもの,,新潟県,新潟県佐渡市小比叡,,宗教法人小比叡山蓮華峰寺,,,37.83664000000000,138.28810000000000,台徳院御霊屋は，東照宮と同じくこけら葺の一間社であるが，東照宮は屋根が入母屋造であるのに対し，切妻造妻入である。軸部や軒の彫刻や彩色，組物の形式等は東照宮と同様で，同時期に建てられたと見られる。小規模ながら精緻な技巧を凝らし，残りも良い。,https://bunka.nii.ac.jp/heritage/43967/_103899/43967_103899111225013356314_300.jpg
101,00002910,蓮華峰寺御霊屋覆屋,れんげぶじおたまやおおいや,1棟,,登録有形文化財(建造物),宗教,建築物,,大正,大正期,1912-1925,木造平屋建、瓦葺、建築面積72㎡,,15 － 0129,34,2002.09.03(平成14.09.03),2002.08.21(平成14.08.21),,20020821,,国土の歴史的景観に寄与しているもの,,新潟県,新潟県佐渡市小比叡,,宗教法人小比叡山蓮華峰寺,,,37.83656000000000,138.28820000000000,東照宮と台徳院御霊屋の覆屋で，切妻造桟瓦葺。側背面三方は板壁で，現状は正面も格子窓付きの板壁で閉ざすが，これは最近のもので，もとは正面開放であった。先々代住職が大正期に建てたと伝える。御霊屋とともに保存を図る。,https://bunka.nii.ac.jp/heritage/43967/_103900/43967_103900111225013357677_300.jpg
101,00002911,蓮華峰寺無明橋,れんげぶじむみょうばし,1基,,登録有形文化財(建造物),宗教,土木構造物,,江戸,江戸後期,1751-1829,石造桁橋、橋長4.1m、幅員1.6m,,15 － 0130,34,2002.09.03(平成14.09.03),2002.08.21(平成14.08.21),,20020821,,造形の規範となっているもの,,新潟県,新潟県佐渡市小比叡,,宗教法人小比叡山蓮華峰寺,,,37.83660000000000,138.28710000000000,奥院弘法堂に至る参道にある石造桁橋。寛政１２年(１８００)の資料に「奥之院御廟之橋」として出てくる。反りをもち、中央の橋脚上の桁受で３筋の橋桁を受ける構造で，３６枚の橋板裏にそれぞれ梵字を刻む。意匠だけでなく技法にも見るべきものがある。,https://bunka.nii.ac.jp/heritage/43967/_103901/43967_103901111225013357907_300.jpg
101,00002912,蓮華峰寺密厳堂,れんげぶじみつげんどう,1棟,,登録有形文化財(建造物),宗教,建築物,,江戸,天保15,1844,木造平屋建、瓦葺、建築面積29㎡,,15 － 0131,34,2002.09.03(平成14.09.03),2002.08.21(平成14.08.21),,20020821,,造形の規範となっているもの,,新潟県,新潟県佐渡市小比叡,,宗教法人小比叡山蓮華峰寺,,,37.83627000000000,138.28720000000000,金堂西方に建つ三間堂で，佐渡四国六番札所。宝形造桟瓦葺で，前面に一間向拝を付ける。天保１５年の建築と伝え，小規模な堂であるが組物を出組とし，内部の支輪等に彫刻をあしらうなど，密度の高い仕事である。,https://bunka.nii.ac.jp/heritage/43967/_103902/43967_103902111225013358419_300.jpg
101,00002913,蓮華峰寺唐門,れんげぶじからもん,1棟,,登録有形文化財(建造物),宗教,その他工作,,江戸,江戸中期,1661-1750,木造平屋建、瓦葺、建築面積8.54㎡,,15 － 0132,34,2002.09.03(平成14.09.03),2002.08.21(平成14.08.21),,20020821,,造形の規範となっているもの,,新潟県,新潟県佐渡市小比叡,,宗教法人小比叡山蓮華峰寺,,,37.83499000000000,138.28800000000000,金堂前庭と庫裏客殿の一郭を分ける四脚門で，唐破風はない。親柱を棟木近くまで立ち上げ，側柱とは海老虹梁で繋ぐ禅宗様四脚門の様式で，様式上江戸時代中期の建築と見られる。親柱筋の中央上部には成の高い蟇股を入れるなど雄大な意匠を見せる。,https://bunka.nii.ac.jp/heritage/43967/_103903/43967_103903111225013358933_300.jpg
101,00002914,蓮華峰寺客殿,れんげぶじきゃくでん,1棟,,登録有形文化財(建造物),宗教,建築物,,明治,明治42,1909,木造平屋建、瓦葺、建築面積396㎡,,15 － 0133,34,2002.09.03(平成14.09.03),2002.08.21(平成14.08.21),,20020821,,造形の規範となっているもの,,新潟県,新潟県佐渡市小比叡,,宗教法人小比叡山蓮華峰寺,,,37.83539000000000,138.28800000000000,金堂南方にあり，前身客殿が明治３０年の水害で倒壊した後に建てられた。桁行２４．６メートル，梁間１６．１メートルの山内最大の建築で内部は８室構成で，それと矩の手に巡る広縁からなる。近代の大規模客殿として評価できる。,https://bunka.nii.ac.jp/heritage/43967/_103904/43967_103904111225013359449_300.jpg
101,00002915,蓮華峰寺護摩堂,れんげぶじごまどう,1棟,,登録有形文化財(建造物),宗教,建築物,,江戸,元禄3,1690,木造平屋建、瓦葺、建築面積40㎡,,15 － 0134,34,2002.09.03(平成14.09.03),2002.08.21(平成14.08.21),,20020821,,造形の規範となっているもの,,新潟県,新潟県佐渡市小比叡,,宗教法人小比叡山蓮華峰寺,,,37.83560000000000,138.28790000000000,客殿北側に渡り廊下で接続する入母屋造妻入，桟瓦葺の三間堂。棟札によって元禄３年の建築年代が判明する。組物を出組とし，軒を二軒繁垂木とする。蓮華峰寺の三間堂の中では年代的にも技法的にも中庸を占めるものである。,https://bunka.nii.ac.jp/heritage/43967/_103905/43967_103905111225013359961_300.jpg
101,00002916,蓮華峰寺独鈷堂,れんげぶじどっこどう,1棟,,登録有形文化財(建造物),宗教,その他工作,,江戸,元和8,1622,石造平屋建、石葺、建築面積3.0㎡,,15 － 0135,34,2002.09.03(平成14.09.03),2002.08.21(平成14.08.21),,20020821,,造形の規範となっているもの,,新潟県,新潟県佐渡市小比叡,,宗教法人小比叡山蓮華峰寺,,,37.83570000000000,138.28660000000000,金堂前庭から西の谷を分け入った奥にある泉の傍に建つ切妻造妻入の石祠。昭和５４年に水害で倒壊し修理されているが，この時に採用されなかった部材に元和八年の刻銘がある。正面を三間に割り，石棟の両端には鬼面を現わすなど，丁寧な仕事を見せる。,https://bunka.nii.ac.jp/heritage/43967/_103906/43967_103906111225013401378_300.jpg
101,00003075,吉田家住宅主屋,よしだけじゅうたくしゅおく,1棟,,登録有形文化財(建造物),住宅,建築物,,明治,明治16,1883,木造平屋一部2階建、瓦葺、建築面積306㎡,,15 － 0136,35,2003.02.26(平成15.02.26),2003.01.31(平成15.01.31),,20030131,,造形の規範となっているもの,,新潟県,新潟県新潟市秋葉区大鹿624,,,,,37.79499000000000,139.09780000000000,吉田東伍を婿養子として迎えるに当たって新築と伝える。街道に北妻面を見せたアズマダチ風民家で，東北部に切妻屋根を架けて平側に玄関を設けている点に特徴。たちの高い１５畳広間の北に土間，南に座敷と土縁を配す。棟札から「工匠若木善次郎」が判明する。,https://bunka.nii.ac.jp/heritage/43967/_104065/43967_104065111225013535653_300.jpg
101,00003076,吉田家住宅座敷棟,よしだけじゅうたくざしきとう,1棟,,登録有形文化財(建造物),住宅,建築物,,大正,大正13頃,1924頃,木造平屋建、瓦葺、建築面積61㎡,,15 － 0137,35,2003.02.26(平成15.02.26),2003.01.31(平成15.01.31),,20030131,,造形の規範となっているもの,,新潟県,新潟県新潟市秋葉区大鹿624,,,,,37.79501000000000,139.09760000000000,東伍の没後，妻の帰郷に際しての改築と伝える。主屋の西南方に南北棟で建つ。切妻造，桟瓦葺の平屋建で，東面の縁側に沿って８畳２室の座敷を並べ，その南北に５畳大の小間を配する。南小間の西端に４畳大を張出して「神壇」を設けているところに特徴がある。,https://bunka.nii.ac.jp/heritage/43967/_104066/43967_104066111225013536979_300.jpg
101,00003077,吉田家住宅土蔵,よしだけじゅうたくどぞう,1棟,,登録有形文化財(建造物),住宅,建築物,,明治,明治初期,1868-1911,木造2階建、瓦葺、建築面積58㎡,,15 － 0138,35,2003.02.26(平成15.02.26),2003.01.31(平成15.01.31),,20030131,,国土の歴史的景観に寄与しているもの,,新潟県,新潟県新潟市秋葉区大鹿624,,,,,37.79482000000000,139.09780000000000,主屋の南方に東西棟で建つ。桁行２間半梁間１間半規模，切妻造，桟瓦葺の２階建で，屋根は置屋根とする。当地方の土蔵に見られる外部に柱を表した造りになる。信濃川と阿賀野川に挟まれた地に位置するため，１ｍ程の土盛の上に建ち，「水倉」と呼ばれている。&nbsp;,https://bunka.nii.ac.jp/heritage/43967/_104067/43967_104067111225013537497_300.jpg
101,00003078,益甚酒店店舗,ますじんさけてんてんぽ,1棟,,登録有形文化財(建造物),産業3次,建築物,,昭和前,昭和9,1934,木造2階建、瓦葺、建築面積114㎡,,15 － 0139,35,2003.02.26(平成15.02.26),2003.01.31(平成15.01.31),,20030131,,造形の規範となっているもの,,新潟県,新潟県村上市大町194,,,,,38.22421000000000,139.47860000000000,旧村上城下町人地の中心的通りに西面して建つ。南北棟，切妻造，桟瓦葺，平入の２階建店舗で，間口は５間半とし，１階店舗の奥に平屋建の１２畳と通り土間が付属し，２階は６畳６畳８畳の３室が並ぶ。たちの高いつくりが昭和初期町家の特徴をよく示している。,https://bunka.nii.ac.jp/heritage/43967/_104068/43967_104068111225013538022_300.jpg
101,00003079,益甚酒店主屋及び酒蔵,ますじんさけてんしゅおくおよびさかぐら,1棟,,登録有形文化財(建造物),産業2次,建築物,,明治,明治25,1892,木造2階建、瓦葺、建築面積386㎡,,15 － 0140,35,2003.02.26(平成15.02.26),2003.01.31(平成15.01.31),,20030131,,国土の歴史的景観に寄与しているもの,,新潟県,新潟県村上市大町194,,,,,38.22414000000000,139.47890000000000,店舗奥１２畳間の東方に続く主屋と，その東方に建つ酒造場及び北方の麹室から成る。主屋は棟札から棟梁は稲垣源太郎で，明治２５年の大火直後の建築であることが知られる。店舗脇から望見される間口９間半の西妻面は大火後大町の復興景観の一端を今に伝える。,https://bunka.nii.ac.jp/heritage/43967/_104069/43967_104069111225013538282_300.jpg
101,00003080,益甚酒店土蔵,ますじんさけてんどぞう,1棟,,登録有形文化財(建造物),住宅,建築物,,明治,明治25頃,1892頃,木造2階建、瓦葺、建築面積46㎡,,15 － 0141,35,2003.02.26(平成15.02.26),2003.01.31(平成15.01.31),,20030131,,国土の歴史的景観に寄与しているもの,,新潟県,新潟県村上市大町194,,,,,38.22401000000000,139.47900000000000,酒蔵の南東方に東西棟で建つ。桁行４間梁間３間半規模，切妻造，桟瓦葺の２階建土蔵で，西妻面に入口と窓，南面に窓を開け，高い縦板張の腰の上部を真壁風に仕上げる。道具蔵で，明治４２年，主人益田甚太郎が主屋，酒造器械一式とともに買い受けたとされる。,https://bunka.nii.ac.jp/heritage/43967/_104070/43967_104070111225013538777_300.jpg
101,00003081,吉川家住宅店舗,きっかわけじゅうたくてんぽ,1棟,,登録有形文化財(建造物),産業3次,建築物,,明治,明治25頃,1892頃,木造2階建、瓦葺、建築面積37㎡,,15 － 0142,35,2003.02.26(平成15.02.26),2003.01.31(平成15.01.31),,20030131,,国土の歴史的景観に寄与しているもの,,新潟県,新潟県村上市大町195,,,,,38.22432000000000,139.47860000000000,村上城下旧町人地の中心的通りに面して建つ。桁行２間半梁間４間半規模，南北棟，切妻造，桟瓦葺の町家で，明治２５年の大火後の再建と伝える。近年，北側の増築に際してファサードが伝統的意匠に改装され，大町通りの街路景観整備の核的存在となっている。,https://bunka.nii.ac.jp/heritage/43967/_104071/43967_104071140930093233620_300.jpg
101,00003083,旧第四銀行村上支店長住宅主屋,きゅうだいしぎんこうむらかみしてんちょうじゅうたくしゅおく,1棟,,登録有形文化財(建造物),住宅,建築物,,昭和前,昭和11,1936,木造2階建、瓦葺、建築面積108㎡,,15 － 0144,35,2003.02.26(平成15.02.26),2003.01.31(平成15.01.31),,20030131,,造形の規範となっているもの,,新潟県,新潟県村上市小町1358-2,,,,,38.22568186000000,139.47814424000000,村上信用組合理事長宅として建設。たちの高い入母屋造，桟瓦葺の木造２階建，起り破風車寄玄関付，外部簓子下見の和風住宅で，内部は黒柿等の銘木を用い，床飾りや建具も凝った造作になる。棟札から菅原建吉の設計，大工棟梁飯田文次郎が判明している。,https://bunka.nii.ac.jp/heritage/43967/_104073/43967_104073151094518403893_300.jpg
101,00003212,万内川一号堰堤,ばんないがわいちごうえんてい,1基,,登録有形文化財(建造物),治山治水,土木構造物,,大正,大正10頃／昭和8頃改造,1921頃／1933頃改造,重力式コンクリート造堰堤、堤長43m、堤高5.0m、下流両側護岸及び副堰堤付,,15 － 0145,36,2003.04.08(平成15.04.08),2003.03.18(平成15.03.18),,20030318,,国土の歴史的景観に寄与しているもの,,新潟県,新潟県妙高市大字西野谷,,新潟県,,,37.01352000000000,138.17740000000000,一級河川関川水系万内川の中流域に位置する。下流側法勾配３分とし，同時期に建設された万内川他砂防施設と比べ緩勾配かつ厚めの天端幅をとり全体として堅固なつくりとする。副堰堤，護岸が良好に残存。粗石コンクリート造の砂防堰堤として我が国初期の事例。,https://bunka.nii.ac.jp/heritage/43967/_104202/43967_104202111225013708736_300.jpg
101,00003213,万内川三号堰堤,ばんないがわさんごうえんてい,1基,,登録有形文化財(建造物),治山治水,土木構造物,,大正,大正11頃,1922頃,重力式石造堰堤、堤長35m、堤高2.0m,,15 － 0146,36,2003.04.08(平成15.04.08),2003.03.18(平成15.03.18),,20030318,,国土の歴史的景観に寄与しているもの,,新潟県,新潟県妙高市大字西野谷,,新潟県,,,37.01409000000000,138.17540000000000,万内川砂防工事は，明治３５年の粟立山崩壊以降増大した流出土砂を防ぐために新潟県で実施された最初の砂防事業で，県の国庫補助事業として進められた。三号堰堤は，当初空積の堤体を昭和初期に練積で補強しており，右岸側堤長を長くとるのが特徴。,https://bunka.nii.ac.jp/heritage/43967/_104203/43967_104203111225013709002_300.jpg
101,00003214,万内川四号堰堤,ばんないがわよんごうえんてい,1基,,登録有形文化財(建造物),治山治水,土木構造物,,大正,大正11頃,1922頃,重力式石造及びコンクリート造堰堤、堤長26m、堤高4.0m、下流両側護岸及び副堰堤付,,15 － 0147,36,2003.04.08(平成15.04.08),2003.03.18(平成15.03.18),,20030318,,国土の歴史的景観に寄与しているもの,,新潟県,新潟県妙高市大字西野谷,,新潟県,,,37.01457000000000,138.17380000000000,万内川中流域に位置する。上流側法勾配１分，下流側法勾配２分とした小勾配の重力式堰堤で，前面に副堰堤を設け，その間を石張水叩きと右岸側を曲線状とする石積護岸で繋げる。小規模ながら渓岸渓床の安定に寄与し，周辺の緑化を促している。,https://bunka.nii.ac.jp/heritage/43967/_104204/43967_104204111225013709267_300.jpg
101,00003215,万内川六号堰堤,ばんないがわろくごうえんてい,1基,,登録有形文化財(建造物),治山治水,土木構造物,,大正,大正12頃／昭和9頃改造,1923頃／1934頃改造,重力式石造及びコンクリート造堰堤、堤長37m、堤高2.0m、下流両側護岸及び副堰堤付,,15 － 0148,36,2003.04.08(平成15.04.08),2003.03.18(平成15.03.18),,20030318,,国土の歴史的景観に寄与しているもの,,新潟県,新潟県妙高市大字西野谷,,新潟県,,,37.01479000000000,138.17290000000000,万内川中流域に位置する。下流側法勾配２分。堤高と同じ高さだけ水通し部を切り込んだ低いつくり，さらに両肩を法１割，長さ１５ｍとした水通し形状によって上流側への見通しが確保され，地形におさまる石積の低堰堤が山並みを背景に連続する景観が展開する。,https://bunka.nii.ac.jp/heritage/43967/_104205/43967_104205111225013709532_300.jpg
101,00003216,万内川七号及び八号堰堤,ばんないがわななごうおよびはちごうえんてい,1所,,登録有形文化財(建造物),治山治水,土木構造物,,大正,大正15頃／昭和8頃改造,1926頃／1933頃改造,重力式石造及びコンクリート造堰堤、堤長42m及び50m、堤高3.0m及び3.2m、下流両側護岸及び副堰堤付,,15 － 0149,36,2003.04.08(平成15.04.08),2003.03.18(平成15.03.18),,20030318,,再現することが容易でないもの,,新潟県,新潟県妙高市大字西野谷,,新潟県,,,37.01490000000000,138.17220000000000,万内川中流域に位置する。２基の堰堤を隣接させて同時期に建設したもので，八号堰堤下流側に水叩きと石積護岸を連続させて，七号堰堤下流側には副堰堤を配する。七号堰堤上流右岸側から灌漑用水を取り込み，取水堰堤としての機能を有する類例の少ない構造物。,https://bunka.nii.ac.jp/heritage/43967/_104206/43967_104206111225013709797_300.jpg
101,00003217,万内川十号堰堤,ばんないがわじゅうごうえんてい,1基,,登録有形文化財(建造物),治山治水,土木構造物,,大正,大正15頃／昭和8頃改造,1926頃／1933頃改造,重力式石造及びコンクリート造堰堤、堤長42m、堤高3.5m、下流両側護岸及び副堰堤付,,15 － 0150,36,2003.04.08(平成15.04.08),2003.03.18(平成15.03.18),,20030318,,国土の歴史的景観に寄与しているもの,,新潟県,新潟県妙高市大字西野谷,,新潟県,,,37.01537000000000,138.17090000000000,万内川中流域，前後の砂防堰堤と１２０ｍ程の間隔で設けられる。下流側法勾配２分，上流側法勾配５厘，堤高３．５ｍの小勾配の低堰堤。地滑り区間内で低堰堤を連続して設けるという模範的計画を端的に示し，建設以前頻発していた山の崩壊や土砂の流下を断つ。,https://bunka.nii.ac.jp/heritage/43967/_104207/43967_104207111225013710075_300.jpg
101,00003218,万内川十一号堰堤,ばんないがわじゅういちごうえんてい,1基,,登録有形文化財(建造物),治山治水,土木構造物,,大正,大正15頃／昭和8頃改造,1926頃／1933頃改造,重力式石造及びコンクリート造堰堤、堤長33m、堤高4.0m、下流両側護岸及び副堰堤付,,15 － 0151,36,2003.04.08(平成15.04.08),2003.03.18(平成15.03.18),,20030318,,国土の歴史的景観に寄与しているもの,,新潟県,新潟県妙高市大字西野谷,,新潟県,,,37.01521000000000,138.17020000000000,万内川中流域の狭窄部に建設される。下流側法勾配２分，上流側法勾配５厘で，水通しを堤体中央部に設け，ほぼ左右対称の形状をとる。護岸，水叩き，副堰堤の残存状況良好。水叩き部を石張で強固に築き，水通し幅を広くとるなど洗掘防止の工夫が見られる。,https://bunka.nii.ac.jp/heritage/43967/_104208/43967_104208111225013710338_300.jpg
101,00003219,万内川十二号堰堤,ばんないがわじゅうにごうえんてい,1基,,登録有形文化財(建造物),治山治水,土木構造物,,大正,大正14頃／昭和8頃改造,1925頃／1933頃改造,重力式石造及びコンクリート造堰堤、堤長38m、堤高4.2m、下流両側護岸付,,15 － 0152,36,2003.04.08(平成15.04.08),2003.03.18(平成15.03.18),,20030318,,国土の歴史的景観に寄与しているもの,,新潟県,新潟県妙高市大字西野谷,,新潟県,,,37.01511000000000,138.16960000000000,万内川中流域に位置する。下流側法勾配２分で，水通し外側の堤頂高を，堤体中央に向けて４％程傾斜させる。堤体全体を精緻な谷積で築き，堤体右岸側に石造銘板を付ける。河床安定及び土砂流出防止の機能を発揮し，周囲の自然景観形成の礎をなす。,https://bunka.nii.ac.jp/heritage/43967/_104209/43967_104209111225013710601_300.jpg
101,00003220,万内川十三号堰堤,ばんないがわじゅうさんごうえんてい,1基,,登録有形文化財(建造物),治山治水,土木構造物,,昭和前,昭和9頃,1934頃,重力式コンクリート造堰堤、堤長35m、堤高5.9m、下流両側護岸付,,15 － 0153,36,2003.04.08(平成15.04.08),2003.03.18(平成15.03.18),,20030318,,国土の歴史的景観に寄与しているもの,,新潟県,新潟県妙高市大字西野谷,,新潟県,,,37.01518000000000,138.16910000000000,昭和８年の水害を契機に万内川中流域の大正期堰堤群の上流側に設けられる。下流側法勾配２分，上流側法勾配３分の重力式練積堰堤で，水通しを堤体中央部に設けたほぼ左右対称の形状をとる。堤体下流側の両岸に谷積の護岸を良好な状態で残す。,https://bunka.nii.ac.jp/heritage/43967/_104210/43967_104210111225013711640_300.jpg
101,00003221,万内川十四号堰堤,ばんないがわじゅうよんごうえんてい,1基,,登録有形文化財(建造物),治山治水,土木構造物,,昭和前,昭和9頃,1934頃,重力式コンクリート造堰堤、堤長34m、堤高4.9m、下流両側護岸付,,15 － 0154,36,2003.04.08(平成15.04.08),2003.03.18(平成15.03.18),,20030318,,国土の歴史的景観に寄与しているもの,,新潟県,新潟県妙高市大字西野谷,,新潟県,,,37.01548000000000,138.16790000000000,万内川中流域に位置し，堤体表裏の法勾配を共に２分とする台形断面及びほぼ左右対称の立面形状をとる。水通し両肩の法勾配１割，水通し幅は１５ｍで，堤体前面には欠円アーチ型の水抜きを計４箇所設ける。自然の脅威に近代技術で挑んだ人為の痕跡を今に残す。,https://bunka.nii.ac.jp/heritage/43967/_104211/43967_104211111225013711899_300.jpg
101,00003395,大橋屋主屋及び土蔵,おおはしやしゅおくおよびどぞう,1棟,,登録有形文化財(建造物),産業3次,建築物,,昭和前,昭和10,1935,木造3階一部2階建、瓦葺、建築面積323㎡,,15 － 0156,37,2003.07.17(平成15.07.17),2003.07.01(平成15.07.01),,20030701,,再現することが容易でないもの,,新潟県,新潟県新潟市中央区本町通十一番町1813,,,,,37.92738000000000,139.04770000000000,市中心部の本町通に面する短冊状の敷地にたつ。妻入で，正面２階に半円アーチと矩形の窓を並置し，壁面を銅板網代張り，その上部に２重の入母屋屋根を見せる。内部は二・三階に客室を設け，各座敷の天井や開口部などに意匠を凝らし変化に富む造作を見せる。,https://bunka.nii.ac.jp/heritage/43967/_104385/43967_104385111225013856028_300.jpg
101,00003396,日影沢一号床固工,ひかげさわいちごうとこがためこう,1基,,登録有形文化財(建造物),治山治水,土木構造物,,大正,大正後期,1912-1925,石造床固工、堤長30m、堤高5.0m,,15 － 0157,37,2003.07.17(平成15.07.17),2003.07.01(平成15.07.01),,20030701,,国土の歴史的景観に寄与しているもの,,新潟県,新潟県妙高市大字西野谷,,新潟県,,,37.01674000000000,138.15090000000000,日影沢が一級河川関川水系万内川に合流する地点に築かれた砂防施設。両側法勾配３分，水通し幅３．４ｍで，地形に合わせて左岸側の袖を長くとるのが特徴的。日影沢床固工群の中で，最下流に位置する最大規模の構造物で，基幹的役割を果たしている。,https://bunka.nii.ac.jp/heritage/43967/_104386/43967_104386111225013857017_300.jpg
101,00003397,日影沢中流域床固工,ひかげさわちゅうりゅういきとこがためこう,1所,,登録有形文化財(建造物),治山治水,土木構造物,,大正,大正後期／昭和12増築,1912-1925／1937増築,石造床固工30基よりなる、延長302m、支川床固工2基付,,15 － 0158,37,2003.07.17(平成15.07.17),2003.07.01(平成15.07.01),,20030701,,国土の歴史的景観に寄与しているもの,,新潟県,新潟県妙高市大字西野谷,,新潟県,,,37.01547000000000,138.14920000000000,日影沢中流域に位置する砂防施設。堤長７ｍから２４ｍ，堤高１．５ｍから４．５ｍの小規模構造物を，約３０％勾配の急斜面に３２基配する。石造構造物が，地形におさまりつつ，湾曲しながら連続し，自然と一体化した景観を創り出している。,https://bunka.nii.ac.jp/heritage/43967/_104387/43967_104387111225013857274_300.jpg
101,00003398,日影沢上流域床固工,ひかげさわじょうりゅうとこがためこう,1所,,登録有形文化財(建造物),治山治水,土木構造物,,大正,大正後期／昭和12増築,1912-1925／1937増築,石造床固工5基よりなる、延長31m、支川床固工1基付,,15 － 0159,37,2003.07.17(平成15.07.17),2003.07.01(平成15.07.01),,20030701,,国土の歴史的景観に寄与しているもの,,新潟県,新潟県妙高市大字西野谷,,新潟県,,,37.01467000000000,138.14640000000000,万内川右支日影沢の上流域に位置する砂防施設。堤長６ｍから２１ｍ，堤高１．５ｍから３ｍの石造谷積の構造物を，約４０％勾配の斜面に５基配し，支川が右岸側から合流する。切石により精緻に築かれた構造物で，急勾配斜面の地盤安定に効果を発揮している。,https://bunka.nii.ac.jp/heritage/43967/_104388/43967_104388111225013857544_300.jpg
101,00003399,クズレ沢斜路工,くずれさわしゃろこう,1基,,登録有形文化財(建造物),治山治水,土木構造物,,大正,大正後期,1912-1925,石張斜路工延長12m及び石造床固工1基よりなる,,15 － 0160,37,2003.07.17(平成15.07.17),2003.07.01(平成15.07.01),,20030701,,国土の歴史的景観に寄与しているもの,,新潟県,新潟県妙高市大字西野谷,,新潟県,,,37.01478000000000,138.15000000000000,日影沢の中流域に右岸側から合流する砂防施設。山の斜面を石張した勾配２５％，側面１割法とした直線状水路と，両側法勾配３分の床固工を一体的に築き，河道安定を図る。周囲の回復された緑と一体となり，渓谷の自然景観と良く馴染んでいる。,https://bunka.nii.ac.jp/heritage/43967/_104389/43967_104389111225013857810_300.jpg
101,00003400,西野谷用水路,にしのやようすいろ,1所,,登録有形文化財(建造物),産業1次,土木構造物,,大正,大正15,1926,石造、延長49m,,15 － 0161,37,2003.07.17(平成15.07.17),2003.07.01(平成15.07.01),,20030701,,国土の歴史的景観に寄与しているもの,,新潟県,新潟県妙高市大字西野谷,,西野谷区,,,37.01473000000000,138.17270000000000,万内川七号堰堤と一体的に築かれた灌漑施設。七号堰堤上流右岸側から取水し，堤体と平行に延びる水路をＬ字型に曲げ，堤体右翼部の約１ｍ幅に刳り抜かれた堤体内を導水させた石張構造物。生活上の要請を複合的に解決した，治水施設と一体化した利水施設。,https://bunka.nii.ac.jp/heritage/43967/_104390/43967_104390111225013858078_300.jpg
101,00003401,亀田町上水道高架水槽,かめだまちじょうすいどうこうかすいそう,1基,,登録有形文化財(建造物),生活関連,その他工作,,昭和前,昭和8,1933,鉄骨造、鉄製水槽、高さ18m,,15 － 0162,37,2003.07.17(平成15.07.17),2003.07.01(平成15.07.01),,20030701,,国土の歴史的景観に寄与しているもの,,新潟県,新潟県新潟市江南区亀田水道町2-4-3,,新潟市,,,37.87070000000000,139.11800000000000,新潟市境に近い市街地東部に位置する浄水場敷地内の配水塔。山形鋼を用いた６本の鉄骨柱を正六角形平面上にたち上げ，上部に直径７．８ｍ，高さ５．４ｍの円筒槽を頂く。町の近代化を支えたランドマークで，水道タンクの名で住民に広く親しまれている。,https://bunka.nii.ac.jp/heritage/43967/_104391/43967_104391111225013859418_300.jpg
101,00003406,割烹みよや,かっぽうみよや,1棟,,登録有形文化財(建造物),産業3次,建築物,,大正,大正初期,1912-1925,木造2階建、瓦葺、建築面積37㎡,,15 － 0167,37,2003.07.17(平成15.07.17),2003.07.01(平成15.07.01),,20030701,,造形の規範となっているもの,,新潟県,新潟県三島郡出雲崎町大字羽黒町101-1,,,,,37.54438000000000,138.69030000000000,日本海に近い旧北国街道に面して建つ。妻入で，欄間窓付縦長窓などの前面にベランダが付き，上部にハンマービーム風の妻飾りを設ける。２階内部の天井・壁面に施された漆喰の格縁やモールディング，外壁の天使をあしらった鏝絵などの仕上に高度な技を見せる。,https://bunka.nii.ac.jp/heritage/43967/_104396/43967_104396111225013900488_300.jpg
101,00003407,大源太川第一号砂防堰堤,だいげんたがわだいいちごうさぼうえんてい,1基,,登録有形文化財(建造物),治山治水,土木構造物,,昭和前,昭和14,1939,アーチ式コンクリート造堰堤、堤長33m、堤高18m、副堰堤付,,15 － 0168,37,2003.07.17(平成15.07.17),2003.07.01(平成15.07.01),,20030701,,国土の歴史的景観に寄与しているもの,,新潟県,新潟県南魚沼郡湯沢町大字土樽字向原,,国（国土交通省）,,,36.91938000000000,138.88510000000000,魚野川水系大源太川の狭窄部に位置する。堅固な両岸岩盤をいかし欠円アーチ平面とした練積堰堤で，下流側法平均一分七厘，谷積とする。貯砂量あたりの工費を著しく押さえた，最初期の本格的アーチ式ダムで，内務技師の蒲孚を中心に建設。,https://bunka.nii.ac.jp/heritage/43967/_104397/43967_104397111225013901267_300.jpg
101,00004223,高島屋主屋,たかしまやしゅおく,1棟,,登録有形文化財(建造物),住宅,建築物,,江戸,宝暦5／明治初期増築,1755／1868-1911増築,木造平屋一部2階建、瓦葺、建築面積377㎡,,15 － 0169,43,2004.08.17(平成16.08.17),2004.07.23(平成16.07.23),,20040723,,国土の歴史的景観に寄与しているもの,,新潟県,新潟県新潟市西蒲区岩室温泉678甲,,,,,37.73737000000000,138.83810000000000,南北棟の民家を主体部とし，東面南端に座敷部を増築，一部２階の設置などの改造を経て，現在は旅館施設としている。主体部は差鴨居を多用した江戸後期の特徴を備え，座敷部も端正な意匠になる。正面の入母屋造玄関や座敷部妻面など，雄大な構えを見せている。,https://bunka.nii.ac.jp/heritage/43967/_105213/43967_105213111225014806360_300.jpg
101,00004224,高島屋土蔵,たかしまやどぞう,1棟,,登録有形文化財(建造物),住宅,建築物,,明治,明治初期,1868-1911,土蔵造2階建、瓦葺、建築面積40㎡,,15 － 0170,43,2004.08.17(平成16.08.17),2004.07.23(平成16.07.23),,20040723,,造形の規範となっているもの,,新潟県,新潟県新潟市西蒲区岩室温泉678甲,,,,,37.73717000000000,138.83800000000000,主屋南に位置する土蔵で，主屋の座敷部増築と同時期と思われる。土蔵造２階建，屋根は置屋根式で，南北棟の切妻造，桟瓦葺とし，１階北妻面に扉口を設ける。柱を１尺５寸間隔に並べて強固な軸部をつくる。上層農家の屋敷構成を示す施設。,https://bunka.nii.ac.jp/heritage/43967/_105214/43967_105214111225014806875_300.jpg
101,00004225,高島屋旧米蔵,たかしまやきゅうこめぐら,1棟,,登録有形文化財(建造物),住宅,建築物,,昭和前,昭和初期,1926-1988,土蔵造平屋建、瓦葺、建築面積40㎡,,15 － 0171,43,2004.08.17(平成16.08.17),2004.07.23(平成16.07.23),,20040723,,造形の規範となっているもの,,新潟県,新潟県新潟市西蒲区岩室温泉678甲,,,,,37.73746000000000,138.83790000000000,主屋西に位置し，昭和初期頃の建築と伝えられている。土蔵造平屋建，屋根は置屋根式で，東西棟の切妻造，桟瓦葺とし，当初は南面に扉口を設けた平入であった。外壁は漆喰塗で，現在は床・棚を備えた客室としている。上層農家の屋敷構成の一端を示す施設。,https://bunka.nii.ac.jp/heritage/43967/_105215/43967_105215111225014807401_300.jpg
101,00004341,髙橋あめや主屋,たかはしあめやしゅおく,1棟,,登録有形文化財(建造物),産業3次,建築物,,明治,明治8,1875,木造2階建、鉄板葺、建築面積109㎡,,15 － 0172,44,2004.11.29(平成16.11.29),2004.11.08(平成16.11.08),,20041108,,造形の規範となっているもの,,新潟県,新潟県上越市南本町3-81,,,,,37.10159000000000,138.24510000000000,北国街道に面する切妻造，平入の町家で，正面に雁木を設け，その上方に２階の格子窓を見せる。１階内部は土間床のミセを正面に構え，奥に事務室が続き，２階は通りに面して座敷２室を並べる。雪国における商家の表構えをよく残す町家建築として貴重である。,https://bunka.nii.ac.jp/heritage/43967/_105331/43967_105331111225014922212_300.jpg
101,00004342,旧中澤家住宅離れ（平出修旧居）,きゅうなかざわけじゅうたくはなれ（ひらいでしゅうきゅうきょ）,1棟,,登録有形文化財(建造物),住宅,建築物,,明治,明治29頃,1896頃,木造平屋建、鉄板葺、建築面積63㎡,,15 － 0173,44,2004.11.29(平成16.11.29),2004.11.08(平成16.11.08),,20041108,,造形の規範となっているもの,,新潟県,新潟県上越市大町2丁目字馬出37-1,,学校法人高田文化学園,,,37.10820000000000,138.24510000000000,床と違棚，付書院を備えた６畳とその東の長４畳に広縁や廊下を廻し，台所や玄関を付設する。欄間や建具ほかに繊細な数寄屋意匠がみられる近代和風建築であるとともに，近代上越地域の上層住宅において応接のために建設された離れ座敷の数少ない遺例である。,https://bunka.nii.ac.jp/heritage/43967/_105332/43967_105332111225014922728_300.jpg
101,00004533,旧横尾義智家雪室,きゅうよこおよしともけゆきむろ,1棟,,登録有形文化財(建造物),住宅,その他工作,,大正,大正後期,1912-1925,コンクリート造、面積36㎡、深さ3.0m,,15 － 0175,45,2005.02.28(平成17.02.28),2005.02.09(平成17.02.09),,20050209,,国土の歴史的景観に寄与しているもの,,新潟県,新潟県上越市安塚区行野1146-1,,,,,37.10885000000000,138.48580000000000,横尾義智生家の敷地内，斜面を切り開いた平地に建設され，周囲を杉林が取り囲む。上部６ｍ四方，底面４ｍ四方，深さ３ｍ規模の竪穴で，底面及び法面をコンクリートで造る。新潟県有数の豪雪地帯における雪利用の歴史や生活文化を知る上で貴重な遺構である。,https://bunka.nii.ac.jp/heritage/43967/_105523/43967_105523111225015204926_300.jpg
101,00004682,ギャラリー十三代目長兵衛,ぎゃらりーじゅうさんだいめちょうべえ,1棟,,登録有形文化財(建造物),住宅,建築物,,江戸,江戸末期頃／明治後期移築／平成15曳家,1830-1867頃／1868-1911移築／2003曳家,土蔵造2階建、瓦葺、建築面積34㎡,,15 － 0174,45,2005.02.28(平成17.02.28),2005.02.09(平成17.02.09),,20050209,,国土の歴史的景観に寄与しているもの,,新潟県,新潟県柏崎市学校町3-12,,,,,37.37087000000000,138.55660000000000,南側及び西側が接道する敷地の南西隅に南面して建つ。土蔵造２階建，切妻造，桟瓦葺で，棟を東西に置く。西面妻壁２階には窓を開く。外壁は腰を縦板張，上部を白漆喰で仕上げ，軒に鉢巻を廻し，扉や?を黒漆喰で飾る。現在はギャラリーとして活用されている。,https://bunka.nii.ac.jp/heritage/43967/_105672/43967_105672111225015619948_300.jpg
101,00004734,六宜閣本館,ろくぎかくほんかん,1棟,,登録有形文化財(建造物),住宅,建築物,,江戸,安政2,1855,木造平屋一部2階建、瓦葺、建築面積350㎡,,15 － 0176,46,2005.08.02(平成17.08.02),2005.07.12(平成17.07.12),,20050712,,国土の歴史的景観に寄与しているもの,,新潟県,新潟県柏崎市上輪新田23,,,,,37.33036000000000,138.45560000000000,海岸にほど近い庄屋の家を転用した割烹旅館の中心建物。木造，一部２階建，切妻造，桟瓦葺（もと板葺）で東面する。内部は北半上手に２列に座敷を並べ，南半下手に囲炉裏のある広間，配膳室，土間を配す。大型で格式ある構えをもち，周囲でも一際目立つ建物。,https://bunka.nii.ac.jp/heritage/43967/_105724/43967_105724111225015733026_300.jpg
101,00004735,六宜閣松風庵,ろくぎかくしょうふうあん,1棟,,登録有形文化財(建造物),住宅,建築物,,大正,大正初期／昭和35頃移築,1912-1925／1960頃移築,木造平屋建、瓦葺、建築面積45㎡,,15 － 0177,46,2005.08.02(平成17.08.02),2005.07.12(平成17.07.12),,20050712,,造形の規範となっているもの,,新潟県,新潟県柏崎市上輪新田23,,,,,37.33052000000000,138.45560000000000,本館の北西に独立して建つ。石垣上の一段高い位置に立地し，正面切妻造，背面寄棟造，桟瓦葺で北面する。床，棚付き１０畳の座敷を中心に，東に板廊下，西に風呂，便所，上り縁を備えた土間を配す。小規模ながら吟味した良材を用いて入念に仕上げた離れ座敷。,https://bunka.nii.ac.jp/heritage/43967/_105725/43967_105725111225015734828_300.jpg
101,00004736,伊藤家住宅三階土蔵,いとうけじゅうたくさんかいどぞう,1棟,,登録有形文化財(建造物),住宅,建築物,,明治,明治35,1902,土蔵造3階建、瓦葺、建築面積89㎡,,15 － 0179,46,2005.08.02(平成17.08.02),2005.07.12(平成17.07.12),,20050712,,国土の歴史的景観に寄与しているもの,,新潟県,新潟県五泉市羽下122,,,,,37.77259000000000,139.17350000000000,敷地南端，通りに接して建つ。桁行６間，梁間３間，土蔵造，３階建，切妻造，置き屋根，桟瓦葺で，戸口のある北面に下屋を付す。側廻りに柱を密に建てた入念な造りで，小屋組の合掌は梁端とボルトで接合する。重厚な外観をもち屋敷の表構えに欠かせない建物。,https://bunka.nii.ac.jp/heritage/43967/_105726/43967_105726111225015735739_300.jpg
101,00004737,伊藤家住宅米蔵,いとうけじゅうたくこめぐら,1棟,,登録有形文化財(建造物),住宅,建築物,,明治,明治12,1879,土蔵造平屋建、瓦葺、建築面積51㎡,,15 － 0180,46,2005.08.02(平成17.08.02),2005.07.12(平成17.07.12),,20050712,,国土の歴史的景観に寄与しているもの,,新潟県,新潟県五泉市羽下122,,,,,37.77272000000000,139.17380000000000,主屋の南東に北面して建つ。桁行約６間，梁間約２間半，土蔵造，平屋で，切妻造，桟瓦葺の置き屋根をのせる。内部は床を張り，棟通りやや東寄りに独立柱，その南に間柱を立て緩やかに仕切る。切石積基礎を築き，軒に鉢巻，腰に水切を廻す等丁寧な造りになる。,https://bunka.nii.ac.jp/heritage/43967/_105727/43967_105727111225015736550_300.jpg
101,00004738,伊藤家住宅家財蔵及び計量場,いとうけじゅうたくかざいぐらおよびけいりょうば,1棟,,登録有形文化財(建造物),住宅,建築物,,明治,明治9／大正4曳家増築,1876／1915曳家増築,土蔵造2階一部平屋建、瓦葺、建築面積114㎡,,15 － 0181,46,2005.08.02(平成17.08.02),2005.07.12(平成17.07.12),,20050712,,国土の歴史的景観に寄与しているもの,,新潟県,新潟県五泉市羽下122,,,,,37.77273000000000,139.17390000000000,米蔵の東に続いて計量場，家財蔵が一列に並び，これら北面に一連の下屋を付す。家財蔵は２階建，置き屋根の土蔵造で，計量場は南面のみ塗込め，全体を桟瓦葺とする。内外とも丁寧な造りになり，米蔵と一体となって長大な外観をもつ屋敷構えに欠かせない存在。,https://bunka.nii.ac.jp/heritage/43967/_105728/43967_105728111225015737386_300.jpg
101,00004739,伊藤家住宅納屋,いとうけじゅうたくなや,1棟,,登録有形文化財(建造物),住宅,建築物,,明治,明治初期,1868-1911,木造平屋建、瓦葺、建築面積43㎡,,15 － 0182,46,2005.08.02(平成17.08.02),2005.07.12(平成17.07.12),,20050712,,国土の歴史的景観に寄与しているもの,,新潟県,新潟県五泉市羽下122,,,,,37.77260000000000,139.17340000000000,三階土蔵西隣に並んで建つ。平屋建，切妻造，桟瓦葺で，内部は東半を土間，西半は床を張り，北面東寄りの出入口部分に下屋を付ける。側廻りは約２尺毎に柱を密に建て，外は漆喰真壁で下部は押縁下見板で囲う。簡素だが屋敷構えにふさわしい丁寧な仕事になる。,https://bunka.nii.ac.jp/heritage/43967/_105729/43967_105729111225015738309_300.jpg
101,00004740,伊藤家住宅表門及び内塀,いとうけじゅうたくおもてもんおよびうちべい,1棟,,登録有形文化財(建造物),住宅,その他工作,,大正,大正初期,1912-1925,表門　木造、瓦葺、間口2.1m、内塀　木造、瓦葺、延長21m,,15 － 0183,46,2005.08.02(平成17.08.02),2005.07.12(平成17.07.12),,20050712,,国土の歴史的景観に寄与しているもの,,新潟県,新潟県五泉市羽下122,,,,,37.77286000000000,139.17370000000000,表門は米蔵北西に南面し，内塀は表門に接続し主屋，米蔵間を南北に仕切る。表門は腕木門形式で，屋根切妻造，桟瓦葺とし，内塀は目板打ち竪板張りで，桟瓦葺屋根を腕木で受ける。簡素だが丁寧な造りで，周囲の建物や庭園とともに風格ある屋敷構えを形成する。,https://bunka.nii.ac.jp/heritage/43967/_105730/43967_105730111225015740087_300.jpg
101,00004741,旧小林古径邸,きゅうこばやしこけいてい,1棟,,登録有形文化財(建造物),住宅,建築物,,昭和前,昭和9／平成13移築,1934／2001移築,木造2階建、瓦葺、建築面積151㎡,,15 － 0184,46,2005.08.02(平成17.08.02),2005.07.12(平成17.07.12),,20050712,,造形の規範となっているもの,,新潟県,新潟県上越市本城町字越後44-1,,上越市,,,37.11046000000000,138.25470000000000,はじめ東京馬込に建築，その後郷里に移築された小林古径の旧宅。木造，２階建，切妻造，桟瓦葺で，見隠れに補強鉄物を用い長押を省略し努めて木柄を細くするなど，新しい和風意匠を目指す。設計吉田五十八，数寄屋大工岡村仁三による注目すべき近代住宅建築。,https://bunka.nii.ac.jp/heritage/43967/_105731/43967_105731111225015743167_300.jpg
101,00004742,凌雲閣松之山ホテル本館,りょううんかくまつのやまほてるほんかん,1棟,,登録有形文化財(建造物),産業3次,建築物,,昭和前,昭和12,1937,木造3階建、瓦葺、建築面積514㎡,,15 － 0185,46,2005.08.02(平成17.08.02),2005.07.12(平成17.07.12),,20050712,,国土の歴史的景観に寄与しているもの,,新潟県,新潟県十日町市松之山天水越81,,株式会社凌雲閣松之山ホテル,,,37.06229000000000,138.59960000000000,山間部の高台に建つ温泉旅館の本館。３階建，入母屋造，桟瓦葺で正面中央に車寄せ玄関を突出させ，大屋根に千鳥破風を付す。客室をはじめ客溜りや階段室も銘木を使い，座敷飾りや欄間，天井造作など手の込んだ細工になる。内外とも風格ある佇まいをよく残す。,https://bunka.nii.ac.jp/heritage/43967/_105732/43967_105732111225015744937_300.jpg
101,00004880,伊藤家住宅主屋,いとうけじゅうたくしゅおく,1棟,,登録有形文化財(建造物),住宅,建築物,,明治,明治24,1891,木造平屋一部2階建、瓦葺、建築面積259㎡,,15 － 0178,46,2005.08.02(平成17.08.02),2005.07.12(平成17.07.12),,20050712,,国土の歴史的景観に寄与しているもの,,新潟県,新潟県五泉市羽下122,,,,,37.77301000000000,139.17360000000000,敷地中央北寄りに南面して建つ。矩折れに座敷を配し正面に玄関を突出する主体部を中心に，東に仏間（大正１５），西に風呂場，便所（明治３１）を接続する。増改築を繰り返すが内外とも質の高い丁寧な造りで，まとまりのある外観は広大な屋敷構えの核となる。,https://bunka.nii.ac.jp/heritage/43967/_105870/43967_105870111225020100456_300.jpg
101,00004950,旧第四銀行住吉町支店,きゅうだいしぎんこうすみよしちょうしてん,1棟,,登録有形文化財(建造物),産業3次,建築物,,昭和前,昭和2／平成15移築,1927／2003移築,鉄筋コンクリート造2階一部3階建、建築面積537㎡,,15 － 0186,47,2005.12.05(平成17.12.05),2005.11.10(平成17.11.10),,20051110,,造形の規範となっているもの,,新潟県,新潟県新潟市中央区柳島町2-10,,新潟市,,,37.93053359000000,139.05808489000000,重厚な古典主義様式の銀行建築。２階建で，躯体は鉄筋コンクリート造，外壁に花崗岩を張って石造風とし，コーニスを廻す。正面入口にはイオニア式列柱４本を並べ，柱間の壁上部アーチ型窓とする。当初の外装材，内部の造作をよく保存している。,https://bunka.nii.ac.jp/heritage/43967/_105940/43967_105940562821452890919_300.jpg
101,00004951,新潟大学旭町学術資料展示館（旧新潟師範学校記念館）,にいがただいがくあさひまちがくじゅつしりょうてんじかん（きゅうにいがたしはんがっこうきねんかん）,1棟,,登録有形文化財(建造物),学校,建築物,,昭和前,昭和4,1929,鉄筋コンクリート造2階建、建築面積133㎡,,15 － 0187,47,2005.12.05(平成17.12.05),2005.11.10(平成17.11.10),,20051110,,造形の規範となっているもの,,新潟県,新潟県新潟市中央区旭町通2-746,,国立大学法人新潟大学,,,37.92119000000000,139.03660000000000,市内に残る初期の鉄筋コンクリート造２階建。昭和初期に流行したネオ・ゴシック様式で，北を正面とし，外壁は１階腰に人造石を廻し，他はスクラッチタイル張とする。正面と両側面は柱型を現し，窓は縦長とする。設計図面から，設計・施工は東京の清水組。,https://bunka.nii.ac.jp/heritage/43967/_105941/43967_105941111225020219681_300.jpg
101,00004952,新潟大学医学部（旧新潟医学専門学校）表門及び煉瓦塀,にいがただいがくいがくぶ（きゅうにいがたいがくせんもんがっこう）おもてもんおよびれんがべい,1所,,登録有形文化財(建造物),学校,その他工作,,明治,明治44・大正3／昭和57移設,1911・1914／1982移設,表門　煉瓦造、間柱高さ2.7m、煉瓦塀　煉瓦造、延長149m,,15 － 0188,47,2005.12.05(平成17.12.05),2005.11.10(平成17.11.10),,20051110,,国土の歴史的景観に寄与しているもの,,新潟県,新潟県新潟市中央区旭町通1-757,,国立大学法人新潟大学,,,37.92065000000000,139.03620000000000,新潟大学医学部の敷地北辺にある。大正３年建設の表門は煉瓦と白花崗岩の混合積とした高さ２．７ｍの門柱２本からなり，昭和５７年に移設されるが，形式は保持している。明治４４年建設の煉瓦塀は延長１４９ｍで，形状は土地勾配に合わせた階段式とする。,https://bunka.nii.ac.jp/heritage/43967/_105942/43967_105942111225020222044_300.jpg
101,00005077,蓮華峰寺鐘楼堂,れんげぶじしょうろうどう,1棟,,登録有形文化財(建造物),宗教,建築物,,江戸,慶長20,1615,木造2階建、銅板葺、建築面積19㎡,,15 － 0123,34,2002.09.03(平成14.09.03),2002.08.21(平成14.08.21),,20020821,,造形の規範となっているもの,,新潟県,新潟県佐渡市小比叡,,宗教法人小比叡山蓮華峰寺,,,37.83607000000000,138.28820000000000,金堂北東の台地上にある袴腰付きの鐘楼。上層は桁行３間，梁間２間で四方に腰組付の縁を巡らせ，組物は出組で寄棟造，茅葺形銅板葺の屋根を掛ける。正当な手法からなる鐘楼で，幕末期の改造は大きいが，なお桃山建築の特徴を良く残す。,https://bunka.nii.ac.jp/heritage/43967/_106067/43967_106067111225020539953_300.jpg
101,00005112,割烹吉源主屋,かっぽうよしげんしゅおく,1棟,,登録有形文化財(建造物),産業3次,建築物,,昭和前,昭和4,1929,木造2階一部平屋建、瓦葺、建築面積566㎡,,15 － 0189,48,2005.12.27(平成17.12.27),2005.12.26(平成17.12.26),,20051226,,造形の規範となっているもの,,新潟県,新潟県村上市寺町1437,,,,,38.22457000000000,139.47650000000000,寺町の通りに北面して建つ。入母屋造，桟瓦葺のたちの高い２階建の西に切妻造，桟瓦葺の２階建を雁行させ，背後に１５畳４室を並べた南北棟の平屋建を延ばす。内部は，２階の洋風大広間を中心とした良質なつくり。棟札から年代と棟梁「遠藤鉀子郎」が判明。,https://bunka.nii.ac.jp/heritage/43967/_106102/43967_106102111225020620249_300.jpg
101,00005113,割烹吉源土蔵,かっぽうよしげんどぞう,1棟,,登録有形文化財(建造物),住宅,建築物,,昭和前,昭和初期,1926-1988,土蔵造2階建、瓦葺、建築面積21㎡,,15 － 0190,48,2005.12.27(平成17.12.27),2005.12.26(平成17.12.26),,20051226,,国土の歴史的景観に寄与しているもの,,新潟県,新潟県村上市寺町1437,,,,,38.22433000000000,139.47640000000000,主屋の南方に位置し，東西棟，切妻造，桟瓦葺の覆屋で囲う。桁行２間，梁間３間の規模で，切妻造，平入の２階建土蔵で，１階北面に戸口を設け，２階北面に観音開きの扉付きの窓を開く。棟梁は遠藤鉀子郎。屋敷後方の敷地利用を知る上で貴重である。,https://bunka.nii.ac.jp/heritage/43967/_106103/43967_106103111225020621820_300.jpg
101,00005114,早撰堂菓子店主屋,そうせんどうかしてんしゅおく,1棟,,登録有形文化財(建造物),産業3次,建築物,,明治,明治26,1893,木造2階建、瓦葺、建築面積95㎡,,15 － 0191,48,2005.12.27(平成17.12.27),2005.12.26(平成17.12.26),,20051226,,国土の歴史的景観に寄与しているもの,,新潟県,新潟県村上市大町1510,,,,,38.22462000000000,139.47840000000000,村上城下の目抜き通りに東面して建つ。桁行３間，梁間１０間の規模で，南北棟，切妻造，桟瓦葺の２階建町家。内部は１階にミセ，チャノマ等を並べ，２階はチャノマ上部吹抜けの前後にマエニカイ等を配する。棟梁は増田寅吉。通りの歴史的景観要素の一つ。,https://bunka.nii.ac.jp/heritage/43967/_106104/43967_106104111225020623453_300.jpg
101,00005115,早撰堂菓子店西土蔵,そうせんどうかしてんにしどぞう,1棟,,登録有形文化財(建造物),住宅,建築物,,明治,明治20,1887,土蔵造2階建、瓦葺、建築面積30㎡,,15 － 0192,48,2005.12.27(平成17.12.27),2005.12.26(平成17.12.26),,20051226,,国土の歴史的景観に寄与しているもの,,新潟県,新潟県村上市大町1510,,,,,38.22461000000000,139.47830000000000,主屋の西方，敷地の西南隅に東西棟で建つ。桁行２間半，梁間３間規模，切妻造，桟瓦葺，妻入の２階建土蔵。棟梁は主屋と同じ増田寅吉。屋根は置屋根とし，東面に戸口を設ける。鉢巻などを黒漆喰塗，扉を掛子塗とした丁寧なつくりの蔵。,https://bunka.nii.ac.jp/heritage/43967/_106105/43967_106105111225020624275_300.jpg
101,00005116,早撰堂菓子店東土蔵,そうせんどうかしてんひがしどぞう,1棟,,登録有形文化財(建造物),住宅,建築物,,大正,大正初期,1912-1925,土蔵造2階建、瓦葺、建築面積8㎡,,15 － 0193,48,2005.12.27(平成17.12.27),2005.12.26(平成17.12.26),,20051226,,国土の歴史的景観に寄与しているもの,,新潟県,新潟県村上市大町1510,,,,,38.22472000000000,139.47830000000000,西土蔵の北東に位置し，敷地北辺が接道する寺町通りに妻面を見せて南北棟で建つ。桁行２間，梁間１間規模，切妻造，桟瓦葺，妻入の２階建土蔵で，南面に戸口を設ける。主屋後方に建ち，商家の構成を示す好例で，寺町通りの歴史的景観を形成する。,https://bunka.nii.ac.jp/heritage/43967/_106106/43967_106106111225020625975_300.jpg
101,00005117,ギャラリーやまきち主屋,ぎゃらりーやまきちしゅおく,1棟,,登録有形文化財(建造物),住宅,建築物,,明治,明治初期／昭和4増築,1868-1911／1929増築,木造2階建、瓦葺、建築面積157㎡,,15 － 0194,48,2005.12.27(平成17.12.27),2005.12.26(平成17.12.26),,20051226,,国土の歴史的景観に寄与しているもの,,新潟県,新潟県村上市肴町1678,,,,,38.22402000000000,139.46890000000000,通りに南面して建つ。桁行７間，梁間７間半，切妻造，桟瓦葺，平入の２階建町家で，東方を土間とし，西方にチャノマとザシキを配する。西方２階は増築で，棟を高くつくる。外観は近年の復原によるもので，村上の歴史的な町並み景観を形成している。,https://bunka.nii.ac.jp/heritage/43967/_106107/43967_106107111225020626917_300.jpg
101,00005118,ギャラリーやまきち土蔵,ぎゃらりーやまきちどぞう,1棟,,登録有形文化財(建造物),住宅,建築物,,明治,明治初期,1868-1911,土蔵造2階建、瓦葺、建築面積28㎡,,15 － 0195,48,2005.12.27(平成17.12.27),2005.12.26(平成17.12.26),,20051226,,国土の歴史的景観に寄与しているもの,,新潟県,新潟県村上市肴町1678,,,,,38.22423000000000,139.46880000000000,南北に長い敷地の中央北寄りに南北棟で建つ。桁行３間半，梁間２間半の規模とし，平入の２階建土蔵で，屋根は置屋根，桟瓦葺。東面南寄りに戸口を設け，中庭に面する南妻面の開口部廻りを丁寧につくる。主屋ザシキに向き合い，中庭を囲う要素になる。,https://bunka.nii.ac.jp/heritage/43967/_106108/43967_106108111225020629272_300.jpg
101,00005119,ギャラリーやまきち奥の土蔵,ぎゃらりーやまきちおくのどぞう,1棟,,登録有形文化財(建造物),住宅,建築物,,昭和前,昭和3,1928,土蔵造2階建、瓦葺、建築面積51㎡,,15 － 0196,48,2005.12.27(平成17.12.27),2005.12.26(平成17.12.26),,20051226,,国土の歴史的景観に寄与しているもの,,新潟県,新潟県村上市肴町1678,,,,,38.22437000000000,139.46890000000000,南北に長い敷地の北東端に南北棟で建つ。桁行３間半，梁間３間規模の妻入２階建土蔵で，屋根は桟瓦葺の置屋根式とし，南妻面に下屋を差し掛ける。外壁は腰下見板張，上部は漆喰塗で，北及び西面は板壁を建てて囲い，商家の屋敷構えを構成している。,https://bunka.nii.ac.jp/heritage/43967/_106109/43967_106109111225020630880_300.jpg
101,00005264,妙光寺三重小塔,みょうこうじさんじゅうのしょうとう,1基,,登録有形文化財(建造物),宗教,建築物,,江戸,江戸中期,1661-1750,木造三重塔、金属板葺、建築面積1.0㎡,,15 － 0197,49,2006.03.23(平成18.03.23),2006.03.02(平成18.03.02),,20060302,,国土の歴史的景観に寄与しているもの,,新潟県,新潟県新潟市西蒲区角田浜1056,,宗教法人妙光寺,,,37.79745000000000,138.83010000000000,参道脇の池泉の北岸に建つ木造三重，チタン葺の高さ５．２ｍの小塔である。柱を円柱とし，軒を尾垂木を付けた四手先組物で支え，三手と四手の間を軒支輪とし，台輪中央の中備に蟇股を置く。各重に高欄付きの縁を廻す。建設当初の姿を留め，境内景観を形成。,https://bunka.nii.ac.jp/heritage/43967/_106252/43967_106252111225020956116_300.jpg
101,00005265,妙光寺山門,みょうこうじさんもん,1棟,,登録有形文化財(建造物),宗教,その他工作,,江戸,文化11,1814,木造、瓦葺、間口4.5m,,15 － 0198,49,2006.03.23(平成18.03.23),2006.03.02(平成18.03.02),,20060302,,国土の歴史的景観に寄与しているもの,,新潟県,新潟県新潟市西蒲区角田浜1056,,宗教法人妙光寺,,,37.79721000000000,138.83020000000000,本堂と中門を結ぶ軸線上に建つ。桁行１５尺，梁間１３尺とし，切妻造，桟瓦葺の四脚門で，門扉を付けない。出組，実肘木で丸桁を受け，妻側は二重虹梁蟇股の上に大瓶束をのせ，棟木を支える。頭貫の象鼻や獅子鼻，軒支輪の彫物等に江戸後期の造形が窺える。,https://bunka.nii.ac.jp/heritage/43967/_106253/43967_106253111225020957623_300.jpg
101,00005266,妙光寺鐘楼,みょうこうじしょうろう,1棟,,登録有形文化財(建造物),宗教,その他工作,,明治,明治中期,1868-1911,木造、瓦葺、面積12㎡,,15 － 0199,49,2006.03.23(平成18.03.23),2006.03.02(平成18.03.02),,20060302,,国土の歴史的景観に寄与しているもの,,新潟県,新潟県新潟市西蒲区角田浜1056,,宗教法人妙光寺,,,37.79715000000000,138.83010000000000,境内南側の山際に建つ。桁行１０．４尺，梁間９．７尺で，入母屋造，桟瓦葺とし，角柱四本を内転びに建て，飛貫や頭貫で固める。出三斗で軒桁を支え，中備を蟇股とする。格天井や懸魚等に意匠的特色が見られ，三重小塔，山門と共に境内の歴史的景観を形成。,https://bunka.nii.ac.jp/heritage/43967/_106254/43967_106254111225020959229_300.jpg
101,00005427,小林家住宅主屋,こばやしけじゅうたくしゅおく,1棟,,登録有形文化財(建造物),住宅,建築物,,昭和前,昭和13,1938,木造2階建、瓦葺、建築面積153㎡,,15 － 0200,50,2006.04.12(平成18.04.12),2006.03.27(平成18.03.27),,20060327,,造形の規範となっているもの,,新潟県,新潟県新潟市中央区南毘沙門町2538,,,,,37.92599000000000,139.05100000000000,南北に長い敷地南辺の道路境からやや後退して建ち，桁行１１間，梁間５間の規模で，木造２階建，寄棟造，桟瓦葺。壁を押縁下見板張とする。正面の入母屋造の玄関から廊下で各室が連絡され，２階に続き間座敷を設けるなど，新しい住宅要素がみられる。,https://bunka.nii.ac.jp/heritage/43967/_106415/43967_106415111225021401155_300.jpg
101,00005596,喜八屋旅館旧館,きはちやりょかんきゅうかん,1棟,,登録有形文化財(建造物),産業3次,建築物,,明治,明治38／昭和3増築,1905／1928増築,木造5階建、鉄板葺、建築面積115㎡,,15 － 0201,51,2006.08.24(平成18.08.24),2006.08.03(平成18.08.03),,20060803,,国土の歴史的景観に寄与しているもの,,新潟県,新潟県佐渡市小木町55-1他,,,,,37.81637000000000,138.27960000000000,小木港海岸線に平行して通る国道に西面して建つ。桁行１２．１ｍ，梁間９．１ｍの規模で，木造５階建，寄棟造，鉄板葺とする。１階に居間等を配し，２階，４階，５階を客室とする。２階正面はせり出しとし，３階以上は増築であり，旧正面の形式を残す。,https://bunka.nii.ac.jp/heritage/43967/_106584/43967_106584398367624289400_300.jpg
101,00005597,喜八屋旅館別館（裏三階）,きはちやりょかんべっかん（うらさんかい）,1棟,,登録有形文化財(建造物),産業3次,建築物,,大正,大正末期,1912-1925,木造3階建、鉄板葺、建築面積43㎡,,15 － 0202,51,2006.08.24(平成18.08.24),2006.08.03(平成18.08.03),,20060803,,国土の歴史的景観に寄与しているもの,,新潟県,新潟県佐渡市小木町55-1他,,,,,37.81627000000000,138.27980000000000,旧館の東裏に建ち，桁行８．２ｍ，梁間４．５ｍの規模で，木造３階建，寄棟造，鉄板葺，平入とする。１階を物置，２階を新館への通路等，３階を客室２間とする。東側の海の眺望を重視して建てられ，眺望を確保しようとする当時の旅館の姿を知ることができる。,https://bunka.nii.ac.jp/heritage/43967/_106585/43967_106585615451224642683_300.jpg
101,00005598,喜八屋旅館石蔵,きはちやりょかんいしぐら,1棟,,登録有形文化財(建造物),産業3次,建築物,,大正,大正末期,1912-1925,石造2階建、建築面積26㎡,,15 － 0203,51,2006.08.24(平成18.08.24),2006.08.03(平成18.08.03),,20060803,,国土の歴史的景観に寄与しているもの,,新潟県,新潟県佐渡市小木町55-1他,,,,,37.81628000000000,138.27980000000000,別館の北東に位置し，桁行２間半，梁間２間半の規模で，石造２階建，ＲＣ造の陸屋根とする。食器等の蔵であるが，屋上は別館客室のテラスとして使われた。外壁は大谷石を積み，破れ目地を見せる。当初は敷地の最後部に位置し，海岸に面して建っていた。,https://bunka.nii.ac.jp/heritage/43967/_106586/43967_106586021666898352521_300.jpg
101,00005781,旧相川拘置支所事務所棟,きゅうあいかわこうちししょじむしょとう,1棟,,登録有形文化財(建造物),官公庁舎,建築物,,昭和中,昭和29,1954,木造平屋建、瓦葺、建築面積112㎡,,15 － 0204,52,,2006.10.18(平成18.10.18),,20061018,,国土の歴史的景観に寄与しているもの,,新潟県,新潟県佐渡市相川新五郎町24,,佐渡市,,,38.03506000000000,138.24650000000000,敷地の北東寄りに門を正面にして建つ。桁行１３ｍ，梁間９ｍ，木造平屋建，寄棟造，桟瓦葺。小屋組は木造トラスで，内部には事務室の他，接見室や調室等を配する。外壁は軒裏までモルタルで塗り，拘置所らしい簡素な外観とし，地域の歴史の一端も留め，貴重。,https://bunka.nii.ac.jp/heritage/43967/_106769/43967_106769111225022220711_300.jpg
101,00005782,世尊寺本堂,せそんじほんどう,1棟,,登録有形文化財(建造物),宗教,建築物,,明治,明治40,1907,木造平屋建、瓦葺、建築面積301㎡,,15 － 0208,52,,2006.10.18(平成18.10.18),,20061018,,国土の歴史的景観に寄与しているもの,,新潟県,新潟県佐渡市竹田643,,宗教法人世尊寺,,,37.97233000000000,138.36870000000000,境内南西の山裾に東面して建つ。桁行１７．５ｍ，梁間１５．５ｍの身舎の両側に下屋が付く。木造平屋建，切妻造，桟瓦葺，正面向拝付。側廻りは柱上の絵様実肘木で桁を受け，軒は一軒繁垂木。内部は正面一間を外陣として内陣を広く取る。日蓮宗寺院の大型本堂。,https://bunka.nii.ac.jp/heritage/43967/_106770/43967_106770111225022222403_300.jpg
101,00005784,旧相川拘置支所炊事・倉庫棟,きゅうあいかわこうちししょすいじ・そうことう,1棟,,登録有形文化財(建造物),官公庁舎,建築物,,昭和中,昭和29,1954,木造平屋建、瓦葺、建築面積74㎡,,15 － 0205,52,,2006.10.18(平成18.10.18),,20061018,,国土の歴史的景観に寄与しているもの,,新潟県,新潟県佐渡市相川新五郎町24,,佐渡市,,,38.03506000000000,138.24630000000000,事務所棟の西側に廊下を介して接続する。南側は鉄格子戸を介して居房棟を接続し，Ｌ字平面をなす。桁行１０ｍ，梁間８ｍ，木造平屋建，切妻造，桟瓦葺。内部の居房棟側に人造石塗りの浴場を設ける。外壁は軒裏までモルタルで塗り込め，質素なつくり。,https://bunka.nii.ac.jp/heritage/43967/_106772/43967_106772111225022225658_300.jpg
101,00005785,旧相川拘置支所居房棟,きゅうあいかわこうちししょきょぼうとう,1棟,,登録有形文化財(建造物),官公庁舎,建築物,,昭和中,昭和29,1954,木造平屋建、瓦葺、建築面積132㎡,,15 － 0206,52,,2006.10.18(平成18.10.18),,20061018,,国土の歴史的景観に寄与しているもの,,新潟県,新潟県佐渡市相川新五郎町24,,佐渡市,,,38.03494000000000,138.24630000000000,炊事・倉庫棟の南側に鉄格子戸を介して接続する。桁行１４．５ｍ，梁間９ｍ，木造平屋建，切妻造，桟瓦葺。中廊下の両側に雑居房及び独居房，医療室を配する。内外ともに開口部には鉄格子をはめ込み，拘置所居房施設の特徴をもち，地域の歴史の一端も留め，貴重。,https://bunka.nii.ac.jp/heritage/43967/_106773/43967_106773111225022226853_300.jpg
101,00005786,旧相川拘置支所門及び塀,きゅうあいかわこうちししょもんおよびへい,1基,,登録有形文化財(建造物),官公庁舎,その他工作,,昭和中,昭和29,1954,門　鉄筋コンクリート造、間口2.0m、塀　鉄筋コンクリート造、延長113m,,15 － 0207,52,,2006.10.18(平成18.10.18),,20061018,,国土の歴史的景観に寄与しているもの,,新潟県,新潟県佐渡市相川新五郎町24,,佐渡市,,,38.03499000000000,138.24620000000000,門は事務所棟の正面に位置し，間口２ｍ，高さ５ｍ，鉄筋コンクリート造。左右に門柱を立て，高さを両袖の塀よりも若干高くし，鉄格子戸を開いて威厳を見せる。塀も鉄筋コンクリート造で高くつくり，拘置所としての特徴をもち，地域の歴史の一端も留め，貴重。,https://bunka.nii.ac.jp/heritage/43967/_106774/43967_106774111225022228643_300.jpg
101,00005787,世尊寺書院,せそんじしょいん,1棟,,登録有形文化財(建造物),宗教,建築物,,明治,明治後期,1868-1911,木造平屋建、瓦葺、建築面積104㎡,,15 － 0209,52,,2006.10.18(平成18.10.18),,20061018,,国土の歴史的景観に寄与しているもの,,新潟県,新潟県佐渡市竹田643,,宗教法人世尊寺,,,37.97244000000000,138.36860000000000,本堂西北隅に廊下を介して接続。桁行９ｍ，梁間１０ｍ。木造平屋建，入母屋造，桟瓦葺，側廻りにガラス引戸を建て込む。内部は和室４室をほぼ田の字型に配し，四周に縁を廻らす。鷹の間には２間幅の床の間を設ける。屋根を高くつくり，威厳のある意匠とする。,https://bunka.nii.ac.jp/heritage/43967/_106775/43967_106775111225022230871_300.jpg
101,00005791,世尊寺表門,せそんじおもてもん,1棟,,登録有形文化財(建造物),宗教,その他工作,,江戸,江戸後期,1751-1829,木造、瓦葺、間口3.6m,,15 － 0210,52,,2006.10.18(平成18.10.18),,20061018,,国土の歴史的景観に寄与しているもの,,新潟県,新潟県佐渡市竹田643,,宗教法人世尊寺,,,37.97280000000000,138.36920000000000,境内北隅の参道入口で道路に面して建つ。一間の腕木門，切妻造，桟瓦葺。軸部は本柱の前後に控柱を立て，本柱と貫を通して固める。軒は腕木で軒桁を受け，棟木から軒桁に厚板を掛け渡して化粧野地とする。太い柱を使い境内正面の重厚な景観を形成してる。,https://bunka.nii.ac.jp/heritage/43967/_106779/43967_106779111225022237191_300.jpg
101,00005793,世尊寺赤門,せそんじあかもん,1棟,,登録有形文化財(建造物),宗教,その他工作,,江戸,江戸中期,1661-1750,木造、瓦葺、間口3.3m,,15 － 0212,52,,2006.10.18(平成18.10.18),,20061018,,国土の歴史的景観に寄与しているもの,,新潟県,新潟県佐渡市竹田643,,宗教法人世尊寺,,,37.97231000000000,138.36930000000000,境内南寄り，本堂の正面に建つ。四脚門，切妻造，桟瓦葺。本柱，控柱ともに円柱，粽付とし，貫で固める。梁行貫上に太瓶束を立てて母屋を受けるが，棟木，母屋，桁を各々海老虹梁で繋ぐ。組物は平三斗。禅宗様を基調とするが，随所に独特な技法と意匠を見せる。,https://bunka.nii.ac.jp/heritage/43967/_106781/43967_106781111225022240421_300.jpg
101,00005794,世尊寺宝蔵,せそんじほうぞう,1棟,,登録有形文化財(建造物),宗教,建築物,,江戸,江戸末期,1830-1867,土蔵造平屋建、瓦葺、建築面積14㎡,,15 － 0213,52,,2006.10.18(平成18.10.18),,20061018,,国土の歴史的景観に寄与しているもの,,新潟県,新潟県佐渡市竹田643,,宗教法人世尊寺,,,37.97222000000000,138.36880000000000,境内南端の高台に建つ。桁行３ｍ，梁間４ｍ，土蔵造平屋建，切妻造，屋根は置屋根，桟瓦葺。妻入として庇柱を立て，正面庇を延ばす。庇柱には木鼻付絵様虹梁を通し，柱上には絵様実肘木を置く。扉廻りの漆喰彫刻は技巧的で，特に正面意匠が華やかである。,https://bunka.nii.ac.jp/heritage/43967/_106782/43967_106782111225022241767_300.jpg
101,00005795,世尊寺家財蔵,せそんじかざいぐら,1棟,,登録有形文化財(建造物),宗教,建築物,,江戸,天保2／明治20移築,1831／1887移築,木造2階建、瓦葺、建築面積30㎡,,15 － 0214,52,,2006.10.18(平成18.10.18),,20061018,,国土の歴史的景観に寄与しているもの,,新潟県,新潟県佐渡市竹田643,,宗教法人世尊寺,,,37.97242000000000,138.36880000000000,境内のほぼ中央，書院に至る参道に面して建つ。桁行６．５ｍ，梁間４．５ｍ，木造２階建，切妻造，桟瓦葺。南面と西面に下屋が取り付く。外観は正面側を漆喰仕上げ，側面等を下見板張とする。２階の窓は漆喰の額縁を鳥居形に造る丁寧なつくり。,https://bunka.nii.ac.jp/heritage/43967/_106783/43967_106783111225022243319_300.jpg
101,00005798,森医院主屋,もりいいんしゅおく,1棟,,登録有形文化財(建造物),文化福祉,建築物,,明治,明治42,1909,木造2階建、瓦葺、建築面積356㎡,,15 － 0215,52,,2006.10.18(平成18.10.18),,20061018,,国土の歴史的景観に寄与しているもの,,新潟県,新潟県佐渡市真野新町502-甲,,,,,37.96744000000000,138.34720000000000,道路から入って正面に建つ。桁行２５ｍ，梁間１５ｍの主体部に増築部を付す。木造２階建，切妻造，桟瓦葺。平入りの既存建物の部材を使い明治４２年に建造し，主要軸部材を良く残すが，妻入りに変更した。茶の間上部を吹き抜けとする佐渡民家の特徴を留める。,https://bunka.nii.ac.jp/heritage/43967/_106786/43967_106786111225022248921_300.jpg
101,00005802,森医院病院棟,もりいいんびょういんとう,1棟,,登録有形文化財(建造物),文化福祉,建築物,,昭和前,昭和7,1932,木造2階建、瓦葺、建築面積122㎡,,15 － 0216,52,,2006.10.18(平成18.10.18),,20061018,,国土の歴史的景観に寄与しているもの,,新潟県,新潟県佐渡市真野新町502-甲,,,,,37.96758000000000,138.34700000000000,主屋の北寄りに接続し，前庭に面する。桁行１４ｍ，梁間９ｍ，木造２階建，寄棟造，桟瓦葺。外壁は柱内を下見板張とし，軒を持送りで支持する。北及び東側屋根面に手摺付の切妻屋根を造り，アクセントとする。緑色を基調とした，特徴的な外観を呈する。,https://bunka.nii.ac.jp/heritage/43967/_106790/43967_106790111225022253595_300.jpg
101,00005805,森医院味噌蔵,もりいいんみそぐら,1棟,,登録有形文化財(建造物),文化福祉,建築物,,明治,明治前期,1868-1911,土蔵造2階建、瓦葺、建築面積12㎡,,15 － 0217,52,,2006.10.18(平成18.10.18),,20061018,,国土の歴史的景観に寄与しているもの,,新潟県,新潟県佐渡市真野新町502-甲,,,,,37.96726000000000,138.34700000000000,主屋西側の増築部の南側に接続し，北側を正面とする。桁行３．６ｍ，梁間３ｍ，土蔵造２階建，切妻造，桟瓦葺。外壁はモルタル塗及び鉄板張とする。主屋や病院棟の建築以前に建てられており，納屋と共にかつての屋敷構えの景観を留めている。,https://bunka.nii.ac.jp/heritage/43967/_106792/43967_106792111225022257499_300.jpg
101,00005806,北條家住宅長屋門,ほうじょうけじゅうたくながやもん,1棟,,登録有形文化財(建造物),住宅,建築物,,江戸,江戸末期,1830-1867,木造平屋建、茅葺、建築面積60㎡,,15 － 0223,52,2006.11.19(平成18.11.19),2006.10.18(平成18.10.18),,20061018,,国土の歴史的景観に寄与しているもの,,新潟県,新潟県佐渡市泉乙33,,,,,38.02531000000000,138.34620000000000,敷地東辺に近接し，東面して建つ。桁行７間，梁間２間半，木造平屋建，寄棟造で，茅葺としては比較的規模の大きな門である。中央幅１間半を通路とし，その両側に土間２室を設ける。正面に窓を設けない質素な意匠で，農家敷地の表構えを形成している。,https://bunka.nii.ac.jp/heritage/43967/_106793/43967_106793111225022258983_300.jpg
101,00005808,森医院家財蔵,もりいいんかざいぐら,1棟,,登録有形文化財(建造物),文化福祉,建築物,,大正,大正期,1912-1925,土蔵造2階建、瓦葺、建築面積44㎡,,15 － 0218,52,,2006.10.18(平成18.10.18),,20061018,,国土の歴史的景観に寄与しているもの,,新潟県,新潟県佐渡市真野新町502-甲,,,,,37.96730000000000,138.34720000000000,主屋南側に建ち，北側を正面とする。桁行６ｍ，梁間５ｍ，土蔵造２階建，切妻造，桟瓦葺，正面に奥行一間の下屋を設ける。外壁は下見板張とし，下屋前面にはガラス戸を付ける。正面入口扉と東側面上下階窓は漆喰仕上げとし，堅牢かつ上質な景観を形成する。,https://bunka.nii.ac.jp/heritage/43967/_106795/43967_106795111225022301744_300.jpg
101,00005809,森医院納屋,もりいいんなや,1棟,,登録有形文化財(建造物),文化福祉,建築物,,明治,明治中期,1868-1911,木造2階建、瓦葺、建築面積53㎡、門付,,15 － 0219,52,,2006.10.18(平成18.10.18),,20061018,,国土の歴史的景観に寄与しているもの,,新潟県,新潟県佐渡市真野新町502-甲,,,,,37.96726000000000,138.34730000000000,主屋の南側に建つ。桁行１２ｍ，梁間４．５ｍ，木造２階建，切妻造，桟瓦葺で，北面に庇を付け，西面南端に脇門を設ける。納屋として規模が大きく，また主屋や病院棟の建築以前に建てられ，味噌蔵と共にかつての屋敷構えの景観を留めるひとつとなっている。,https://bunka.nii.ac.jp/heritage/43967/_106796/43967_106796111225022304011_300.jpg
101,00005810,森医院外便所,もりいいんそとべんじょ,1棟,,登録有形文化財(建造物),文化福祉,建築物,,昭和前,昭和前期,1926-1988,木造平屋建、鉄板葺、建築面積3.0㎡,,15 － 0220,52,,2006.10.18(平成18.10.18),,20061018,,国土の歴史的景観に寄与しているもの,,新潟県,新潟県佐渡市真野新町502-甲,,,,,37.96729000000000,138.34710000000000,敷地西辺に接して家財蔵と主屋増築部の間に建つ。桁行２．１ｍ，梁間１．５ｍの木造平屋建，切妻造，鉄板葺で，外部は波形鉄板及び横板張とする。正面軒を出桁造とし，内部は２室に区切る。裏庭の景観を構成する要素のひとつとなっている。,https://bunka.nii.ac.jp/heritage/43967/_106797/43967_106797111225022305294_300.jpg
101,00005812,森医院門,もりいいんもん,1基,,登録有形文化財(建造物),文化福祉,その他工作,,昭和前,昭和初期,1926-1988,石造、間口3.8m,,15 － 0221,52,,2006.10.18(平成18.10.18),,20061018,,国土の歴史的景観に寄与しているもの,,新潟県,新潟県佐渡市真野新町502-甲,,,,,37.96749000000000,138.34690000000000,敷地北東面の前面道路に面して立つ表門。柱間３．８ｍ，高さ２．８ｍ，石造。３０㎝角の石柱を基壇上に建て，表面を小叩き仕上げとし，隅部は磨き仕上げ，頂部は半球形に成形する。扉はもともと設けない。広大な敷地の入口を画し，格式ある表構えを示す。,https://bunka.nii.ac.jp/heritage/43967/_106799/43967_106799111225022306652_300.jpg
101,00005813,森医院中門,もりいいんちゅうもん,1棟,,登録有形文化財(建造物),文化福祉,その他工作,,昭和前,昭和初期,1926-1988,木造、瓦葺、間口2.1m,,15 － 0222,52,,2006.10.18(平成18.10.18),,20061018,,国土の歴史的景観に寄与しているもの,,新潟県,新潟県佐渡市真野新町502-甲,,,,,37.96724000000000,138.34720000000000,主屋東側庭園の際に建ち，間口２．１ｍ，木造，腕木門，切妻造，桟瓦葺とする。主屋東側に広がる庭園と敷地南側の生活空間を隔てる境界をなす。間口の比較的大きな門であるが，造作は単純で簡素である。庭園の景観と一体となり，落着きのある空間を形成。,https://bunka.nii.ac.jp/heritage/43967/_106800/43967_106800111225022308199_300.jpg
101,00005825,機那サフラン酒製造本舗土蔵,きなさふらんしゅせいぞうほんぽどぞう,1棟,,登録有形文化財(建造物),産業2次,建築物,,大正,大正末期,1912-1925,土蔵造2階建、瓦葺、建築面積52㎡,,15 － 0237,53,,2006.11.29(平成18.11.29),,20061129,,再現することが容易でないもの,,新潟県,新潟県長岡市摂田屋4-6-33,,,,,37.41596000000000,138.84060000000000,サフラン酒の醸造で財をなした吉沢仁太郎が建設。桁行５間，梁間３間規模，切妻造，桟瓦葺の土蔵で，基礎は石積み，腰を海鼠壁とする。軒廻り，開口部の&#26979;部と塗戸に，鳳凰，麒麟，恵比須，大黒や十二支などの極彩色鏝絵を施す。左官は地元の河上伊吉と伝える。,https://bunka.nii.ac.jp/heritage/43967/_106811/43967_106811111225022327267_300.jpg
101,00005826,北條家住宅米蔵,ほうじょけじゅうたくこめぐら,1棟,,登録有形文化財(建造物),住宅,建築物,,明治,明治前期,1868-1911,土蔵造及び木造2階建、瓦葺、建築面積106㎡,,15 － 0224,52,2006.11.09(平成18.11.09),2006.10.18(平成18.10.18),,20061018,,国土の歴史的景観に寄与しているもの,,新潟県,新潟県佐渡市泉乙33,,,,,38.02539000000000,138.34590000000000,"敷地西側に東面して建つ。桁行６間半,梁間３間，土蔵造２階建の米蔵の北側及び東側に，木造２階建の蔵前を矩手に設け，全体に切妻造，桟瓦葺の屋根をかける。規模の大きな米蔵で敷地の中でも際だち，大地主の屋敷としての景観を形成している。",https://bunka.nii.ac.jp/heritage/43967/_106812/43967_106812111225022329181_300.jpg
101,00005827,北條家住宅家財蔵,ほうじょうけじゅうたくかざいぐら,1棟,,登録有形文化財(建造物),住宅,建築物,,明治,明治後期,1868-1911,土蔵造2階建、瓦葺、建築面積35㎡,,15 － 0225,52,2006.11.09(平成18.11.09),2006.10.18(平成18.10.18),,20061018,,国土の歴史的景観に寄与しているもの,,新潟県,新潟県佐渡市泉乙33,,,,,38.02549000000000,138.34590000000000,米蔵の北隣に南面して建つ。桁行２間半，梁間２間，土蔵造２階建，切妻造，桟瓦葺とする。外壁を漆喰塗りとし，南側以外を押縁下見板張で保護する。南側は奥行１間の蔵前を設け，米蔵と味噌蔵とを繋ぎ，２棟が一体となった外観を形成している。,https://bunka.nii.ac.jp/heritage/43967/_106813/43967_106813111225022331564_300.jpg
101,00005828,北條家住宅味噌蔵,ほうじょうけじゅうたくみそぐら,1棟,,登録有形文化財(建造物),住宅,建築物,,明治,明治前期,1868-1911,木造2階建、瓦葺、建築面積34㎡,,15 － 0226,52,2006.11.09(平成18.11.09),2006.10.18(平成18.10.18),,20061018,,国土の歴史的景観に寄与しているもの,,新潟県,新潟県佐渡市泉乙33,,,,,38.02550000000000,138.34600000000000,家財蔵の東隣に南面して建つ。桁行２間，梁間２間半，木造２階建，切妻造，桟瓦葺とし，南側に奥行１間半の蔵前が付く。１階は漆喰塗の味噌蔵，２階は形式的な床構えを付けた座敷とする。主屋と蔵前で繋がり，主屋と一体となった外観を形成している。,https://bunka.nii.ac.jp/heritage/43967/_106814/43967_106814111225022332860_300.jpg
101,00005941,蒼柴神社本殿,あおしじんじゃほんでん,1棟,,登録有形文化財(建造物),宗教,建築物,,江戸,天明元,1781,木造平屋建、こけら葺、建築面積14㎡、覆屋付,,15 － 0227,53,,2006.11.29(平成18.11.29),,20061129,,再現することが容易でないもの,,新潟県,新潟県長岡市悠久町707,,宗教法人蒼柴神社,,,37.43240000000000,138.88270000000000,覆屋内に納まる一間社流造，こけら葺の社殿。長岡藩の作事で，棟札から番匠棟梁安達藤佐衛門吉高らが判明。妻飾りは二重虹梁で，虹梁を出組と蛇腹支輪で持ち出し，中備の唐獅子丸彫で棟を受ける。二手先詰組の腰組や背側面の板羽目の浮彫など装飾面で傑出。,https://bunka.nii.ac.jp/heritage/43967/_106926/43967_106926111225022643294_300.jpg
101,00005942,蒼柴神社拝殿,あおしじんじゃはいでん,1棟,,登録有形文化財(建造物),宗教,建築物,,江戸,天明元,1781,木造平屋建、銅板葺、建築面積105㎡,,15 － 0228,53,,2006.11.29(平成18.11.29),,20061129,,造形の規範となっているもの,,新潟県,新潟県長岡市悠久町707,,宗教法人蒼柴神社,,,37.43241000000000,138.88240000000000,本殿の前方，石積基壇上に建つ。桁行５間，梁間３間規模，入母屋造，銅板葺で，背面中央に桁行３間，切妻造の幣殿を本殿側に突出す。向拝は３間で中央間を軒唐破風とし，正面に千鳥破風を付けて全体の棟通りを十字形につくるなど特徴的な屋根構成をもつ。,https://bunka.nii.ac.jp/heritage/43967/_106927/43967_106927111225022645109_300.jpg
101,00005946,石動神社本殿,いするぎじんじゃほんでん,1棟,,登録有形文化財(建造物),宗教,建築物,,昭和前,昭和9,1934,木造平屋建、こけら葺、建築面積1.4㎡,,15 － 0229,53,,2006.11.29(平成18.11.29),,20061129,,再現することが容易でないもの,,新潟県,新潟県長岡市五反田町上ノ山447,,五反田町町内会,,,37.45919000000000,138.77470000000000,覆屋内に納まる。正面柱間３尺規模の一間社流造，こけら葺で，素木でつくる。軒は二軒繁垂木で，向拝の組物は出組とする。地元の大工高木要助元久によるもので，水引虹梁上部の龍などの彫物に見所があり，海老虹梁に根曲材を用いているのが特徴。,https://bunka.nii.ac.jp/heritage/43967/_106931/43967_106931111225022652645_300.jpg
101,00005947,石動神社拝殿,いするぎじんじゃはいでん,1棟,,登録有形文化財(建造物),宗教,建築物,,昭和前,昭和9,1934,木造平屋建、銅板葺、建築面積7.7㎡,,15 － 0230,53,,2006.11.29(平成18.11.29),,20061129,,再現することが容易でないもの,,新潟県,新潟県長岡市五反田町上ノ山447,,五反田町町内会,,,37.45923000000000,138.77470000000000,本殿の前方，石基壇上に建つ。正面の柱間２．８ｍ，梁間２．８ｍ規模の入母屋造，銅板葺，平入拝殿。向拝柱に根曲材を用い，正面上部を櫛形に見せているのが特徴で，水引虹梁上部の龍や木鼻の唐獅子の彫物も躍動的で見応えがある。技巧的な技術に優れ，貴重。,https://bunka.nii.ac.jp/heritage/43967/_106932/43967_106932111225022654506_300.jpg
101,00005948,願興寺経蔵,がんこうじきょうぞう,1棟,,登録有形文化財(建造物),宗教,建築物,,明治,明治後期,1868-1911,土蔵造平屋建、鉄板葺、建築面積21㎡、唐破風向拝付,,15 － 0233,53,,2006.11.29(平成18.11.29),,20061129,,再現することが容易でないもの,,新潟県,新潟県長岡市関原町1-1019,,宗教法人長福寺,,,37.45524000000000,138.77600000000000,石基壇の上に建つ。１辺３．３ｍ，六角形平面の土蔵造経蔵で，屋根は宝形につくり鉄板で葺き，正面に唐破風造の向拝を付ける。地元の大工高木家によるものとされ，向拝の懸魚等の彫物は見事な出来映え。腰部に回した生子鉄板は当初のもので貴重である。,https://bunka.nii.ac.jp/heritage/43967/_106933/43967_106933111225022656275_300.jpg
