台帳ID,管理対象ID,名称,ふりがな,員数,棟名,文化財種類,種別1,種別2,国,時代,年代,西暦,構造及び形式等,その他参考となるべき事項,登録番号,登録回,登録告示年月日,登録年月日,追加年月日,重文指定年月日,国宝指定年月日,登録基準1,登録基準2,都道府県,所在地,保管施設の名称,所有者名,所有者種別,管理団体又は責任者,緯度,経度,解説文,画像URL
101,00000041,金沢市立玉川図書館別館（旧専売公社C-1号工場）,かなざわしりつたまがわとしょかんべっかん（きゅうせんばいこうしゃしーいちごうこうじょう）,1棟,,登録有形文化財(建造物),産業2次,建築物,,明治,明治44,1911,煉瓦造2階建、瓦葺、建築面積691㎡,,17 － 0001,1,1996.12.26(平成8.12.26),1996.12.20(平成8.12.20),,19961220,,造形の規範となっているもの,,石川県,石川県金沢市玉川町２-20,,金沢市,,,36.57004000000000,136.65150000000000,大蔵省臨時建築部によって建設された煙草工場で，設計は建築部長妻木頼黄の下で矢橋賢吉が手がけたと推定されている。１・２階を一体に扱う窓廻りのアーチの構成と煉瓦造の外観に特徴があり，明治の大蔵省臨時建築部の作風を示す標準となる好例である。,https://bunka.nii.ac.jp/heritage/43967/_101031/43967_101031111225010314533_300.jpg
101,00000206,旧三田商店,きゅうみたしょうてん,1棟,,登録有形文化財(建造物),産業3次,建築物,,昭和前,昭和5,1930,鉄筋コンクリート造2階建，建築面積150㎡,,17 － 0004,3,1997.06.24(平成9.06.24),1997.06.12(平成9.06.12),,19970612,,国土の歴史的景観に寄与しているもの,,石川県,石川県金沢市尾張町1-8-5,,,,,36.57070000000000,136.66290000000000,交差点に面する部分を曲線で処理し、スクラッチタイルを貼る外観は質素であるが、正面の出入口に様式建築の装飾を集中させる点は特徴的である。施主の心意気を受けて施工されたこの建物は、金沢に残る数少ない昭和初期の名物建築として親しまれている。,https://bunka.nii.ac.jp/heritage/43967/_101196/43967_101196111225010459536_300.jpg
101,00000404,旧陸軍第九師団司令部庁舎,きゅうりくぐんだいきゅうしだんしれいぶちょうしゃ,1棟,,登録有形文化財(建造物),その他,建築物,,明治,明治31,1898,木造2階建，瓦葺，建築面積275㎡,,17 － 0005,7,1998.01.08(平成10.01.08),1997.12.12(平成9.12.12),,19971212,,造形の規範となっているもの,,石川県,石川県金沢市出羽町7他,,石川県、金沢市,,,36.55990222000000,136.66383453000000,左右対称型の構成になり，正面のペディメントやピラスタ－，上下窓など簡素なルネサンス風の外観を見せる。明治期の庁舎建築の好例。旧金沢城内に建築されたが，昭和４５年に現在地に移築され，その際両翼の一部が切り縮められた。設計は，陸軍経理部。,https://bunka.nii.ac.jp/heritage/43967/_101394/43967_101394621471033165126_300.jpg
101,00000405,旧陸軍金沢偕行社,きゅうりくぐんかなざわかいこうしゃ,1棟,,登録有形文化財(建造物),その他,建築物,,明治,明治31,1898,木造2階建，瓦葺，建築面積282㎡,,17 － 0006,7,1998.01.08(平成10.01.08),1997.12.12(平成9.12.12),,19971212,,造形の規範となっているもの,,石川県,石川県金沢市出羽町7他,,石川県、金沢市,,,36.55976512000000,136.66358937000000,マンサ－ド風の屋根を持つ中央棟の左右に，寄棟の翼屋が付く構造になる。コリント式のピラスターやドーマー窓等バロック風の技巧的な装飾を用いた外観意匠は，全体として華やかで優れている。明治４２年に現在地に移築したと伝える。設計は，陸軍経理部。,https://bunka.nii.ac.jp/heritage/43967/_101395/43967_101395329466560986499_300.jpg
101,00001042,旧月田家住宅,きゅうつきたけじゅうたく,1棟,,登録有形文化財(建造物),住宅,建築物,,江戸,江戸時代末期,1830-1867,木造平屋建，鋼板葺，建築面積80㎡,,17 － 0007,16,1999.03.12(平成11.03.12),1999.02.17(平成11.02.17),,19990217,,国土の歴史的景観に寄与しているもの,,石川県,石川県加賀市大聖寺神明町10,,木谷友子,,,36.30272000000000,136.30770000000000,旧大聖寺藩下級武士の家で，旧藩邸（現錦城小学校）の南方，加賀神明宮などの社寺が集中する地区に建つ。木造平屋の簡素な武家住宅であるが，城下町における武家屋敷の佇まいを伝える数少ない遺構のひとつであり，城下町の空間構成を知るうえでも貴重。,https://bunka.nii.ac.jp/heritage/43967/_102032/43967_102032297595284055002_300.jpg
101,00001057,北前船主屋敷蔵六園（旧酒谷長一郎家住宅）主屋,きたまえせんしゅやしきぞうろくえん（きゅうさかやちょういちろうけじゅうたく）しゅおく,1棟,,登録有形文化財(建造物),住宅,建築物,,明治,明治3頃,1870頃,木造２階建，瓦葺，建築面積369㎡,,17 － 0022,16,1999.03.12(平成11.03.12),1999.02.17(平成11.02.17),,19990217,,再現することが容易でないもの,,石川県,石川県加賀市橋立町ラ47,,,,,36.34900000000000,136.30960000000000,北前船の船主であった酒屋宗七郎の居宅として建築されたと伝える大規模な主屋である。敷地の中央にあり，木々の間にゆったりとした妻を見せて建つ。背後に離れ座敷及び隠居部屋が付属するが，主体部は伝統的な平面形態を踏襲する質の高い建物である。,https://bunka.nii.ac.jp/heritage/43967/_102047/43967_102047111225011426833_300.jpg
101,00001058,北前船主屋敷蔵六園（旧酒谷長一郎家住宅）土蔵１,きたまえせんしゅやしきぞうろくえん（きゅうさかやちょういちろうけじゅうたく）どぞういち,1棟,,登録有形文化財(建造物),住宅,建築物,,明治,明治23,1890,木造２階建，前室附属，瓦葺，建築面積30㎡,,17 － 0023,16,1999.03.12(平成11.03.12),1999.02.17(平成11.02.17),,19990217,,国土の歴史的景観に寄与しているもの,,石川県,石川県加賀市橋立町ラ47,,,,,36.34908000000000,136.30960000000000,主屋の背後に位置し，離れ座敷及び隠居部屋とも中庭を囲むように建つ小規模な土蔵。北妻側に出入口があり，庇屋根を架けて蔵前を造っている。主屋等とは廊下で繋がっているが，上部を白漆喰，下部をなまこ壁で仕上げる外観はひときわ目立つ存在となっている。,https://bunka.nii.ac.jp/heritage/43967/_102048/43967_102048111225011427343_300.jpg
101,00001059,北前船主屋敷蔵六園（旧酒谷長一郎家住宅）土蔵２,きたまえせんしゅやしきぞうろくえん（きゅうさかやちょういちろうけじゅうたく）どぞうに,1棟,,登録有形文化財(建造物),住宅,建築物,,明治,明治23,1890,木造２階建，瓦葺，建築面積20㎡,,17 － 0024,16,1999.03.12(平成11.03.12),1999.02.17(平成11.02.17),,19990217,,国土の歴史的景観に寄与しているもの,,石川県,石川県加賀市橋立町ラ47,,,,,36.34887000000000,136.30980000000000,主屋の東南に建つ２階建の美術品や道具を納めた土蔵。主屋とつながる蔵前（北・西面）には現在改造がみられるが，本体の主要部分の保存状況は良好である。道路沿いに妻を見せ，軒廻りは漆喰仕上げとするほかは竪板貼りとし屋敷構えの景観を整えている。,https://bunka.nii.ac.jp/heritage/43967/_102049/43967_102049111225011427849_300.jpg
101,00001060,北前船主屋敷蔵六園（旧酒谷長一郎家住宅）物置１・下男小屋,きたまえせんしゅやしきぞうろくえん（きゅうさかやちょういちろうけじゅうたく）ものおきいち・げなんごや,1棟,,登録有形文化財(建造物),住宅,建築物,,大正,大正9,1920,木造平屋建，瓦葺，建築面積37㎡，袖塀3.9m附属,,17 － 0025,16,1999.03.12(平成11.03.12),1999.02.17(平成11.02.17),,19990217,,国土の歴史的景観に寄与しているもの,,石川県,石川県加賀市橋立町ラ47,,,,,36.34906000000000,136.31000000000000,主屋の建つ敷地の東面北側にあり，道路に接して建つ簡素な造りになる建屋。平面は，南半が土間及び居室からなる下男小屋で，西側は土庇となる。北半は内部を土間とする物置（もと炭小屋）であった。かつての生活の有様の一端を知る上で貴重な存在である。,https://bunka.nii.ac.jp/heritage/43967/_102050/43967_102050111225011429045_300.jpg
101,00001061,北前船主屋敷蔵六園（旧酒谷長一郎家住宅）土蔵３,きたまえせんしゅやしきぞうろくえん（きゅうさかやちょういちろうけじゅうたく）どぞうさん,1棟,,登録有形文化財(建造物),住宅,建築物,,明治,明治23,1890,木造２階建，瓦葺，建築面積26㎡,,17 － 0026,16,1999.03.12(平成11.03.12),1999.02.17(平成11.02.17),,19990217,,国土の歴史的景観に寄与しているもの,,石川県,石川県加賀市橋立町ラ47,,,,,36.34909000000000,136.31010000000000,主屋の建つ敷地の向かい側にある一連の土蔵群の北端にあり，道路に接する切石積みの基礎の上に建つ小規模の土蔵。南妻側に庇屋根を架け蔵前として出入口を設ける。家財道具を収納する蔵で，外観は軒廻りを除き竪板貼りとする標準的なつくりになる。,https://bunka.nii.ac.jp/heritage/43967/_102051/43967_102051111225011429543_300.jpg
101,00001062,北前船主屋敷蔵六園（旧酒谷長一郎家住宅）土蔵４,きたまえせんしゅやしきぞうろくえん（きゅうさかやちょういちろうけじゅうたく）どぞうよん,1棟,,登録有形文化財(建造物),住宅,建築物,,大正,大正9,1920,木造平屋建，瓦葺，建築面積25㎡,,17 － 0027,16,1999.03.12(平成11.03.12),1999.02.17(平成11.02.17),,19990217,,国土の歴史的景観に寄与しているもの,,石川県,石川県加賀市橋立町ラ47,,,,,36.34909000000000,136.31010000000000,土蔵３と並行してその東側に建つ平屋建の小規模な平屋建の建物。漁労具や葬式用具等を納めた蔵で，基礎廻りの石積みが低く，外壁を総竪板貼りとして軒廻りの垂木をそのままみせるなど，全体として極めて簡素な造りになる。,https://bunka.nii.ac.jp/heritage/43967/_102052/43967_102052111225011430051_300.jpg
101,00001063,北前船主屋敷蔵六園（旧酒谷長一郎家住宅）土蔵５,きたまえせんしゅやしきぞうろくえん（きゅうさかやちょういちろうけじゅうたく）どぞうご,1棟,,登録有形文化財(建造物),住宅,建築物,,明治,明治23,1890,木造２階建，瓦葺，建築面積38㎡,,17 － 0028,16,1999.03.12(平成11.03.12),1999.02.17(平成11.02.17),,19990217,,国土の歴史的景観に寄与しているもの,,石川県,石川県加賀市橋立町ラ47,,,,,36.34886000000000,136.31000000000000,前面道路に沿って建つ妻入の２階建土蔵で，切石積みの基礎上に建ち，１階は味噌の保管に用い，２階に文書類を納めた。妻側にのみ窓を設ける極めて閉鎖的な外観になるが，他の土蔵同様に軒廻りを除き竪板貼りとし，周辺の建物との調和を保っている。,https://bunka.nii.ac.jp/heritage/43967/_102053/43967_102053111225011430560_300.jpg
101,00001064,北前船主屋敷蔵六園（旧酒谷長一郎家住宅）土蔵６,きたまえせんしゅやしきぞうろくえん（きゅうさかやちょういちろうけじゅうたく）どぞうろく,1棟,,登録有形文化財(建造物),住宅,建築物,,大正,大正期,1912-1925,木造２階建，瓦葺，建築面積36㎡,,17 － 0029,16,1999.03.12(平成11.03.12),1999.02.17(平成11.02.17),,19990217,,国土の歴史的景観に寄与しているもの,,石川県,石川県加賀市橋立町ラ47,,,,,36.34879000000000,136.30990000000000,前面道路側に出入口を設けた２階建，妻入の土蔵。家財道具類を納めた蔵で，土蔵５と土蔵７・８の間に建つ。外観は素朴だが，蔵前部分は正面に引違戸を置き，左右の外壁は漆喰仕上げとするが，腰下は押縁板貼りとして変化を与えている。,https://bunka.nii.ac.jp/heritage/43967/_102054/43967_102054111225011431079_300.jpg
101,00001065,北前船主屋敷蔵六園（旧酒谷長一郎家住宅）土蔵７・８,きたまえせんしゅやしきぞうろくえん（きゅうさかやちょういちろうけじゅうたく）どぞうなな・はち,1棟,,登録有形文化財(建造物),住宅,建築物,,大正,大正期,1912-1925,木造平屋建，物置部分附属，瓦葺，建築面積54㎡,,17 － 0030,16,1999.03.12(平成11.03.12),1999.02.17(平成11.02.17),,19990217,,国土の歴史的景観に寄与しているもの,,石川県,石川県加賀市橋立町ラ47,,,,,36.34872000000000,136.30990000000000,軒を接して並列して建つ平入の２棟の土蔵に覆屋をかけた形の建物で，米蔵として利用されていた。覆屋の外観は，軒廻りを漆喰で塗り込め外壁を竪板貼りとするなど周辺の土蔵にあわせて一連の景観を形成する形になっている。,https://bunka.nii.ac.jp/heritage/43967/_102055/43967_102055111225011433466_300.jpg
101,00001066,北前船主屋敷蔵六園（旧酒谷長一郎家住宅）門１,きたまえせんしゅやしきぞうろくえん（きゅうさかやちょういちろうけじゅうたく）もんいち,1棟,,登録有形文化財(建造物),住宅,その他工作,,大正,大正期,1912-1925,木造，瓦葺，幅1.8m，塀延長3.6m附属,,17 － 0031,16,1999.03.12(平成11.03.12),1999.02.17(平成11.02.17),,19990217,,国土の歴史的景観に寄与しているもの,,石川県,石川県加賀市橋立町ラ47,,,,,36.34902000000000,136.30990000000000,主屋玄関口の北脇に建つ塀を兼ねる屋根付きの簡素な門で，１間幅の出入り口部分は板戸引き違いとする。両脇は真壁造りになり，上部が黒漆喰塗りで腰下は竪板貼りとする。主屋の建つ敷地の内向き部分を画する門で，生活の有様を知る上で貴重である。,https://bunka.nii.ac.jp/heritage/43967/_102056/43967_102056111225011433969_300.jpg
101,00001067,北前船主屋敷蔵六園（旧酒谷長一郎家住宅）門２,きたまえせんしゅやしきぞうろくえん（きゅうさかやちょういちろうけじゅうたく）もんに,1棟,,登録有形文化財(建造物),住宅,その他工作,,大正,大正期,1912-1925,木造，瓦葺，塀延長6.9m附属,,17 － 0032,16,1999.03.12(平成11.03.12),1999.02.17(平成11.02.17),,19990217,,国土の歴史的景観に寄与しているもの,,石川県,石川県加賀市橋立町ラ47,,,,,36.34898000000000,136.30990000000000,主屋正面に設けられた一対の太い角柱の親柱だけからなる門で，頭部に銅製の蓋が付く。門の両脇には透かし付きの低い塀及び腰高塀が取り付き，屋敷地の外観を飾っている。簡素ながら落ち着いた構えは，北前船の船主の居宅にふさわしい独特の威厳が感じられる。,https://bunka.nii.ac.jp/heritage/43967/_102057/43967_102057111225011434224_300.jpg
101,00001068,白銀屋旅館本館,しろがねやりょかんほんかん,1棟,,登録有形文化財(建造物),産業3次,建築物,,江戸,文政年間,1818-1830,木造２階建，瓦葺，建築面積520㎡,,17 － 0033,16,1999.03.12(平成11.03.12),1999.02.17(平成11.02.17),,19990217,,再現することが容易でないもの,,石川県,石川県加賀市山代温泉万松通７,,星野リゾート・リート投資法人,営利法人,,36.28879000000000,136.36090000000000,山代温泉で江戸時代から続く老舗の旅館。本館は，間口の広い町家で，吹き抜けに架構をみせた「わくのうち」と呼ばれる構法を用いた部屋を持つ，この地方特有の形式になる。正面にべんがら格子を入れ，両袖にうだつを建てた外観にも特徴がある。,https://bunka.nii.ac.jp/heritage/43967/_102058/43967_102058299889754777326_300.jpg
101,00001069,白銀屋旅館茶室,しろがねやりょかんちゃしつ,1棟,,登録有形文化財(建造物),産業3次,建築物,,明治,明治期,1868-1911,木造平屋建，瓦葺，建築面積49㎡,,17 － 0034,16,1999.03.12(平成11.03.12),1999.02.17(平成11.02.17),,19990217,,国土の歴史的景観に寄与しているもの,,石川県,石川県加賀市山代温泉万松通７,,星野リゾート・リート投資法人,営利法人,,36.28892000000000,136.36060000000000,山代温泉では建築年代が古い旅館の付属施設で，敷地の北西隅に建つ。外観は簡素で一部に改造もみられるが，内部は木部全体を漆塗りで仕上げ，天井を折り上げるなど書院風のつくりになり，建築当初の雰囲気をよくとどめている。,https://bunka.nii.ac.jp/heritage/43967/_102059/43967_102059123111186554397_300.jpg
101,00001071,山岡商山堂（山岡ビル）,やまおかしょうざんどう（やまおかびる）,1棟,,登録有形文化財(建造物),産業3次,建築物,,昭和前,昭和7,1932,鉄筋コンクリート造２階建，建築面積108㎡,,17 － 0036,16,1999.03.12(平成11.03.12),1999.02.17(平成11.02.17),,19990217,,造形の規範となっているもの,,石川県,石川県加賀市山中温泉湯の出町レ26-3,,,,,36.24621000000000,136.37280000000000,山中温泉の中心街にある。もと漆器店の本店で現在はギャラリー等に利用されている。昭和６年の大火後に建てられたもので，地域で最初期の鉄筋コンクリート造の建物として貴重。交差点に面したつくられた入口廻りの装飾等にも時代の特徴があらわれている。,https://bunka.nii.ac.jp/heritage/43967/_102061/43967_102061111225011437154_300.jpg
101,00001376,時習庵主屋（旧堀家住宅）,じしゅうあんしゅおく（きゅうほりけじゅうたく）,1棟,,登録有形文化財(建造物),住宅,建築物,,明治,明治期／昭和16一部改築,1868-1911／1941一部改造,木造2階建、瓦葺、建築面積76㎡,,17 － 0037,20,1999.10.28(平成11.10.28),1999.10.14(平成11.10.14),,19991014,,国土の歴史的景観に寄与しているもの,,石川県,石川県加賀市大聖寺神明町20,,,,,36.30434000000000,136.30670000000000,山裾に位置する旧武家屋敷地に営まれた近代和風住宅。道路に面する切妻造，２階建ての玄関棟の後方に入母屋造，平屋の座敷棟が接続する。座敷二室と広縁からなる座敷棟，昭和１６年建て替えの玄関棟ともに，木柄が細く，生漆塗りの上質な建築。,https://bunka.nii.ac.jp/heritage/43967/_102366/43967_102366111225011739200_300.jpg
101,00001377,時習庵土蔵（旧実性院土蔵）,じしゅうあんどぞう（きゅうじっしょういんどぞう）,1棟,,登録有形文化財(建造物),宗教,建築物,,江戸,江戸後期,1751-1829,木造2階建、瓦葺、建築面積33㎡,,17 － 0038,20,1999.10.28(平成11.10.28),1999.10.14(平成11.10.14),,19991014,,再現することが容易でないもの,,石川県,石川県加賀市大聖寺神明町20,,,,,36.30416000000000,136.30670000000000,主屋の後方に位置し，背後の山際に建つ２階建ての土蔵。平成９年に現在地に移築の際，腐食していた１階壁体部分はコンクリートに改めている。もとは加賀藩の枝藩大聖寺藩主前田家の菩提寺である実性院にあったもので，天明年間の建築と伝える。,https://bunka.nii.ac.jp/heritage/43967/_102367/43967_102367111225011740480_300.jpg
101,00002033,浅野川大橋,あさのがわおおはし,1基,,登録有形文化財(建造物),交通,土木構造物,,大正,大正11,1922,鉄筋コンクリート造3連アーチ橋、橋長55m、幅員17m,,17 － 0039,27,2000.12.20(平成12.12.20),2000.12.04(平成12.12.04),,20001204,,造形の規範となっているもの,,石川県,石川県金沢市橋場町・主計町～東山,,国（国土交通省）,,,36.57208000000000,136.66440000000000,藩政時代からの交通の要所にあり，現国道１５７号線上，浅野川に架かる橋長５５ｍ，幅員１７ｍの鉄筋コンクリート造３連充腹アーチ橋。スパンドレル部をドイツ壁風に，アーチ環を目地付きコンクリート洗出しで仕上げ，橋脚の水切部に花崗岩を用いる。,https://bunka.nii.ac.jp/heritage/43967/_103023/43967_103023111225012455183_300.jpg
101,00002034,犀川大橋,さいがわおおはし,1基,,登録有形文化財(建造物),交通,土木構造物,,大正,大正13,1924,曲弦トラス単鋼橋、橋長62m、幅員22m,,17 － 0040,27,2000.12.20(平成12.12.20),2000.12.04(平成12.12.04),,20001204,,国土の歴史的景観に寄与しているもの,,石川県,石川県金沢市片町～野町・千日町,,国（国土交通省）,,,36.55848000000000,136.65040000000000,浅野川大橋同様，市電建設計画の一環で広幅員道路として設計された，犀川に架かる橋長６２ｍ，幅員２２ｍの鋼製曲弦ワーレントラス橋。橋門構，支材，鉛直材に形式の異なるトラス材が使い分けられ，軽量化が図られる。設計は関場茂樹。平成６年に鋼材を補修。,https://bunka.nii.ac.jp/heritage/43967/_103024/43967_103024111225012455682_300.jpg
101,00002141,北大路魯山人寓居主屋,きたおおじろさんじんぐうきょしゅおく,1棟,,登録有形文化財(建造物),住宅,建築物,,明治,明治初期,1868-1911,木造2階建、瓦葺、建築面積72㎡,,17 － 0041,28,2001.05.15(平成13.05.15),2001.04.24(平成13.04.24),,20010424,,国土の歴史的景観に寄与しているもの,,石川県,石川県加賀市山代温泉18-5,,加賀市,,,36.28750000000000,136.36060000000000,加賀山代温泉の中心街，服部神社下に位置する。北大路魯山人が大正期に山代温泉滞在中に仕事場とした建物として知られる。木造２階建，切妻造で，当地方に見られる妻構成をとるが，北東部を入隅として奥まったところに玄関を設け，煙出の小屋根を載せる。,https://bunka.nii.ac.jp/heritage/43967/_103131/43967_103131111225012602672_300.jpg
101,00002142,北大路魯山人寓居土蔵,きたおおじろさんじんぐうきょどぞう,1棟,,登録有形文化財(建造物),住宅,建築物,,明治,明治23,1890,土蔵造2階建、亜鉛鉄板葺、建築面積26㎡,,17 － 0042,28,2001.05.15(平成13.05.15),2001.04.24(平成13.04.24),,20010424,,国土の歴史的景観に寄与しているもの,,石川県,石川県加賀市山代温泉18-5,,,,,36.28751000000000,136.36050000000000,屋敷地の西端に位置し，主屋とは棟を直交する形で建つ。南北棟，切妻造，桟瓦葺の２階建土蔵で，桁行４間，梁行２間規模，北面と東面に戸前を設け，南面に小さな窓を開ける。主屋とともに，魯山人ゆかりの建造物として親しまれている。,https://bunka.nii.ac.jp/heritage/43967/_103132/43967_103132111225012603192_300.jpg
101,00002231,末浄水場一号緩速沈澱池,すえじょうすいじょういちごうかんそくちんでんち,1基,,登録有形文化財(建造物),生活関連,土木構造物,,昭和前,昭和5,1930,鉄筋コンクリート造、面積2848㎡,,17 － 0043,29,2001.09.14(平成13.09.14),2001.08.28(平成13.08.28),,20010828,,国土の歴史的景観に寄与しているもの,,石川県,石川県金沢市末町1-1,,金沢市,,,36.51243000000000,136.70040000000000,市中心部の南方，犀川中流部に位置する。金沢市創設水道の浄水場施設で，一号沈澱池は，敷地南部に位置する面積２８４８㎡の鉄筋コンクリート造水槽。下部約４ｍの側壁を法面勾配１割５分でつくり，隅部に同勾配で約８ｍ長の階段１基が築かれる。,https://bunka.nii.ac.jp/heritage/43967/_103221/43967_103221111225012658920_300.jpg
101,00002232,末浄水場二号緩速沈澱池,すえじょうすいじょうにごうかんそくちんでんち,1基,,登録有形文化財(建造物),生活関連,土木構造物,,昭和前,昭和5,1930,鉄筋コンクリート造、面積2848㎡,,17 － 0044,29,2001.09.14(平成13.09.14),2001.08.28(平成13.08.28),,20010828,,国土の歴史的景観に寄与しているもの,,石川県,石川県金沢市末町1-1,,金沢市,,,36.51284000000000,136.70070000000000,一号緩速沈澱池の北側に位置する。他の沈澱池同様，地下湧水処理用の土管を池下方に敷設する。コンクリートの伸縮作用に備え，池全体が１２分割され，表面全体にモルタル工を施す。伸縮接手にアスファルトと鉛板を用い，池の水密性を高める。,https://bunka.nii.ac.jp/heritage/43967/_103222/43967_103222111225012659173_300.jpg
101,00002233,末浄水場三号緩速沈澱池,すえじょうすいじょうさんごうかんそくちんでんち,1基,,登録有形文化財(建造物),生活関連,土木構造物,,昭和前,昭和5,1930,鉄筋コンクリート造、面積2848㎡,,17 － 0045,29,2001.09.14(平成13.09.14),2001.08.28(平成13.08.28),,20010828,,国土の歴史的景観に寄与しているもの,,石川県,石川県金沢市末町1-1,,金沢市,,,36.51326000000000,136.70100000000000,二号緩速沈澱池の北側にある。白山連峰に連なる山岳地帯を集水源とする犀川上流部から引かれた水は，正門前の道路下に敷設された導水管を通り，敷地南端正門横の着水井，緩速原水処理機を経由して，沈澱池の東側から前述２基の緩速沈澱池に均等に配水される。,https://bunka.nii.ac.jp/heritage/43967/_103223/43967_103223111225012659437_300.jpg
101,00002234,末浄水場一号緩速ろ過池,すえじょうすいじょういちごうかんそくろかち,1基,,登録有形文化財(建造物),生活関連,土木構造物,,昭和前,昭和6,1931,鉄筋コンクリート造、面積1375㎡、浄水井付,,17 － 0046,29,2001.09.14(平成13.09.14),2001.08.28(平成13.08.28),,20010828,,国土の歴史的景観に寄与しているもの,,石川県,石川県金沢市末町1-1,,金沢市,,,36.51300000000000,136.69860000000000,沈澱池の西端から引かれた水が，低地にある６基の緩速ろ過池に配水される。一号ろ過池はろ過池全体の東南端にあり，他と同様にほぼ垂直に切り立った鉄筋コンクリート造壁面に囲まれた面積１３７５㎡の構造物で，池の北側にコンクリート造浄水井を設ける。,https://bunka.nii.ac.jp/heritage/43967/_103224/43967_103224111225012659704_300.jpg
101,00002235,末浄水場二号緩速ろ過池,すえじょうすいじょうにごうかんそくろかち,1基,,登録有形文化財(建造物),生活関連,土木構造物,,昭和前,昭和6,1931,鉄筋コンクリート造、面積1375㎡、浄水井付,,17 － 0047,29,2001.09.14(平成13.09.14),2001.08.28(平成13.08.28),,20010828,,国土の歴史的景観に寄与しているもの,,石川県,石川県金沢市末町1-1,,金沢市,,,36.51346000000000,136.69890000000000,一号緩速ろ過池の通路を挟んだ北側にある。伸縮作用を考慮し２５区画に分割し，煉瓦，多孔鉄筋コンクリート板，砂を敷いたろ床中央に，浄水井に向かって１／１１８の勾配を有す約０．９ｍ幅の集水渠を設ける。伸縮接手に緩速沈殿地と同様の加工を施す。,https://bunka.nii.ac.jp/heritage/43967/_103225/43967_103225111225012700222_300.jpg
101,00002236,末浄水場三号緩速ろ過池,すえじょうすいじょうさんごうかんそくろかち,1基,,登録有形文化財(建造物),生活関連,土木構造物,,昭和前,昭和6,1931,鉄筋コンクリート造、面積1375㎡、浄水井付,,17 － 0048,29,2001.09.14(平成13.09.14),2001.08.28(平成13.08.28),,20010828,,国土の歴史的景観に寄与しているもの,,石川県,石川県金沢市末町1-1,,金沢市,,,36.51311000000000,136.69830000000000,一号緩速ろ過池の西側に位置し，隔壁を兼ねた管理用通路によって両側のろ過池と仕切られる。ろ過池通路側の両端に管を１基ずつ設け溢水に備える。ろ過水を集水する浄水井は，コンクリート造水槽で，笠石に花崗石を用い，蓋を縞鋼板で覆う。,https://bunka.nii.ac.jp/heritage/43967/_103226/43967_103226111225012700775_300.jpg
101,00002237,末浄水場四号緩速ろ過池,すえじょうすいじょうよんごうかんそくろかち,1基,,登録有形文化財(建造物),生活関連,土木構造物,,昭和前,昭和6,1931,鉄筋コンクリート造、面積1375㎡、浄水井付,,17 － 0049,29,2001.09.14(平成13.09.14),2001.08.28(平成13.08.28),,20010828,,国土の歴史的景観に寄与しているもの,,石川県,石川県金沢市末町1-1,,金沢市,,,36.51361000000000,136.69850000000000,二号緩速ろ過池の西側に位置する。池の南側に，鉄筋コンクリート造，建築面積１４㎡でほぼ正方形平面をした浄水井上屋を構える。上屋は，通路側を正面とし，笠石を花崗岩とした基壇を４周に廻し前面に凸形曲線を有する袖に挟まれた階段３段をつける。,https://bunka.nii.ac.jp/heritage/43967/_103227/43967_103227111225012703907_300.jpg
101,00002238,末浄水場五号緩速ろ過池,すえじょうすいじょうごごうかんそくろかち,1基,,登録有形文化財(建造物),生活関連,土木構造物,,昭和前,昭和6,1931,鉄筋コンクリート造、面積1375㎡、浄水井付,,17 － 0050,29,2001.09.14(平成13.09.14),2001.08.28(平成13.08.28),,20010828,,国土の歴史的景観に寄与しているもの,,石川県,石川県金沢市末町1-1,,金沢市,,,36.51324000000000,136.69790000000000,三号緩速ろ過池の西側に位置する。正面開口部を凸型曲面で縁取り門柱形とした浄水井上屋を構える。上屋は，躯体の４隅を曲面で仕上げ，正面以外の各側面に２つの縦長を並置する。屋根を階段状造り，中央に小ドームを載せて外観にアクセントを与えている。,https://bunka.nii.ac.jp/heritage/43967/_103228/43967_103228111225012704404_300.jpg
101,00002239,末浄水場六号緩速ろ過池,すえじょうすいじょうろくごうかんそくろかち,1基,,登録有形文化財(建造物),生活関連,土木構造物,,昭和前,昭和6,1931,鉄筋コンクリート造、面積1375㎡、浄水井付,,17 － 0051,29,2001.09.14(平成13.09.14),2001.08.28(平成13.08.28),,20010828,,国土の歴史的景観に寄与しているもの,,石川県,石川県金沢市末町1-1,,金沢市,,,36.51373000000000,136.69820000000000,四号緩速ろ過池の西側，ろ過池全体の北西端に位置する。東西方向に延びる通路の下に布設された集水管にろ過水が合流する。小規模ながらも，通路を軸に３基づつ左右対称に配置された浄水井は，周辺景観に溶け込み，市民に広く親しまれている。,https://bunka.nii.ac.jp/heritage/43967/_103229/43967_103229111225012704914_300.jpg
101,00002240,末浄水場緩速浄水集合井,すえじょうすいじょうかんそくじょうすいしゅうごうせい,1棟,,登録有形文化財(建造物),生活関連,建築物,,昭和前,昭和5,1930,鉄筋コンクリート造平屋建、建築面積26㎡,,17 － 0052,29,2001.09.14(平成13.09.14),2001.08.28(平成13.08.28),,20010828,,造形の規範となっているもの,,石川県,石川県金沢市末町1-1,,金沢市,,,36.51401000000000,136.69710000000000,敷地の西端，緩速ろ過池中央通路の先端部に位置する。当初計画されていた円形平面は，井面積拡大の要請により小判型平面となる。鉄筋コンクリート造上屋の側面に，大小３つの半円アーチを配し，スパンドレルに円をモチーフとした浮彫をあしらう。,https://bunka.nii.ac.jp/heritage/43967/_103230/43967_103230111225012705426_300.jpg
101,00002241,末浄水場緩速浄水ポンプ室,すえじょうすいじょうかんそくじょうすいぽんぷしつ,1棟,,登録有形文化財(建造物),生活関連,建築物,,昭和前,昭和7,1932,鉄筋コンクリート造平屋建、建築面積12㎡,,17 － 0053,29,2001.09.14(平成13.09.14),2001.08.28(平成13.08.28),,20010828,,国土の歴史的景観に寄与しているもの,,石川県,石川県金沢市末町1-1,,金沢市,,,36.51412000000000,136.69720000000000,緩速浄水集合井の北側に位置する旧塩素滅菌室。ろ過池側を正面として建つ。矩形平面の平屋建鉄筋コンクリート造建築で，各立面を柱型と梁型により縁取る特徴的な意匠でまとめる。金沢市創設水道は大井清一，石井一夫によって計画・設計された。,https://bunka.nii.ac.jp/heritage/43967/_103231/43967_103231111225012705933_300.jpg
101,00002380,松任市ふるさと館（旧吉田家住宅）主屋,まっとうしふるさとかん（きゅうよしだけじゅうたく）しゅおく,1棟,,登録有形文化財(建造物),住宅,建築物,,明治,明治前期／大正1移築,1868-1911／1912移築,木造2階建、瓦葺、建築面積449㎡,,17 － 0054,30,2001.10.29(平成13.10.29),2001.10.12(平成13.10.12),,20011012,,造形の規範となっているもの,,石川県,石川県白山市殿町56,,白山市,,,36.52625000000000,136.56730000000000,ＪＲ北陸本線松任駅の駅前に建つ地元実業家の邸宅。もと南方の安吉地区に所在した加賀特有の妻入民家を移築し，北妻側に移築部とは棟を直交させた片流状の屋根を架け，正面中央に入母屋造の車寄を付ける。伝統的民家の近代における増築の在り方を示す一例。,https://bunka.nii.ac.jp/heritage/43967/_103370/43967_103370111225012839653_300.jpg
101,00002381,松任市ふるさと館（旧吉田家住宅）物置一,まっとうしふるさとかん（きゅうよしだけじゅうたく）ものおきいち,1棟,,登録有形文化財(建造物),住宅,建築物,,大正,大正1頃,1912頃,木造平屋建、瓦葺、建築面積20㎡,,17 － 0055,30,2001.10.29(平成13.10.29),2001.10.12(平成13.10.12),,20011012,,国土の歴史的景観に寄与しているもの,,石川県,石川県白山市殿町56,,白山市,,,36.52648000000000,136.56740000000000,主屋の北方，敷地の北辺に位置する表門の東に建つ。東西棟，切妻造，桟瓦葺の長屋風建家で，桁行４間半，梁間２間の規模を有し，南面に入口，東端に通用門を開ける。駅前広場側の北面は，水路に沿った亀甲積石垣と木柄の太い押縁等により整った外構を造る。,https://bunka.nii.ac.jp/heritage/43967/_103371/43967_103371111225012840167_300.jpg
101,00002382,松任市ふるさと館（旧吉田家住宅）物置二,まっとうしふるさとかん（きゅうよしだけじゅうたく）ものおきに,1棟,,登録有形文化財(建造物),住宅,建築物,,大正,大正1頃,1912頃,木造平屋建、瓦葺、建築面積12㎡,,17 － 0056,30,2001.10.29(平成13.10.29),2001.10.12(平成13.10.12),,20011012,,国土の歴史的景観に寄与しているもの,,石川県,石川県白山市殿町56,,白山市,,,36.52647000000000,136.56720000000000,門の西方に建つ。門東方の物置一とほぼ同様の造りになり，南面に引違格子戸と引違ガラス戸を入れるが，桁行は２間半と小さい。北面も物置一と同様に亀甲積石垣上に押縁下見の外壁をつくり，門寄りに格子窓を開ける。表構えに欠くことのできない存在。,https://bunka.nii.ac.jp/heritage/43967/_103372/43967_103372111225012840689_300.jpg
101,00002383,松任市ふるさと館（旧吉田家住宅）門,まっとうしふるさとかん（きゅうよしだけじゅうたく）もん,1棟,,登録有形文化財(建造物),住宅,その他工作,,大正,大正1頃,1912頃,木造、銅板葺、間口2.4m、東側脇門付,,17 － 0057,30,2001.10.29(平成13.10.29),2001.10.12(平成13.10.12),,20011012,,国土の歴史的景観に寄与しているもの,,石川県,石川県白山市殿町56,,白山市,,,36.52648000000000,136.56730000000000,１間１戸，銅板葺の平唐門で，主屋玄関の真北からやや東に寄った位置に建つ。東方の物置一との間に銅板葺，起り屋根のやや広めの脇門を，西方の物置二との間に銅板葺，起り屋根の狭めの通用門を従える。両物置と一体となり品格ある門構えをつくっている。,https://bunka.nii.ac.jp/heritage/43967/_103373/43967_103373111225012841202_300.jpg
101,00002384,福岡第一発電所,ふくおかだいいちはつでんしょ,1棟,,登録有形文化財(建造物),生活関連,建築物,,明治,明治44,1911,煉瓦造地下1階地上2階建、瓦葺、建築面積641㎡,,17 － 0058,30,2001.10.29(平成13.10.29),2001.10.12(平成13.10.12),,20011012,,国土の歴史的景観に寄与しているもの,,石川県,石川県白山市河内町福岡日171-2,,北陸電力株式会社,,,36.40074000000000,136.62720000000000,村北西部，国道１５７号沿いの水力発電所の建屋。キングポストトラスを用い，切妻造，煉瓦造２階建とする。要石，迫持石等に石材を用い，上下の半円アーチ・丸窓と，３方向の妻に付く丸窓とコーニスに特徴をもつ外観が，自然景観の中で際だっている。,https://bunka.nii.ac.jp/heritage/43967/_103374/43967_103374111225012842576_300.jpg
101,00002917,やちや酒造主屋,やちやしゅぞうしゅおく,1棟,,登録有形文化財(建造物),産業2次,建築物,,江戸,江戸後期,1751-1829,木造2階建、瓦葺、建築面積162㎡,,17 － 0059,34,2002.09.03(平成14.09.03),2002.08.21(平成14.08.21),,20020821,,造形の規範となっているもの,,石川県,石川県金沢市大樋町8-32,,,,,36.58561000000000,136.67570000000000,金沢城北方に所在する老舗の造り酒屋。南北に長い敷地で，南側街路に面して建つ主屋は，間口７間の２階建で，屋根は切妻造・桟瓦葺，幅広の下屋庇をつける。改造はあるのもの，伝統的な外観を保ち，内部も豪快な梁組をみせるなど，商家のつくりをよく伝える。,https://bunka.nii.ac.jp/heritage/43967/_103907/43967_103907111225013401654_300.jpg
101,00002918,やちや酒造道具蔵,やちやしゅぞうどうぐぐら,1棟,,登録有形文化財(建造物),産業2次,建築物,,江戸,江戸後期,1751-1829,土蔵造2階建、瓦葺、建築面積45㎡,,17 － 0060,34,2002.09.03(平成14.09.03),2002.08.21(平成14.08.21),,20020821,,造形の規範となっているもの,,石川県,石川県金沢市大樋町8-32,,,,,36.58581000000000,136.67550000000000,金沢城北方に所在する老舗の造り酒屋。南側の主屋後方，南北に長い敷地中央に建ち，主屋とほぼ同時期のものと思われる。製造業の屋敷構成に欠かせない施設。木造・２階建の土蔵造で，戸口に黒漆喰塗の観音扉を用いるなど，重厚で丁寧なつくりである。,https://bunka.nii.ac.jp/heritage/43967/_103908/43967_103908111225013401911_300.jpg
101,00002919,やちや酒造酒蔵,やちやしゅぞうさかぐら,1棟,,登録有形文化財(建造物),産業2次,建築物,,江戸,江戸後期,1751-1829,土蔵造2階建、瓦葺、建築面積132㎡,,17 － 0061,34,2002.09.03(平成14.09.03),2002.08.21(平成14.08.21),,20020821,,造形の規範となっているもの,,石川県,石川県金沢市大樋町8-32,,,,,36.58592000000000,136.67560000000000,金沢城北方に所在する老舗の造り酒屋。南北に長い敷地中央に建つ道具蔵の北側にあり，主屋とほぼ同時期のものと思われ，伝統的な酒造産業に欠かせない施設。東西棟で桟瓦葺，桁行約約１９ｍで２階建の細長い建物で，酒蔵らしい空間構成をよく保持している。,https://bunka.nii.ac.jp/heritage/43967/_103909/43967_103909111225013402170_300.jpg
101,00002920,島村家住宅主屋,しまむらけじゅうたくしゅおく,1棟,,登録有形文化財(建造物),住宅,建築物,,明治,明治32頃,1899頃,木造2階建、瓦葺、建築面積269㎡,,17 － 0062,34,2002.09.03(平成14.09.03),2002.08.21(平成14.08.21),,20020821,,造形の規範となっているもの,,石川県,石川県金沢市神谷内町卜4,,,,,36.59784000000000,136.68410000000000,江戸時代には肝煎を務めた旧家。主屋は切妻造・桟瓦葺，妻入で，正面に庇を設ける。正面妻は梁を４段に重ね，梁間を貫・束で整然と繋ぐ。梁組を見せる土間や客間，銘木を用いた丁寧なつくりの数寄屋風の座敷や控え間など，内外とも洗練された造形の近代民家。,https://bunka.nii.ac.jp/heritage/43967/_103910/43967_103910111225013402434_300.jpg
101,00003223,旧中木家住宅主屋,きゅうなかきけじゅうたくしゅおく,1棟,,登録有形文化財(建造物),住宅,建築物,,大正,大正2,1913,木造2階建、瓦葺、建築面積148㎡,,17 － 0063,36,2003.04.08(平成15.04.08),2003.03.18(平成15.03.18),,20030318,,造形の規範となっているもの,,石川県,石川県加賀市大聖寺魚町36,,加賀市,,,36.30534000000000,136.31070000000000,道路に北面して建つ間口４間の木造２階建平入町家で，西方下手チャノマ上部に天窓付きの吹抜けをもつ。屋根は越前瓦葺，表構えはセガイ造りとし，２階の袖卯建や１階板葺庇のサガリなどに特徴がある。城下町大聖寺における近代町家の好事例で，内部も上質。,https://bunka.nii.ac.jp/heritage/43967/_104213/43967_104213111225013712944_300.jpg
101,00003224,旧中木家住宅土蔵,きゅうなかきけじゅうたくどぞう,1棟,,登録有形文化財(建造物),住宅,建築物,,明治,明治33,1900,土蔵造2階建、瓦葺、建築面積58㎡,,17 － 0064,36,2003.04.08(平成15.04.08),2003.03.18(平成15.03.18),,20030318,,造形の規範となっているもの,,石川県,石川県加賀市大聖寺魚町35,,加賀市,,,36.30524000000000,136.31050000000000,主屋の南西方に南北棟で建つ。桁行５間梁間３間半，切妻造，越前瓦葺の比較的規模の大きな２階建土蔵で，東面中央に入口を設け，主屋南西端に繋がる台所の延長部に蔵前をとる。基礎は石積とし，外壁は縦板張とする。棟押さえの凝灰岩の雁振りも特徴的。,https://bunka.nii.ac.jp/heritage/43967/_104214/43967_104214111225013713466_300.jpg
101,00003225,旧中木家住宅石蔵,きゅうなかきけじゅうたくいしぐら,1棟,,登録有形文化財(建造物),住宅,建築物,,大正,大正2,1913,木骨石造2階建、瓦葺、建築面積20㎡,,17 － 0065,36,2003.04.08(平成15.04.08),2003.03.18(平成15.03.18),,20030318,,再現することが容易でないもの,,石川県,石川県加賀市大聖寺魚町36,,加賀市,,,36.30520000000000,136.31060000000000,主屋の南方，土蔵の東方に東西棟で建つ。桁行３間梁間２間，切妻造，越前瓦葺の平入２階建石蔵で，構造は木軸部の外側に凝灰岩を積んだ木骨石造とする。北面に１間幅の下屋を差掛けて蔵前とし，やや西寄りに金庫風の両開戸を付けて入口とする。,https://bunka.nii.ac.jp/heritage/43967/_104215/43967_104215111225013713731_300.jpg
101,00003226,旧山長織物会社事務所,きゅうやまちょうおりものがいしゃじむしょ,1棟,,登録有形文化財(建造物),産業2次,建築物,,明治,明治43,1910,木造2階建、瓦葺、建築面積129㎡,,17 － 0066,36,2003.04.08(平成15.04.08),2003.03.18(平成15.03.18),,20030318,,国土の歴史的景観に寄与しているもの,,石川県,石川県加賀市大聖寺番場町18-2,,加賀市,,,36.30965000000000,136.31060000000000,旧大聖寺川沿岸に位置し，南面して建つ。桁行８間梁間３間規模，越前瓦葺，寄棟造の木造総２階建の南面に寄棟の車寄を突出し，背面に１間幅の下屋を付ける。外壁をイギリス下見板張とした洋館風の事務所建築で，開口部を大きくとっている点に特徴がある。,https://bunka.nii.ac.jp/heritage/43967/_104216/43967_104216111225013715123_300.jpg
101,00003227,旧山長織物会社石蔵,きゅうやまちょうおりものがいしゃいしぐら,1棟,,登録有形文化財(建造物),産業2次,建築物,,明治,明治43,1910,木骨石造2階建、瓦葺、建築面積64㎡,,17 － 0067,36,2003.04.08(平成15.04.08),2003.03.18(平成15.03.18),,20030318,,再現することが容易でないもの,,石川県,石川県加賀市大聖寺番場町18-2,,加賀市,,,36.30951000000000,136.31080000000000,事務所の東方，旧大聖寺川沿い道路際に南北棟で建つ。桁行４間梁間３間規模，越前瓦葺，切妻造の２階建で，西面全面に１間半幅の下屋を差掛けて蔵前をとる。生糸の保管蔵で，地元産の凝灰岩を用いた木骨石造とし，入口に金庫風の観音扉，窓には鉄扉を付ける。,https://bunka.nii.ac.jp/heritage/43967/_104217/43967_104217111225013715384_300.jpg
101,00003228,旧山長織物会社門,きゅうやまちょうおりものがいしゃもん,1棟,,登録有形文化財(建造物),産業2次,その他工作,,明治,明治43,1910,木造、瓦葺、間口6m,,17 － 0068,36,2003.04.08(平成15.04.08),2003.03.18(平成15.03.18),,20030318,,国土の歴史的景観に寄与しているもの,,石川県,石川県加賀市大聖寺番場町18-2,,加賀市,,,36.30953000000000,136.31050000000000,事務所玄関車寄の東南方に位置し，道路からやや退いて建つ。切妻造，越前瓦葺の腕木門で，１間１戸として両開戸を付け，背後に控柱を建てる。左右両脇には半間幅の通用口を設け，越前瓦葺，切妻造の小屋根を架けて織物会社正面の景観を整えている。,https://bunka.nii.ac.jp/heritage/43967/_104218/43967_104218111225013715650_300.jpg
101,00003229,西田幾多郎書斎骨清窟,にしだきたろうしょさいこっせいくつ,1棟,,登録有形文化財(建造物),住宅,建築物,,大正,大正12／昭和49移築,1923／1974移築,木造平屋建、スレート葺、建築面積20㎡,,17 － 0069,36,2003.04.08(平成15.04.08),2003.03.18(平成15.03.18),,20030318,,造形の規範となっているもの,,石川県,石川県かほく市宇野気リ199-1,,かほく市,市区町村,,36.72087000000000,136.70500000000000,哲学者西田幾多郎の住宅洋室部。桁行２間梁間３間の１２畳規模，鉄板葺，切妻造で，南面にテラスを設け，西面中央に煖炉煙突をあげる。外部は腰を橙色のタイル張，上部をドイツ壁とする。大正期のいわゆる文化住宅における応接間としての玄関脇洋館の好事例。,https://bunka.nii.ac.jp/heritage/43967/_104219/43967_104219111225013716166_300.jpg
101,00003408,尾山神社東神門,おやまじんじゃひがししんもん,1棟,,登録有形文化財(建造物),宗教,その他工作,,江戸,江戸後期／明治3・昭和38移築,1751-1829／1870・1963移築,木造、瓦葺、間口3.5m,,17 － 0070,37,2003.07.17(平成15.07.17),2003.07.01(平成15.07.01),,20030701,,造形の規範となっているもの,,石川県,石川県金沢市尾山町11-1,,宗教法人尾山神社,,,36.56544000000000,136.65610000000000,もと金沢城二ノ丸唐門と伝えられる。卯辰山招魂社神門として移されていたものを昭和３８年現在地に移築。１間１戸の向唐門で，屋根は桟瓦葺。主柱は円柱，控柱は角柱で，両開き桟唐戸をたて，頭貫上は蟇股と波彫刻，桁上は大瓶束と雲竜彫刻をあしらう。,https://bunka.nii.ac.jp/heritage/43967/_104398/43967_104398111225013901534_300.jpg
101,00003409,大屋家住宅主屋,おおやけじゅうたくしゅおく,1棟,,登録有形文化財(建造物),住宅,建築物,,江戸,江戸末期／明治期改造,1830-1867／1868-1911改造,木造平屋建、瓦葺、建築面積241㎡,,17 － 0071,37,2003.07.17(平成15.07.17),2003.07.01(平成15.07.01),,20030701,,造形の規範となっているもの,,石川県,石川県金沢市長町1-1-37,,,,,36.56364000000000,136.65050000000000,武家屋敷地区を流れる大野庄用水沿いの屋敷地に東を正面として建つ。緩勾配の板葺石置き屋根の棟を明治期に高めてアズマダチ風に改造し，玄関も入母屋造に変えてはいるが，内部は創建時の間取りを良く残し，藩政時代の武家屋敷の様子を伝えていて貴重である。,https://bunka.nii.ac.jp/heritage/43967/_104399/43967_104399111225013903139_300.jpg
101,00003410,大屋家住宅表門,おおやけじゅうたくおもてもん,1棟,,登録有形文化財(建造物),住宅,その他工作,,江戸,江戸末期,1830-1867,木造、瓦葺、間口2.7m,,17 － 0072,37,2003.07.17(平成15.07.17),2003.07.01(平成15.07.01),,20030701,,国土の歴史的景観に寄与しているもの,,石川県,石川県金沢市長町1-1-37,,,,,36.56366000000000,136.65070000000000,主屋の東方に位置し，屋敷地北側の道路が南と東に矩折となる東辺沿い道路からやや奥まって建つ。間口７尺規模の棟門で，土塀にむけて袖塀を従える。緩やかな起り付きの桟瓦葺，切妻屋根に特色があり，土塀とともに武家屋敷の街区景観を形成する一要素になる。,https://bunka.nii.ac.jp/heritage/43967/_104400/43967_104400111225013903657_300.jpg
101,00003411,大屋家住宅北塀,おおやけじゅうたくきたべい,1棟,,登録有形文化財(建造物),住宅,その他工作,,江戸,江戸末期,1830-1867,土塀、板葺及び瓦葺、延長43m,,17 － 0073,37,2003.07.17(平成15.07.17),2003.07.01(平成15.07.01),,20030701,,国土の歴史的景観に寄与しているもの,,石川県,石川県金沢市長町1-1-37,,,,,36.56375000000000,136.65050000000000,屋敷地北辺から表門へ向けて南に折れ曲がる土塀。亀甲積風の３?４段の石積基礎の上に土塀を築き，北辺沿いは板葺屋根を，東辺沿いは桟瓦葺屋根を戴く。表門とともに長町武家屋敷地区における歴史的小路景観の形成に寄与している。,https://bunka.nii.ac.jp/heritage/43967/_104401/43967_104401111225013903917_300.jpg
101,00003412,大屋家住宅南塀,おおやけじゅうたくみなみべい,1棟,,登録有形文化財(建造物),住宅,その他工作,,江戸,江戸末期,1830-1867,土塀、瓦葺、延長20m,,17 － 0074,37,2003.07.17(平成15.07.17),2003.07.01(平成15.07.01),,20030701,,国土の歴史的景観に寄与しているもの,,石川県,石川県金沢市長町1-1-37,,,,,36.56348000000000,136.65040000000000,大野庄用水沿い，屋敷地南辺に建つ。大野庄用水の護岸と一体となった亀甲積風石積基礎をもつ。ほぼ中央に潜口を設けるほか，西端部において用水を庭に引き込む取水口と排水口，洗場を設える。用水と武家屋敷の関係を物語る遺構のひとつとして貴重である。,https://bunka.nii.ac.jp/heritage/43967/_104402/43967_104402111225013904435_300.jpg
101,00003413,西家住宅主屋,にしけじゅうたくしゅおく,1棟,,登録有形文化財(建造物),住宅,建築物,,大正,大正5,1916,木造2階建、瓦葺、建築面積440㎡,,17 － 0075,37,2003.07.17(平成15.07.17),2003.07.01(平成15.07.01),,20030701,,造形の規範となっているもの,,石川県,石川県金沢市長町3-1-57,,,,,36.56564000000000,136.64910000000000,長町武家屋敷地区の一画に位置する。東西棟，２階建の本屋と南北棟，平屋建の座敷から成り，本屋は大野庄用水と並行する道路に東面して建つ。正面はアズマダチ風につくるが，２階はたちが高く，門を造らない屋敷構えなどにも近代和風住宅の特徴が認められる。,https://bunka.nii.ac.jp/heritage/43967/_104403/43967_104403111225013904702_300.jpg
101,00003414,西家住宅土蔵,にしけじゅうたくどぞう,1棟,,登録有形文化財(建造物),住宅,建築物,,大正,大正5,1916,土蔵造2階建、瓦葺、建築面積49㎡,,17 － 0076,37,2003.07.17(平成15.07.17),2003.07.01(平成15.07.01),,20030701,,国土の歴史的景観に寄与しているもの,,石川県,石川県金沢市長町3-1-57,,,,,36.56565000000000,136.64900000000000,主屋本屋の西方に南北棟で建つ。桁行６．７ｍ，梁間６．８ｍ規模の正方形に近い平面をもつ２階建土蔵で，屋根は桟瓦葺の置屋根とし，南側に広い蔵前を設けて本屋南西部に繋げる。南側道路に向けて南妻面上部を見せ，小路入口部の街路景観の主要素になる。,https://bunka.nii.ac.jp/heritage/43967/_104404/43967_104404111225013906008_300.jpg
101,00003415,中村家住宅主屋,なかむらけじゅうたくしゅおく,1棟,,登録有形文化財(建造物),住宅,建築物,,江戸,江戸末期,1830-1867,木造2階建、瓦葺、建築面積120㎡,,17 － 0077,37,2003.07.17(平成15.07.17),2003.07.01(平成15.07.01),,20030701,,造形の規範となっているもの,,石川県,石川県金沢市東山1-4-33,,,,,36.57301000000000,136.66630000000000,重伝建保存地区東山ひがしに近接し，城北大通りに平行する小路に東面して建つ。間口３間半規模の木造２階建，平入町家で，内部上手は１列半３室型とし，表構えは２階に袖壁を付け，１階は玄関以外を出格子窓とする。金沢城下における小規模町家の一例。,https://bunka.nii.ac.jp/heritage/43967/_104405/43967_104405111225013906518_300.jpg
101,00003416,長田家住宅主屋,ながたけじゅうたくしゅおく,1棟,,登録有形文化財(建造物),住宅,建築物,,昭和前,昭和5,1930,木造2階建、瓦葺、建築面積206㎡,,17 － 0078,37,2003.07.17(平成15.07.17),2003.07.01(平成15.07.01),,20030701,,造形の規範となっているもの,,石川県,石川県金沢市橋場町5-10,,,,,36.57049000000000,136.66490000000000,浅野川大橋南詰近くに位置する。内科医の住居として建設された中廊下型の和洋折衷住宅で，玄関奥に洋間，中廊下の南側に居間，階段，広縁などを配する。設計施工は松井角平率いる松井組で，階段踊場のステインドグラスや化粧枠，手摺などの意匠に特色がある。,https://bunka.nii.ac.jp/heritage/43967/_104406/43967_104406111225013907033_300.jpg
101,00003417,伊東家住宅主屋,いとうけじゅうたくしゅおく,1棟,,登録有形文化財(建造物),住宅,建築物,,明治,明治10頃／昭和8増改造,1877頃／1933増改造,木造2階建、瓦葺、建築面積310㎡,,17 － 0079,37,2003.07.17(平成15.07.17),2003.07.01(平成15.07.01),,20030701,,造形の規範となっているもの,,石川県,石川県金沢市花園八幡町ハ100甲,,,,,36.63291000000000,136.71560000000000,金沢市北部郊外の山裾に建つアズマダチ風民家。間取は，土間ニワと４２畳規模のオエの奥に２列５室を並べ，東南にハナレを突き出す。ニワ・オエ境で３段の梁組と多数の貫を見せた妻を立ち上げ，ニワを下屋内に取り込んだ正面構えに特徴がある。,https://bunka.nii.ac.jp/heritage/43967/_104407/43967_104407111225013907538_300.jpg
101,00003418,細川家住宅主屋,ほそかわけじゅうたくしゅおく,1棟,,登録有形文化財(建造物),住宅,建築物,,明治,明治30頃／明治42移築,1897頃／1909移築,木造2階建、瓦葺、建築面積401㎡,,17 － 0080,37,2003.07.17(平成15.07.17),2003.07.01(平成15.07.01),,20030701,,造形の規範となっているもの,,石川県,石川県金沢市東蚊爪町チ12甲,,,,,36.62615272000000,136.64723835000000,金沢市北部，河北潟ほとりに位置する。もと市内八日市に所在したアズマダチ風民家を移築したもので，間口７間半規模，間取は広間＋３列型，４５畳のオエは市内最大級。正面庇は柱を建てず，持送り板と出桁で支持するつくりとなっている点に特徴がある。,https://bunka.nii.ac.jp/heritage/43967/_104408/43967_104408375566156154370_300.jpg
101,00003419,西検番事務所,にしけんばんじむしょ,1棟,,登録有形文化財(建造物),産業3次,建築物,,大正,大正11,1922,木造2階建、瓦葺、建築面積501㎡,,17 － 0081,37,2003.07.17(平成15.07.17),2003.07.01(平成15.07.01),,20030701,,造形の規範となっているもの,,石川県,石川県金沢市野町2-25-17,,西料亭組合,,,36.55647000000000,136.64740000000000,犀川大橋南方に位置し，芸妓衆の稽古場兼管理事務所として建設。洋風の事務所棟と中庭を隔てた木造２階建，和風の稽古場棟とから成り，事務所棟は寄棟造，桟瓦葺の木造２階建，下見板張で，明治期に流行したバージボード付きの玄関ポーチに特色がある。,https://bunka.nii.ac.jp/heritage/43967/_104409/43967_104409111225013908317_300.jpg
101,00003421,旧本多家住宅長屋門,きゅうほんだけじゅうたくながやもん,1棟,,登録有形文化財(建造物),住宅,建築物,,江戸,江戸末期／明治初期・昭和40移築,1830-1867／1868-1911・1965移築,木造平屋建、瓦葺、建築面積41㎡,,17 － 0083,37,2003.07.17(平成15.07.17),2003.07.01(平成15.07.01),,20030701,,国土の歴史的景観に寄与しているもの,,石川県,石川県金沢市本多町3-53-2,,金沢市,市区町村,,36.55857000000000,136.65980000000000,本多家上屋敷に隣接した本多内記家の長屋門の主要部を移築したものと伝える。現状は桁行６間半，梁間２間規模で，石積基礎の上に建ち，屋根は寄棟造，桟瓦葺とし，正面左寄りに間口８尺の門を開く。金沢藩重臣クラスの武家屋敷地の面影を残す遺構のひとつ。,https://bunka.nii.ac.jp/heritage/43967/_104411/43967_104411091202800203940_300.jpg
101,00003532,旧石川商銀信用組合小松支店,きゅういしかわしょうぎんしんようくみあいこまつしてん,1棟,,登録有形文化財(建造物),産業3次,建築物,,昭和前,昭和5,1930,鉄筋コンクリート造2階建、建築面積143㎡,,17 － 0084,38,2003.10.17(平成15.10.17),2003.09.19(平成15.09.19),,20030919,,造形の規範となっているもの,,石川県,石川県小松市京町19-5,,小松市,,,36.40815000000000,136.44860000000000,加能合同銀行小松支店として建設と伝える。スクラッチタイル張，コーナーに円筒形の階段室塔屋を配した建築構成に特徴がある。ドリス式オーダーに半円アーチやイオニア式キャピタルなどを組合わせた玄関枠の意匠と内部階段室の螺旋状階段の造形に見所がある。,https://bunka.nii.ac.jp/heritage/43967/_104522/43967_104522111225014024143_300.jpg
101,00003955,泉家住宅主屋,いずみけじゅうたくしゅおく,1棟,,登録有形文化財(建造物),住宅,建築物,,江戸,江戸末期,1830-1867,木造2階建、石綿セメント板葺、建築面積176㎡,,17 － 0085,41,2004.03.29(平成16.03.29),2004.03.02(平成16.03.02),,20040302,,造形の規範となっているもの,,石川県,石川県金沢市昌永町14-20,,金沢市,市区町村,,36.58018000000000,136.65700000000000,金沢城北方約１．５㎞にある。間口の広い一部２階建，切妻造，妻入の建物で，室内は床を備えた座敷，居間をはじめ多数の小間に仕切る。当初石置板葺の緩勾配の屋根，漆喰に小屋束，貫が鮮やかな対比をみせる正面の姿は幕末金沢の中下級武士住宅の好例を示す。,https://bunka.nii.ac.jp/heritage/43967/_104945/43967_104945111225014520748_300.jpg
101,00003956,泉家住宅土蔵,いずみけじゅうたくどぞう,1棟,,登録有形文化財(建造物),住宅,建築物,,江戸,江戸末期,1830-1867,土蔵造2階建、瓦葺、建築面積41㎡,,17 － 0086,41,2004.03.29(平成16.03.29),2004.03.02(平成16.03.02),,20040302,,造形の規範となっているもの,,石川県,石川県金沢市昌永町14-20,,金沢市,,,36.58025000000000,136.65690000000000,主屋の北下手，板の間に接して建つ。桁行３間梁間２間半規模，２階建，切妻造，桟瓦葺の土蔵造だが，軒裏，螻羽は塗り込めない。１階南面中央に戸口を開き，２階東面に大きめの窓をあける。小規模で簡素だが，戸口を掛け子塗りとするなど丁寧なつくりになる。,https://bunka.nii.ac.jp/heritage/43967/_104946/43967_104946111225014521002_300.jpg
101,00003957,小泉家住宅主屋,こいずみけじゅうたくしゅおく,1棟,,登録有形文化財(建造物),住宅,建築物,,昭和前,昭和4,1929,木造2階建、瓦葺、建築面積206㎡,,17 － 0087,41,2004.03.29(平成16.03.29),2004.03.02(平成16.03.02),,20040302,,国土の歴史的景観に寄与しているもの,,石川県,石川県金沢市本多町1-17-10,,,,,36.55372000000000,136.66490000000000,木造２階建の中廊下型住宅。北面の西端部を突出した鈎形平面の主体部を中心に，北，南面に平屋を付属し，北面中央に入母屋屋根の玄関を突出する。和風を基調としつつ，応接室，書斎のある西端を洋風につくるたちの高い特異な外観は，住宅地の中で一際目立つ。,https://bunka.nii.ac.jp/heritage/43967/_104947/43967_104947111225014521525_300.jpg
101,00003958,木村家住宅主屋,きむらけじゅうたくしゅおく,1棟,,登録有形文化財(建造物),住宅,建築物,,昭和前,昭和4,1929,木造2階建、瓦葺、建築面積152㎡,,17 － 0088,41,2004.03.29(平成16.03.29),2004.03.02(平成16.03.02),,20040302,,国土の歴史的景観に寄与しているもの,,石川県,石川県金沢市彦三町2-11-11,,,,,36.57588000000000,136.65820000000000,大通りに北面して建つ和風住宅。入母屋造，桟瓦葺の木造２階建とし，１階正面中央に玄関を突出する。玄関脇応接室以外は和室で，座敷飾り等に銘木を使い，壁は弁柄，群青色の砂壁とする。正面に入母屋の妻を重ねたたちの高い外観は，地区でも一際目立つ存在。,https://bunka.nii.ac.jp/heritage/43967/_104948/43967_104948111225014522046_300.jpg
101,00003959,旧村松商店（村松商事ビル）,きゅうむらまつしょうてん（むらまつしょうじびる）,1棟,,登録有形文化財(建造物),産業3次,建築物,,昭和前,昭和3,1928,鉄筋コンクリート造3階建、建築面積213㎡,,17 － 0089,41,2004.03.29(平成16.03.29),2004.03.02(平成16.03.02),,20040302,,国土の歴史的景観に寄与しているもの,,石川県,石川県金沢市尾張町1-111,,,,,36.57057314000000,136.66290679000000,老舗糸卸小売商の自社ビル。南，西２方を道路に面する角地に建つ鉄筋コンクリート造の２階建で，南西隅部に塔屋を設ける。パラペット頂部や壁面に釉薬タイルの帯を付け，隅部は太い蛇腹を上下に並べたような壁仕上げとしアールデコ調の特徴ある外観をつくる。,https://bunka.nii.ac.jp/heritage/43967/_104949/43967_104949455180312291000_300.jpg
101,00003960,中村神社拝殿（旧金沢城二の丸能舞台）,なかむらじんじゃはいでん（きゅうかなざわじょうにのまるのうぶたい）,1棟,,登録有形文化財(建造物),その他,建築物,,江戸,江戸末期／明治3・昭和40移築,1830-1867／1870・1965移築,木造平屋建、瓦葺、建築面積34㎡,,17 － 0090,41,2004.03.29(平成16.03.29),2004.03.02(平成16.03.02),,20040302,,造形の規範となっているもの,,石川県,石川県金沢市中村町16-1,,宗教法人中村神社,,,36.56120000000000,136.64440000000000,金沢城二の丸能舞台を移築改造。方３間，４隅角柱上三斗組，二軒疎垂木，入母屋造，桟瓦葺で，正側面に刎高欄付切目縁を回し，外回りを双折桟唐戸，格子戸引違で仕切り内部は折上格天井とする。内法上の派手な蟇股や丸彫嵌め彫刻に往時の豪奢な姿をとどめる。,https://bunka.nii.ac.jp/heritage/43967/_104950/43967_104950111225014522570_300.jpg
101,00003961,金沢神社本殿（旧明倫堂鎮守）,かなざわじんじゃほんでん（きゅうめいりんどうちんじゅ）,1棟,,登録有形文化財(建造物),宗教,建築物,,江戸,寛政6,1794,木造平屋建、銅板葺、建築面積14㎡,,17 － 0091,41,2004.03.29(平成16.03.29),2004.03.02(平成16.03.02),,20040302,,造形の規範となっているもの,,石川県,石川県金沢市兼六町1-3,,宗教法人金沢神社,,,36.56043000000000,136.66290000000000,はじめ藩校の鎮守として建築された。大型の流造社殿で，身舎円柱上に連三斗，妻は虹梁大瓶束で，虹梁で繋ぐ向拝は水引虹梁，連三斗を備える。間口の広い平面で，身舎正面にも虹梁型頭貫を通し中備蟇股を置き，胡麻殻決りの幣軸を付けて特徴ある構えにつくる。,https://bunka.nii.ac.jp/heritage/43967/_104951/43967_104951111225014523097_300.jpg
101,00003962,金沢神社拝殿,かなざわじんじゃはいでん,1棟,,登録有形文化財(建造物),宗教,建築物,,江戸,江戸末期,1830-1867,木造平屋建、銅板葺、建築面積40㎡,,17 － 0092,41,2004.03.29(平成16.03.29),2004.03.02(平成16.03.02),,20040302,,造形の規範となっているもの,,石川県,石川県金沢市兼六町1-3,,宗教法人金沢神社,,,36.56050000000000,136.66280000000000,本殿の北前方に建つ。入母屋造，桟瓦葺，妻入で，正側面に刎高欄付切目縁，正面に向拝を付ける。軒は三斗組，一軒半繁垂木，妻は虹梁豕叉首とする。内部は主体部を格天井，本殿側は両下屋根の釣殿形式とし，釣殿部分に高欄付の反り橋を設けるなど特徴をもつ。,https://bunka.nii.ac.jp/heritage/43967/_104952/43967_104952111225014524415_300.jpg
101,00003963,北村家住宅主屋,きたむらけじゅうたくしゅおく,1棟,,登録有形文化財(建造物),住宅,建築物,,江戸,江戸末期,1830-1867,木造2階建、鉄板葺一部瓦葺、建築面積81㎡,,17 － 0093,41,2004.03.29(平成16.03.29),2004.03.02(平成16.03.02),,20040302,,国土の歴史的景観に寄与しているもの,,石川県,石川県金沢市菊川2-8-10,,社会福祉法人永井善隣館,非営利法人,,36.55182300000000,136.66128500000000,旧足軽組地にある住宅。切妻造，妻入の木造２階建で，１階は表通りに北面して玄関を開き，奥に座敷，居間，茶の間などの居室を配し，２階にも部屋を取る。漆喰に小屋束・貫の対比も鮮やかな棟高の低い緩勾配の切妻を見せた姿は，地区の歴史景観に欠かせない。,https://bunka.nii.ac.jp/heritage/43967/_104953/43967_104953818808430274189_300.jpg
101,00003964,経田屋米穀店,きょうでんやべいこくてん,1棟,,登録有形文化財(建造物),産業3次,建築物,,明治,明治37,1904,木造2階建、瓦葺、建築面積134㎡,,17 － 0094,41,2004.03.29(平成16.03.29),2004.03.02(平成16.03.02),,20040302,,国土の歴史的景観に寄与しているもの,,石川県,石川県金沢市東山1-17-7,,,,,36.57209000000000,136.66620000000000,製粉業を兼ねた米穀商の店舗。２階建，切妻造，桟瓦葺で，１階正面に出桁で庇を付け，内部は西に通り土間，東に表から店，茶の間を配し，現在２階にも居室をとる。１階の大戸，蔀戸，２階の格子窓，袖卯建による表構えは，町並みの景観形成に欠かせない存在。,https://bunka.nii.ac.jp/heritage/43967/_104954/43967_104954111225014525207_300.jpg
101,00003965,浅永家住宅主屋,あさながけじゅうたくしゅおく,1棟,,登録有形文化財(建造物),住宅,建築物,,江戸,江戸末期／明治中期改造,1830-1867／1868-1911改造,木造2階建、瓦葺、建築面積264㎡,,17 － 0095,41,2004.03.29(平成16.03.29),2004.03.02(平成16.03.02),,20040302,,国土の歴史的景観に寄与しているもの,,石川県,石川県金沢市浅野本町1-14-18,,,,,36.58099000000000,136.66080000000000,金沢旧市域のすぐ外側に位置する農家。東面する，木造２階建，切妻造，妻入の身舎に下屋を回し，表側を広いニワ，奥を広大な床上部とする。差物や大梁による豪壮な架構の民家で，正面に漆喰壁と軸部，小屋材が鮮やかな対比をみせる姿は，周囲でも一際目立つ。,https://bunka.nii.ac.jp/heritage/43967/_104955/43967_104955111225014525474_300.jpg
101,00003966,浅永家住宅土蔵,あさながけじゅうたくどぞう,1棟,,登録有形文化財(建造物),住宅,建築物,,江戸,江戸末期,1830-1867,土蔵造2階建、瓦葺、建築面積51㎡,,17 － 0096,41,2004.03.29(平成16.03.29),2004.03.02(平成16.03.02),,20040302,,国土の歴史的景観に寄与しているもの,,石川県,石川県金沢市浅野本町1-14-18,,,,,36.58094000000000,136.66070000000000,主屋の南西に廊下で接続して建つ。桁行５間梁間３間，土蔵造，２階建，切妻造，桟瓦葺で，腰部を化粧目地を切って石積風にみせ，その上部を白漆喰塗仕上げとし，置屋根をのせる。戸口，窓回りに額縁型を塗りだした丁寧なつくりで，屋敷構えに欠かせない建物。,https://bunka.nii.ac.jp/heritage/43967/_104956/43967_104956111225014525998_300.jpg
101,00003967,旧宮下家住宅主屋,きゅうみやしたけじゅうたくしゅおく,1棟,,登録有形文化財(建造物),住宅,建築物,,大正,大正9／昭和45移築,1920／1970移築,木造2階建、瓦葺、建築面積195㎡,,17 － 0097,41,2004.03.29(平成16.03.29),2004.03.02(平成16.03.02),,20040302,,造形の規範となっているもの,,石川県,石川県金沢市北袋町ヱ36,,金沢市,,,36.49505000000000,136.74850000000000,炭焼きを生業とした家の住居。木造，２階建，切妻造，妻入の身舎の正面に下屋を付け，内部は表側にウマヤのある土間をとり，その奥を床上部とする。壁面の太い柱，妻面の小屋束と密に通した貫をみせるいわゆるアズマダチの民家で，外観はよく旧形式を伝える。,https://bunka.nii.ac.jp/heritage/43967/_104957/43967_104957111225014526265_300.jpg
101,00003968,旧市谷家住宅主屋,きゅういちたにけじゅうたくしゅおく,1棟,,登録有形文化財(建造物),住宅,建築物,,大正,大正13／昭和45移築,1924／1970移築,木造2階建、瓦葺、建築面積236㎡,,17 － 0098,41,2004.03.29(平成16.03.29),2004.03.02(平成16.03.02),,20040302,,造形の規範となっているもの,,石川県,石川県金沢市北袋町ヱ36,,金沢市,,,36.49378000000000,136.74900000000000,炭焼きを生業とした家の住居。木造，２階建，切妻造，妻入の身舎の正面に下屋を付け，表側を土間，奥にオエ，ザシキなどの部屋をとる。漆喰壁に軸部の対比が鮮やかな外観のアズマダチの民家で，内部は良質な欅の大径材による柱，差物，梁で豪壮な架構を組む。,https://bunka.nii.ac.jp/heritage/43967/_104958/43967_104958111225014527634_300.jpg
101,00003969,旧北尾家門,きゅうきたおけもん,1棟,,登録有形文化財(建造物),住宅,建築物,,明治,明治中期／昭和46移築,1868-1911／1971移築,木造2階建、瓦葺、建築面積50㎡,,17 － 0099,41,2004.03.29(平成16.03.29),2004.03.02(平成16.03.02),,20040302,,造形の規範となっているもの,,石川県,石川県金沢市北袋町ヱ36,,金沢市,,,36.49460000000000,136.74930000000000,もと豪農の屋敷の表門として建設された。桁行７間，梁間２間，入母屋造，桟瓦葺の長屋門で，中央部に方２間，切妻屋根の望楼をのせ，門口上部の前後に唐破風を付す。民家の長屋門でありながら，社寺の楼門風の構えを取り入れた類例を見ない珍しい形式をもつ。,https://bunka.nii.ac.jp/heritage/43967/_104959/43967_104959111225014528146_300.jpg
101,00003970,旧中屋家行在所主屋,きゅうなかやけあんざいしょしゅおく,1棟,,登録有形文化財(建造物),住宅,建築物,,明治,明治11／平成元移築,1878／1989移築,木造平屋建、瓦葺、建築面積122㎡,,17 － 0100,41,2004.03.29(平成16.03.29),2004.03.02(平成16.03.02),,20040302,,造形の規範となっているもの,,石川県,石川県金沢市北袋町ヱ36,,金沢市,,,36.49443000000000,136.74990000000000,明治天皇北陸巡幸の際の行在所で，もと金沢市内の大店薬種商の屋敷内に建設された。入母屋造，桟瓦葺の平屋で，床棚付１５畳の主室，８畳の次の間を中心に湯殿，便所等が付属する。簡素で軽快なつくりだが，長押を回して格式を保ち，透し彫り欄間を入れ飾る。,https://bunka.nii.ac.jp/heritage/43967/_104960/43967_104960111225014528662_300.jpg
101,00003971,旧中屋家行在所表門,きゅうなかやけあんざいしょおもてもん,1棟,,登録有形文化財(建造物),住宅,その他工作,,明治,明治11／平成元移築,1878／1989移築,木造、銅板葺、間口2.4m,,17 － 0101,41,2004.03.29(平成16.03.29),2004.03.02(平成16.03.02),,20040302,,造形の規範となっているもの,,石川県,石川県金沢市北袋町ヱ36,,金沢市,,,36.49448000000000,136.74980000000000,行在所への専用通用門で，表通りに面して建っていた。切妻造，銅板瓦棒葺の棟門で，親柱背後には控え柱を備える。両袖を付属し，向かって左の袖に潜りを開ける。小規模で簡素だが，持送りや腕木の端を繰形で飾り，屋根に強い起りを付け特徴ある姿にまとめる。,https://bunka.nii.ac.jp/heritage/43967/_104961/43967_104961111225014529175_300.jpg
101,00004130,平木家住宅主屋,ひらきけじゅうたくしゅおく,1棟,,登録有形文化財(建造物),住宅,建築物,,江戸,江戸末期,1830-1867,木造2階建、鉄板葺、建築面積102㎡,,17 － 0102,42,2004.06.24(平成16.06.24),2004.06.09(平成16.06.09),,20040609,,国土の歴史的景観に寄与しているもの,,石川県,石川県金沢市菊川1-363,,,,,36.55078000000000,136.66290000000000,金沢城下旧足軽組地に位置する武家住宅のひとつ。南に庭を設け，西側で街路に接し，東側は用水路に面して建つ。１階は西南隅に玄関を開き，中程に仏間・茶の間を，東寄りには庭に面して縁を備える座敷と納戸を配する。２階は居室と納戸を設けている。,https://bunka.nii.ac.jp/heritage/43967/_105120/43967_105120820129688908765_300.jpg
101,00004131,平木屋旗店,ひらきやはたてん,1棟,,登録有形文化財(建造物),産業3次,建築物,,江戸,江戸末期,1830-1867,木造2階建、鉄板葺、建築面積110㎡,,17 － 0103,42,2004.06.24(平成16.06.24),2004.06.09(平成16.06.09),,20040609,,国土の歴史的景観に寄与しているもの,,石川県,石川県金沢市菊川1-12-1,,,,,36.55054000000000,136.66290000000000,金沢の中心地，犀川右岸に建つ平屋建，平入の町家。建物は東寄りに土間を通し，西寄りに表側からミセ，茶の間，床と仏間を備える奥の間を配する。現在は鉄板葺であるが，かつては板葺であった。城下町金沢の近世の商家の様子を今日に伝える建造物である。,https://bunka.nii.ac.jp/heritage/43967/_105121/43967_105121111225014708141_300.jpg
101,00004132,澁江家住宅主屋,しぶえけじゅうたくしゅおく,1棟,,登録有形文化財(建造物),産業3次,建築物,,大正,大正10,1921,木造2階建、瓦葺、建築面積62㎡,,17 － 0104,42,2004.06.24(平成16.06.24),2004.06.09(平成16.06.09),,20040609,,国土の歴史的景観に寄与しているもの,,石川県,石川県金沢市東山1-4-1,,,,,36.57282000000000,136.66570000000000,平入の町屋で，西側で街路に面する。２階の大屋根は出桁造とし，腕木を二重に重ねて意匠を凝らす。１階は南寄りに玄関を置き，茶の間など居室を設ける。２階は東に縁を設ける座敷を中心に，前室２室と納戸を配している。金沢における大正期の町家の好例。,https://bunka.nii.ac.jp/heritage/43967/_105122/43967_105122111225014708657_300.jpg
101,00004133,藤本家住宅主屋,ふじもとけじゅうたくしゅおく,1棟,,登録有形文化財(建造物),住宅,建築物,,大正,大正12／昭和8増築,1923／1933増築,木造2階建、瓦葺、建築面積187㎡,,17 － 0105,42,2004.06.24(平成16.06.24),2004.06.09(平成16.06.09),,20040609,,国土の歴史的景観に寄与しているもの,,石川県,石川県金沢市東山三丁目７０８他,,,,,36.57503000000000,136.66230000000000,木造２階建の住宅。当初に建てられた平屋建の北西部分と，昭和８年に増改築された街路に面する南東部分からなる。全体にたちが高く，入母屋，寄棟が折り重なる複雑な屋根構成が外観を特徴づけている。良材を用いた，近代和風住宅の好例である。,https://bunka.nii.ac.jp/heritage/43967/_105123/43967_105123906203229393913_300.jpg
101,00004134,谷庄古美術店主屋,たにしょうこびじゅつてんしゅおく,1棟,,登録有形文化財(建造物),産業3次,建築物,,昭和前,昭和2,1927,木造2階建、瓦葺、建築面積214㎡,,17 － 0106,42,2004.06.24(平成16.06.24),2004.06.09(平成16.06.09),,20040609,,国土の歴史的景観に寄与しているもの,,石川県,石川県金沢市十間町44,,株式会社谷庄,営利法人,,36.57069000000000,136.65730000000000,和洋並立の店舗兼住宅。正面中央に玄関を開き，洋館の１階を店舗とし，和館部は１間幅の畳廊下を通して座敷，仏間，茶室等を配する。和館立面は洋館に揃えて高くし，洋館正面は３連のアーチ窓の２階と大窓の１階を対比させ，特徴的な外観をつくりだしている。,https://bunka.nii.ac.jp/heritage/43967/_105124/43967_105124151214162153257_300.jpg
101,00004135,佐藤家住宅主屋,さとうけじゅうたくしゅおく,1棟,,登録有形文化財(建造物),産業3次,建築物,,昭和前,昭和12／昭和27頃曳家改造,1937／1952頃曳家改造,木造2階建、瓦葺、建築面積107㎡,,17 － 0107,42,2004.06.24(平成16.06.24),2004.06.09(平成16.06.09),,20040609,,造形の規範となっているもの,,石川県,石川県金沢市十一屋町323,,,,,36.54436000000000,136.66020000000000,当初料亭として建てられ，第２次大戦後曳家の上住宅に改造されたもの。１・２階にそれぞれ設けられる床棚付の書院に，白鳥をあしらった欄間彫刻など質の高い意匠を備える。全体にたちが高く，２階部に縁と小庇を廻すなど近代和風建築の好例といえる。,https://bunka.nii.ac.jp/heritage/43967/_105125/43967_105125913233090092532_300.jpg
101,00004136,多川家住宅主屋,たがわけじゅうたくしゅおく,1棟,,登録有形文化財(建造物),住宅,建築物,,大正,大正初期,1912-1925,木造2階建、瓦葺、建築面積337㎡,,17 － 0108,42,2004.06.24(平成16.06.24),2004.06.09(平成16.06.09),,20040609,,造形の規範となっているもの,,石川県,石川県白山市四ツ屋町38,,,,,36.48831000000000,136.54040000000000,加賀藩家臣も務めた旧家の住宅。木造２階建で，正面中央に式台玄関を開き，２０畳の大広間，座敷などを配する。２階には使用人のための空間等を配する。正面はアズマダチとし，特徴的な外観を見せる他，大広間の豪壮な架構などにも見るべきものがある。,https://bunka.nii.ac.jp/heritage/43967/_105126/43967_105126111225014711118_300.jpg
101,00004343,浜名家住宅主屋,はまなけじゅうたくしゅおく,1棟,,登録有形文化財(建造物),住宅,建築物,,江戸,江戸末期／大正7増築,1830-1867／1918増築,木造2階一部平屋建、瓦葺、建築面積175㎡,,17 － 0109,44,2004.11.29(平成16.11.29),2004.11.08(平成16.11.08),,20041108,,国土の歴史的景観に寄与しているもの,,石川県,石川県金沢市扇町11-12,,,,,36.56242000000000,136.66950000000000,もと武家屋敷が建ち並んでいた一画に建つ。通りに北面する敷地の中央に建ち，屋根は前寄り平屋建部分と後方２階建部分に棟高を変えて架ける。小屋束と貫を密に配したいわゆるアズマダチの大小の妻面を前後二重に見せた正面の構えは，周囲でも一際目立つ存在。,https://bunka.nii.ac.jp/heritage/43967/_105333/43967_105333111225014924242_300.jpg
101,00004344,浜名家住宅土蔵,はまなけじゅうたくどぞう,1棟,,登録有形文化財(建造物),住宅,建築物,,大正,大正6,1917,土蔵造2階建、瓦葺、建築面積29㎡,,17 － 0110,44,2004.11.29(平成16.11.29),2004.11.08(平成16.11.08),,20041108,,国土の歴史的景観に寄与しているもの,,石川県,石川県金沢市扇町11-12,,,,,36.56235000000000,136.66950000000000,主屋の南背後の西端部に建つ。桁行３間梁間２間半，土蔵造２階建で，桟瓦葺の置屋根を載せ，１階正面の戸口前に片流れの庇を付けて主屋台所と接続する。１，２階とも東面庭側にのみ小窓を開けた閉鎖的なつくりで，漆喰塗込めの装飾を配した堅牢な外観を造る。,https://bunka.nii.ac.jp/heritage/43967/_105334/43967_105334111225014924509_300.jpg
101,00004345,平木屋染物店主屋,ひらきやそめものてんしゅおく,1棟,,登録有形文化財(建造物),産業3次,建築物,,江戸,江戸末期,1830-1867,木造2階建、鉄板葺、建築面積90㎡,,17 － 0111,44,2004.11.29(平成16.11.29),2004.11.08(平成16.11.08),,20041108,,造形の規範となっているもの,,石川県,石川県金沢市片町2-31-38,,,,,36.55983000000000,136.65020000000000,犀川大橋北方の旧上伝馬町に残る代々染物業を営んだ町家。間口３間半強，奥行７間，２階建，平入，鉄板葺で，２階前面両端に袖壁を付ける。たちが低く，勾配の緩い登梁を前方に出して２階の軒桁を受け，１階の表側に揚戸を残すなど古式がよく保存されている。,https://bunka.nii.ac.jp/heritage/43967/_105335/43967_105335111225014924813_300.jpg
101,00004346,北中家住宅主屋,きたなかけじゅうたくしゅおく,1棟,,登録有形文化財(建造物),産業3次,建築物,,江戸,江戸末期／大正初期改造,1830-1867／1912-1925改造,木造及び土蔵造2階建、瓦葺、建築面積241㎡,,17 － 0112,44,2004.11.29(平成16.11.29),2004.11.08(平成16.11.08),,20041108,,国土の歴史的景観に寄与しているもの,,石川県,石川県金沢市泉2-21-7,,,,,36.54714300000000,136.64090612000000,市内南部，旧北国街道に東面する味噌・醤油製造販売を営む町家。間口９間奥行９間，２階建，平入，桟瓦葺で，正面のほぼ全面に格子をはめ，２階両端に袖壁を付ける。１階南東隅に座敷蔵を取り込み，木部弁柄漆塗り，色土壁として内外とも質の高い造りになる。,https://bunka.nii.ac.jp/heritage/43967/_105336/43967_105336922062142619305_300.jpg
101,00004347,八田家住宅主屋,はったけじゅうたくしゅおく,1棟,,登録有形文化財(建造物),住宅,建築物,,明治,明治38,1905,木造2階建、瓦葺、建築面積212㎡,,17 － 0113,44,2004.11.29(平成16.11.29),2004.11.08(平成16.11.08),,20041108,,国土の歴史的景観に寄与しているもの,,石川県,石川県金沢市今町ル1,,,,,36.63265000000000,136.70740000000000,市北部，旧北国街道から少し入った集落にある農家。間口８間奥行８間規模，切妻造，桟瓦葺で，北面出入口以外の大半を床上部とする。吟味した良材をふんだんに使った上質な建物で，たちが高く，アズマダチの大型の妻を正面に見せる姿は，周囲でも一際目立つ。,https://bunka.nii.ac.jp/heritage/43967/_105337/43967_105337111225014926174_300.jpg
101,00004348,八田家住宅西蔵,はったけじゅうたくにしぐら,1棟,,登録有形文化財(建造物),住宅,建築物,,明治,明治7,1874,土蔵造2階建、瓦葺、建築面積42㎡,,17 － 0114,44,2004.11.29(平成16.11.29),2004.11.08(平成16.11.08),,20041108,,国土の歴史的景観に寄与しているもの,,石川県,石川県金沢市今町ル1,,,,,36.63257000000000,136.70730000000000,主屋西方に独立して建ち矩ね折れにのびる渡り廊下で連絡する。桁行３間梁間４間，切妻造，桟瓦葺の土蔵造２階建で，屋根は北側の平屋部分に大きく葺きおろす。簡素だが，非対称の屋根形式や軒及び螻羽を方杖で大きく持ち出すなど，変化に富んだ外観をつくる。,https://bunka.nii.ac.jp/heritage/43967/_105338/43967_105338111225014926703_300.jpg
101,00004349,八田家住宅南蔵,はったけじゅうたくみなみぐら,1棟,,登録有形文化財(建造物),住宅,建築物,,明治,明治23,1890,土蔵造2階建、瓦葺、建築面積30㎡,,17 － 0115,44,2004.11.29(平成16.11.29),2004.11.08(平成16.11.08),,20041108,,国土の歴史的景観に寄与しているもの,,石川県,石川県金沢市今町ル1,,,,,36.63252000000000,136.70740000000000,主屋の南西に隣接して建ち渡り廊下で連絡する。桁行３間半梁間２間半の土蔵造２階建で，桟瓦葺の置屋根を載せる。外壁は中塗仕上げとし基礎部も一段厚く塗り込める。小規模で簡素なつくりの土蔵だが，西蔵とともに屋敷背後の構えを整えるのに欠かせない建物。,https://bunka.nii.ac.jp/heritage/43967/_105339/43967_105339111225014927223_300.jpg
101,00004350,旧石川銀行橋場支店,きゅういしかわぎんこうはしばしてん,1棟,,登録有形文化財(建造物),産業3次,建築物,,昭和前,昭和4,1929,鉄筋コンクリート造4階建、建築面積101㎡,,17 － 0116,44,2004.11.29(平成16.11.29),2004.11.08(平成16.11.08),,20041108,,国土の歴史的景観に寄与しているもの,,石川県,石川県金沢市尾張町1-7-10,,金沢市,,,36.57084000000000,136.66370000000000,浅野川大橋南方の交差点に面した不整形の敷地に建つ。清水組の設計施工で，外観はネオルネサンス式を基調とし，胴蛇腹で上下にほぼ１対２に分割し，出入口はイオニア式の片蓋柱で飾る。曲面で構成される変化のある立面をもち，ランドマークとして目立つ建物。,https://bunka.nii.ac.jp/heritage/43967/_105340/43967_105340111225014928215_300.jpg
101,00004351,辻家住宅主屋,つじけじゅうたくしゅおく,1棟,,登録有形文化財(建造物),住宅,建築物,,大正,大正中期,1912-1925,木造平屋建、瓦葺、建築面積249㎡,,17 － 0117,44,2004.11.29(平成16.11.29),2004.11.08(平成16.11.08),,20041108,,造形の規範となっているもの,,石川県,石川県金沢市寺町1-8-48,,,,,36.54814000000000,136.65880000000000,犀川下菊橋南西の台地上に建つ。平屋建，入母屋及び寄棟造，桟瓦葺で，玄関を突出した居室部とその北西に接続する茶の間・台所部から成る。良材を用いた座敷は床，棚，付書院を構え周囲に縁を廻した本格的なつくりで，壁を群青色土壁とした独特の意匠になる。,https://bunka.nii.ac.jp/heritage/43967/_105341/43967_105341111225014928723_300.jpg
101,00004352,辻家住宅表門及び塀,つじけじゅうたくおもてもんおよびへい,1棟,,登録有形文化財(建造物),住宅,その他工作,,大正,大正中期,1912-1925,木造、銅板葺一部瓦葺、板塀延長42m,,17 － 0118,44,2004.11.29(平成16.11.29),2004.11.08(平成16.11.08),,20041108,,国土の歴史的景観に寄与しているもの,,石川県,石川県金沢市寺町1-8-48,,,,,36.54801000000000,136.65870000000000,敷地西面の道に沿って約４０ｍの小屋根付板塀を築き，中央やや南寄りに内側に控えて袖塀付腕木門を開く。塀は高いが上部に横桟を入れて開口し，門の親柱は節付きの丸太で，屋根は一部に桟瓦を置いた銅板葺とするなど軽快な意匠になり，屋敷の表構えを整える。,https://bunka.nii.ac.jp/heritage/43967/_105342/43967_105342111225014929248_300.jpg
101,00004353,高澤ろうそく店主屋,たかざわろうそくてんしゅおく,1棟,,登録有形文化財(建造物),産業3次,建築物,,明治,明治43頃,1910頃,土蔵造2階建、瓦葺、建築面積89㎡,,17 － 0119,44,2004.11.29(平成16.11.29),2004.11.08(平成16.11.08),,20041108,,国土の歴史的景観に寄与しているもの,,石川県,石川県七尾市一本杉町11-1,,,,,37.04640000000000,136.96400000000000,七尾の中心を東西に貫く通りに北面して建つ。桁行５間半梁間４間半，土蔵造２階建，切妻造，桟瓦葺で，内部は１階を店舗，２階に展示スペース，座敷を配す。２階は小窓以外は塗り込め，１階の両端部も壁とする閉鎖的なつくりで，重厚な町家の正面を構成する。,https://bunka.nii.ac.jp/heritage/43967/_105343/43967_105343111225014929513_300.jpg
101,00004354,鳥居醤油店主屋,とりいしょうゆてんしゅおく,1棟,,登録有形文化財(建造物),産業3次,建築物,,明治,明治41,1908,土蔵造2階建、瓦葺、建築面積124㎡,,17 － 0120,44,2004.11.29(平成16.11.29),2004.11.08(平成16.11.08),,20041108,,国土の歴史的景観に寄与しているもの,,石川県,石川県七尾市一本杉町29,,,,,37.04696000000000,136.96290000000000,七尾の中心を東西に貫く通りに北面して建つ。桁行７間半梁間４間半，土蔵造２階建，切妻造，桟瓦葺で，内部は１階を店や座敷，２階は主に物置とする。間口が広く，軒の出の小さい重厚な構えで，つし２階としたたちの低い外観は，町並の景観に欠かせない存在。,https://bunka.nii.ac.jp/heritage/43967/_105344/43967_105344111225014929768_300.jpg
101,00004355,夛田家住宅（旧上野啓文堂）主屋,ただけじゅうたく（きゅううえのけいぶんどう）しゅおく,1棟,,登録有形文化財(建造物),産業3次,建築物,,昭和前,昭和7頃,1932頃,木造2階建、瓦葺、建築面積96㎡,,17 － 0121,44,2004.11.29(平成16.11.29),2004.11.08(平成16.11.08),,20041108,,国土の歴史的景観に寄与しているもの,,石川県,石川県七尾市一本杉町32-1,,,,,37.04709000000000,136.96270000000000,万年筆専門文具店として建設。木造２階建で，内部は和室だが，通りに面した正面はモルタル塗壁を高く立ち上げた看板建築。万年筆とインク瓶のモチーフや柱頭飾り風の特徴ある装飾を付け，２階窓をペン先型に象るなど，斬新な意匠で町並景観に欠かせない存在。,https://bunka.nii.ac.jp/heritage/43967/_105345/43967_105345623569240438449_300.jpg
101,00004356,北島屋茶店主屋,きたじまやさてんしゅおく,1棟,,登録有形文化財(建造物),産業3次,建築物,,明治,明治37頃／昭和8改造,1904頃／1933改造,木造2階建、瓦葺、建築面積93㎡,,17 － 0122,44,2004.11.29(平成16.11.29),2004.11.08(平成16.11.08),,20041108,,国土の歴史的景観に寄与しているもの,,石川県,石川県七尾市一本杉町54,,,,,37.04803000000000,136.96130000000000,住宅として建てられ昭和８年茶舗となる。間口４間奥行６間半，切妻造，桟瓦葺で，１階東に通り庭，西に表からミセの間，居室を１列に並べ，２階には表裏にそれぞれ次の間付座敷をとる。大火以前に遡る稀少な建物で，七尾中心地の歴史的景観に欠かせない町家。,https://bunka.nii.ac.jp/heritage/43967/_105346/43967_105346111225014931489_300.jpg
101,00004357,戸市酒販酒蔵,といちしゅはんさかぐら,1棟,,登録有形文化財(建造物),産業3次,建築物,,大正,大正15頃,1926頃,木骨石造2階建、瓦葺、建築面積75㎡,,17 － 0123,44,2004.11.29(平成16.11.29),2004.11.08(平成16.11.08),,20041108,,国土の歴史的景観に寄与しているもの,,石川県,石川県小松市大川町2-45,,,,,36.41473000000000,136.45040000000000,小松大橋南橋詰すぐ近くに建つ。２階建，切妻造，妻入で，木造軸組の外側に板状の切石を積み上げて漆喰で仕上げ，屋根野地板の上にも切石を張り桟瓦を葺く。西面１階戸口及び２階の小窓以外に開口を設けない閉鎖的なつくりで，防火的な外観を表通りに見せる。,https://bunka.nii.ac.jp/heritage/43967/_105347/43967_105347111225014931741_300.jpg
101,00004534,五徳庵主屋,ごとくあんしゅおく,1棟,,登録有形文化財(建造物),住宅,建築物,,明治,明治33,1900,木造平屋建、瓦葺、建築面積99㎡,,17 － 0124,45,2005.02.28(平成17.02.28),2005.02.09(平成17.02.09),,20050209,,造形の規範となっているもの,,石川県,石川県加賀市大聖寺錦町52-1,,特定非営利活動法人歴町センター大聖寺,,,36.30560000000000,136.30460000000000,門及び倉庫の北側に南面して建つ。木造，桟瓦葺の平屋建で，屋根は切妻造を基本とする。玄関と３畳の取次ぎが並ぶ東側に，８畳２室が南北に続き，西側には水回りと居室２室を置く。中級武家屋敷の流れを汲む明治期の住宅遺構として貴重である。,https://bunka.nii.ac.jp/heritage/43967/_105524/43967_105524111225015206645_300.jpg
101,00004535,五徳庵倉庫,ごとくあんそうこ,1棟,,登録有形文化財(建造物),住宅,建築物,,昭和中,昭和24,1949,木造2階建、瓦葺、建築面積33㎡,,17 － 0125,45,2005.02.28(平成17.02.28),2005.02.09(平成17.02.09),,20050209,,国土の歴史的景観に寄与しているもの,,石川県,石川県加賀市大聖寺錦町52-1,,特定非営利活動法人歴町センター大聖寺,,,36.30550000000000,136.30460000000000,主屋の南方に位置し，敷地南面接道部分の東端に東西棟で建つ。木造２階建，切妻造，桟瓦葺で，北面に入口を設け，西面１階及び２階に窓が付く。外壁は下見板張で，北側から東側にかけて下屋が回り，主屋と繋がる。門とともに屋敷構えを構成する要素のひとつ。,https://bunka.nii.ac.jp/heritage/43967/_105525/43967_105525111225015207610_300.jpg
101,00004536,五徳庵離れ,ごとくあんはなれ,1棟,,登録有形文化財(建造物),住宅,建築物,,大正,大正8,1919,木造平屋建、鉄板葺及び瓦葺、建築面積16㎡,,17 － 0126,45,2005.02.28(平成17.02.28),2005.02.09(平成17.02.09),,20050209,,造形の規範となっているもの,,石川県,石川県加賀市大聖寺錦町52-1,,特定非営利活動法人歴町センター大聖寺,,,36.30562000000000,136.30480000000000,北端が東に矩折れる敷地の東部に奥まって建つ。切妻造，鉄板葺の木造平屋建で，東・南・西の３面に桟瓦葺の下屋が廻る。６畳一間の小規模な離れ座敷で，床，棚，天井等の意匠に工夫が見られ，広い開口部を北側の庭に面して取る。大正期数寄屋離れの一事例。,https://bunka.nii.ac.jp/heritage/43967/_105526/43967_105526111225015210353_300.jpg
101,00004537,五徳庵門,ごとくあんもん,1棟,,登録有形文化財(建造物),住宅,その他工作,,江戸,江戸末期,1830-1867,木造、鉄板葺、間口4.1m,,17 － 0127,45,2005.02.28(平成17.02.28),2005.02.09(平成17.02.09),,20050209,,国土の歴史的景観に寄与しているもの,,石川県,石川県加賀市大聖寺錦町52-1,,特定非営利活動法人歴町センター大聖寺,,,36.30550000000000,136.30450000000000,敷地南端，倉庫の西側に，道路より後退して建つ。正面２間の木造腕木門で，西側１間が下見板張，東側１間が引込の板戸となり，切妻造，鉄板葺の屋根が架かる。柱や冠木は古く，旧藩時代の中級武家屋敷の門形式を示し，大聖寺藩時代の武家地の面影を今に残す。,https://bunka.nii.ac.jp/heritage/43967/_105527/43967_105527111225015211130_300.jpg
101,00004953,浅野川大橋詰火の見櫓,あさのがわおおはしづめひのみやぐら,1基,,登録有形文化財(建造物),生活関連,その他工作,,大正,大正13／昭和46改造,1924／1971改造,鉄骨造、高さ11m,,17 － 0128,47,2005.12.05(平成17.12.05),2005.11.10(平成17.11.10),,20051110,,再現することが容易でないもの,,石川県,石川県金沢市東山3-1-2先,,金沢市,,,36.57245000000000,136.66450000000000,市内に現存する最古の火の見櫓。浅野川大橋の北詰にあり，鋳鉄製銘板から，施工は市内の高田商会。手摺を含めると高さ約１１ｍ，三角形平面の鉄骨造で，柱や横材等は山形鋼を用い，筋違は鋼棒とし，一部にアーチを使い，大型鉄骨造の櫓とする。,https://bunka.nii.ac.jp/heritage/43967/_105943/43967_105943111225020223523_300.jpg
101,00004954,勝本家住宅主屋,かつもとけじゅうたくしゅおく,1棟,,登録有形文化財(建造物),住宅,建築物,,明治,明治30頃,1897頃,木造2階建、瓦葺、建築面積153㎡,,17 － 0129,47,2005.12.05(平成17.12.05),2005.11.10(平成17.11.10),,20051110,,造形の規範となっているもの,,石川県,石川県七尾市一本杉町123,,,,,37.04810000000000,136.96120000000000,東西に通る一本杉通り北側に屋敷を構える。南面して建つ切妻造２階建，平入の町家で，西側を玄関土間とし，ミセノマを挟んで東に落棟のザシキを延ばし，正面は腕木で出桁を支え深い軒をつくる。明治３８年大火以前の七尾の伝統的な町家形式をよく伝えている。,https://bunka.nii.ac.jp/heritage/43967/_105944/43967_105944111225020224445_300.jpg
101,00004955,神野家住宅主屋,かんのけじゅうたくしゅおく,1棟,,登録有形文化財(建造物),住宅,建築物,,昭和前,昭和9,1934,木造2階建、瓦葺、建築面積144㎡,,17 － 0130,47,2005.12.05(平成17.12.05),2005.11.10(平成17.11.10),,20051110,,造形の規範となっているもの,,石川県,石川県七尾市塗師町36-1,,,,,37.04442000000000,136.96870000000000,南側の街路に接して屋敷を構える。歯科医院として建てられた洋風の町家で，北を正面とした切妻造２階建，桟瓦葺，平入の形式。モルタル洗い出し仕上げの正面外壁は目地を付けて石造風に見せる。洋風の造形は１階窓枠上の装飾や軒廻りのデンティルにみられる。,https://bunka.nii.ac.jp/heritage/43967/_105945/43967_105945111225020225968_300.jpg
101,00005120,春成酒造店主屋,はるなりしゅぞうてんしゅおく,1棟,,登録有形文化財(建造物),産業3次,建築物,,昭和前,昭和9,1934,木造2階建、瓦葺、建築面積191㎡,,17 － 0131,48,2005.12.27(平成17.12.27),2005.12.26(平成17.12.26),,20051226,,国土の歴史的景観に寄与しているもの,,石川県,石川県七尾市今町15,,,,,37.04419000000000,136.96920000000000,能登街道の起点となる「違い堀」の近くに位置する。桁行７間半，梁間６間，切妻造，桟瓦葺，平入の木造２階建で，通りに西面して建ち，北方を店舗，事務室とし，南方に８畳を３室並べる。たちの高いせがい造の町家で，規模も大きく，周囲で際だった存在。,https://bunka.nii.ac.jp/heritage/43967/_106110/43967_106110111225020632508_300.jpg
101,00005121,室木家住宅主屋,むろきけじゅうたくしゅおく,1棟,,登録有形文化財(建造物),住宅,建築物,,大正,大正元,1912,木造2階建、瓦葺、建築面積455㎡,,17 － 0132,48,2005.12.27(平成17.12.27),2005.12.26(平成17.12.26),,20051226,,造形の規範となっているもの,,石川県,石川県七尾市中島町浜田レ部21-1,,,,,37.11689000000000,136.85050000000000,七尾西湾に注ぐ熊木川右岸沿いの屋敷地に西面して建つ。間口９間半規模，切妻造，妻入のアズマダチ民家の系譜をひく近代和風住宅で，南方を土間，北方を床上部とし，３列に諸室を並べ，土間上部に梁組を見せる。全体的に良材を用いた上質なつくり。,https://bunka.nii.ac.jp/heritage/43967/_106111/43967_106111111225020634112_300.jpg
101,00005122,橋本酒造主屋,はしもとしゅぞうしゅおく,1棟,,登録有形文化財(建造物),産業3次,建築物,,江戸,文化11,1814,木造2階建、瓦葺、建築面積391㎡,,17 － 0133,48,2005.12.27(平成17.12.27),2005.12.26(平成17.12.26),,20051226,,造形の規範となっているもの,,石川県,石川県加賀市動橋町イ184,,株式会社笹舟住研,,,36.32772000000000,136.38650000000000,街道に東面して建つ。主体部は桁行７間，梁間７間規模，切妻造，桟瓦葺のつし２階建町家で，南寄りに通り土間を通し，南に１列，北に３列の諸室を配する。南端はもと釜場で，高い吹き抜けで，棟上に越屋根を載せる。江戸後期における造り酒屋の主屋の好事例。,https://bunka.nii.ac.jp/heritage/43967/_106112/43967_106112111225020635734_300.jpg
101,00005123,橋本酒造離座敷,はしもとしゅぞうはなれざしき,1棟,,登録有形文化財(建造物),住宅,建築物,,昭和中,昭和25,1950,木造平屋建、瓦葺、建築面積94㎡,,17 － 0134,48,2005.12.27(平成17.12.27),2005.12.26(平成17.12.26),,20051226,,造形の規範となっているもの,,石川県,石川県加賀市動橋町イ184,,株式会社笹舟住研,,,36.32793000000000,136.38630000000000,主屋の北西に接続して南北棟で建つ。入母屋造，桟瓦葺の木造平屋建で，１２畳半の座敷と１０畳を南北に並べ，東面に広縁，主屋寄りの東南部に４畳半の茶室を配する。福井地震後の再建であるが，座敷は床，襖絵，折上天井等を備え，格式高いつくりとする。,https://bunka.nii.ac.jp/heritage/43967/_106113/43967_106113111225020637552_300.jpg
101,00005124,橋本酒造道具蔵,はしもとしゅぞうどうぐぐら,1棟,,登録有形文化財(建造物),住宅,建築物,,江戸,江戸末期,1830-1867,土蔵造2階建、瓦葺、建築面積60㎡,,17 － 0135,48,2005.12.27(平成17.12.27),2005.12.26(平成17.12.26),,20051226,,再現することが容易でないもの,,石川県,石川県加賀市動橋町イ184,,,,,36.32789000000000,136.38620000000000,離座敷の西方に建ち，主屋とは廊下で連絡する。桁行５間半，梁間２間半，南北棟，切妻造，桟瓦葺，妻入の２階建土蔵で，南面に戸口を設け，各階北面に窓を開ける。西面及び北面と東面の北寄りに柱を密に接して建てるのが特徴。,https://bunka.nii.ac.jp/heritage/43967/_106114/43967_106114111225020638434_300.jpg
101,00005125,橋本酒造石蔵,はしもとしゅぞういしぐら,1棟,,登録有形文化財(建造物),住宅,建築物,,昭和中,昭和23,1948,木骨石造2階建、瓦葺、建築面積26㎡,,17 － 0136,48,2005.12.27(平成17.12.27),2005.12.26(平成17.12.26),,20051226,,再現することが容易でないもの,,石川県,石川県加賀市動橋町イ184,,,,,36.32778000000000,136.38630000000000,道具蔵の南方に東西棟で建つ。桁行３間，梁間２間半規模の木骨石造２階建で，東面の北寄りに戸口を設ける。家財蔵で，壁の内側は板張，外側には凝灰岩の滝ヶ原石を積む。屋根は切妻造，桟瓦葺の置屋根で，主屋や離座敷等と同様に棟に凝灰岩の笏谷石を置く。,https://bunka.nii.ac.jp/heritage/43967/_106115/43967_106115111225020638943_300.jpg
101,00005126,橋本酒造槽場,はしもとしゅぞうふなば,1棟,,登録有形文化財(建造物),産業2次,建築物,,江戸,文化5,1808,土蔵造2階建、瓦葺、建築面積145㎡,,17 － 0137,48,2005.12.27(平成17.12.27),2005.12.26(平成17.12.26),,20051226,,再現することが容易でないもの,,石川県,石川県加賀市動橋町イ184,,株式会社笹舟住研,,,36.32767000000000,136.38620000000000,石蔵の南方，主屋通り庭の西側に接して東西棟で建つ。桁行１０間半，梁間４間規模，切妻造，桟瓦葺で，主屋側土扉金具に「文化五年辰七月吉日」と記す。外周は半間毎に柱を建て，外側に凝灰岩を張り，さらに外側に土壁層を設けて漆喰塗り仕上げとする。,https://bunka.nii.ac.jp/heritage/43967/_106116/43967_106116111225020640564_300.jpg
101,00005127,橋本酒造貯蔵庫,はしもとしゅぞうちょぞうこ,1棟,,登録有形文化財(建造物),産業2次,建築物,,江戸,江戸末期,1830-1867,土蔵造2階建、瓦葺、建築面積145㎡,,17 － 0138,48,2005.12.27(平成17.12.27),2005.12.26(平成17.12.26),,20051226,,再現することが容易でないもの,,石川県,石川県加賀市動橋町イ184,,株式会社笹舟住研,,,36.32782000000000,136.38610000000000,槽場の北面西寄りに接続して南北棟で建つ。桁行９間，梁間４間半規模，切妻造，桟瓦葺，妻入の２階建酒蔵で，南西隅に階段を設け，内部棟通りの２本の柱と妻面の棟持柱が地棟を支持する。槽場と同様に，外周の壁内側に凝灰岩を張り，大棟には笏谷石を置く。,https://bunka.nii.ac.jp/heritage/43967/_106117/43967_106117111225020642592_300.jpg
101,00005128,橋本酒造清酒蔵,はしもとしゅぞうせいしゅぐら,1棟,,登録有形文化財(建造物),産業2次,建築物,,大正,大正14,1925,土蔵造2階建、瓦葺、建築面積159㎡,,17 － 0139,48,2005.12.27(平成17.12.27),2005.12.26(平成17.12.26),,20051226,,再現することが容易でないもの,,石川県,石川県加賀市動橋町イ184,,株式会社笹舟住研,,,36.32770000000000,136.38600000000000,槽場の西方，貯蔵庫の南西方に位置し，東西棟で建つ。規模は桁行７間半，梁間６間で，切妻造，桟瓦葺，妻入の２階建酒蔵で，１階内部の２列の柱６本が２階床を支持し，２階中央２本の柱で地棟を支える整然とした構造で，外周の壁内側に凝灰岩を張る。,https://bunka.nii.ac.jp/heritage/43967/_106118/43967_106118111225020644874_300.jpg
101,00005129,橋本酒造冷蔵室,はしもとしゅぞうれいぞうしつ,1棟,,登録有形文化財(建造物),産業3次,建築物,,大正,大正期／昭和31移築,1912-1925／1956移築,木骨石造2階建、瓦葺、建築面積93㎡,,17 － 0140,48,2005.12.27(平成17.12.27),2005.12.26(平成17.12.26),,20051226,,再現することが容易でないもの,,石川県,石川県加賀市動橋町イ184,,株式会社笹舟住研,,,36.32792000000000,136.38600000000000,貯蔵庫の北西，敷地北辺沿いに東西棟で建つ。桁行５間，梁間４間規模，切妻造，桟瓦葺，妻入の木骨石造２階建で，東面に２間の下屋を差し掛けて戸口を開く。屋根は置屋根である。内部は中央に１本の柱を建て，地棟に木太い合掌を架ける。,https://bunka.nii.ac.jp/heritage/43967/_106119/43967_106119111225020645595_300.jpg
101,00005130,橋本酒造釜場及び白米庫,はしもとしゅぞうかまばおよびはくまいこ,1棟,,登録有形文化財(建造物),産業2次,建築物,,昭和中,昭和29,1954,鉄骨石造平屋建、瓦葺、建築面積171㎡,,17 － 0141,48,2005.12.27(平成17.12.27),2005.12.26(平成17.12.26),,20051226,,造形の規範となっているもの,,石川県,石川県加賀市動橋町イ184,,株式会社笹舟住研,,,36.32757000000000,136.38600000000000,清酒蔵の南方に東西棟で建つ。桁行１１間，梁間５間，切妻造，桟瓦葺の平屋建で，仕込蔵として建設。構造は外周に鉄骨柱を建て，外側に凝灰岩を積んだ鉄骨石造で，小屋組は鉄骨のフィンクトラスとする。ＲＣ造へ移行する過渡期の構造の好事例。,https://bunka.nii.ac.jp/heritage/43967/_106120/43967_106120111225020646364_300.jpg
101,00005131,橋本酒造旧精米所,はしもとしゅぞうきゅうせいまいしょ,1棟,,登録有形文化財(建造物),産業3次,建築物,,大正,大正10,1921,土蔵造平屋建、瓦葺、建築面積99㎡,,17 － 0142,48,2005.12.27(平成17.12.27),2005.12.26(平成17.12.26),,20051226,,再現することが容易でないもの,,石川県,石川県加賀市動橋町イ184,,株式会社笹舟住研,,,36.32757000000000,136.38580000000000,釜場及び白米庫の西方，敷地南辺沿いに東西棟で建つ。桁行６間，梁間５間，切妻造，桟瓦葺の土蔵造平屋建で，北面東寄りと東面北寄りに出入口を設ける。南側梁行２間の土蔵と北側梁行３間トラス小屋の土蔵を接合し，一体的な屋根を架けた特異なつくりに特徴。,https://bunka.nii.ac.jp/heritage/43967/_106121/43967_106121111225020647072_300.jpg
101,00005132,橋本酒造表門,はしもとしゅぞうおもてもん,1棟,,登録有形文化財(建造物),住宅,その他工作,,昭和中,昭和25,1950,木造、銅板葺、間口1.7m、袖塀付,,17 － 0143,48,2005.12.27(平成17.12.27),2005.12.26(平成17.12.26),,20051226,,国土の歴史的景観に寄与しているもの,,石川県,石川県加賀市動橋町イ184,,株式会社笹舟住研,,,36.32792000000000,136.38660000000000,敷地東辺北寄りに，主屋北側庭園への出入口として設けられる。間口１．７ｍ，切妻造，銅板葺の１間１戸棟門で，本柱は礎石建ちとし，背面に控柱を斜めに建て，扉上の格子欄間に「開花亭」の扁額を掲げる。昭和２３年の福井地震後，同位置にほぼ同型式で再建。,https://bunka.nii.ac.jp/heritage/43967/_106122/43967_106122111225020647797_300.jpg
101,00005133,橋本酒造塀,はしもとしゅぞうへい,1棟,,登録有形文化財(建造物),住宅,その他工作,,昭和中,昭和25,1950,木造、瓦葺、延長23m,,17 － 0144,48,2005.12.27(平成17.12.27),2005.12.26(平成17.12.26),,20051226,,国土の歴史的景観に寄与しているもの,,石川県,石川県加賀市動橋町イ184,,株式会社笹舟住研,,,36.32778000000000,136.38570000000000,敷地東北辺に，凝灰岩石積み基礎の上に建つ。腰を縦板張，長押上を黒漆喰塗とし，桟瓦葺の屋根を架け，笏谷石の棟石を据える。東北角で曲線を描き，表門両側及び東辺南端で直角に折れ，南端は主屋の出格子窓に取り付く。表門同様，福井地震後の再建になる。,https://bunka.nii.ac.jp/heritage/43967/_106123/43967_106123111225020649232_300.jpg
101,00005272,若草教会（旧日本基督教団金沢教会）礼拝堂,わかくさきょうかい（きゅうにほんきりすときょうだんかなざわきょうかい）れいはいどう,1棟,,登録有形文化財(建造物),宗教,建築物,,明治,明治24／昭和30移築,1891／1955移築,木造平屋一部2階建、瓦葺、建築面積172㎡,,17 － 0145,49,2006.03.23(平成18.03.23),2006.03.02(平成18.03.02),,20060302,,造形の規範となっているもの,,石川県,石川県金沢市若草町13-44,,宗教法人日本基督教団若草教会,,,36.54472000000000,136.65960000000000,礼拝堂，祈祷室，和室をＬ字に配する木造平屋建。和室部のみ２階建とし，屋根は急勾配の切妻造，桟瓦葺とする。プロテスタントらしい装飾を排除した内部空間は，天井を張らずに吹き抜けとし，挟み梁とタイ・バーを組合わせた軽快な小屋組を示す。,https://bunka.nii.ac.jp/heritage/43967/_106260/43967_106260111225021012382_300.jpg
101,00005273,本泉寺手水舎,ほんせんじちょうずや,1棟,,登録有形文化財(建造物),宗教,その他工作,,明治,明治5,1872,木造、瓦葺、面積5.7㎡,,17 － 0146,49,2006.03.23(平成18.03.23),2006.03.02(平成18.03.02),,20060302,,造形の規範となっているもの,,石川県,石川県金沢市二俣町子8,,宗教法人本泉寺,,,36.55833000000000,136.76500000000000,本堂前方南東寄に建つ木造桟瓦葺の手水舎。断面六角形の柱３本を内転びに立て，アーチ状の梁を渡して丸桁を支える。屋根棟頂部には帽子状の石を据える。大工石崎清左衛門の手になり，明治初期の新しい建築様式への取り組みを表す独特な遺構。,https://bunka.nii.ac.jp/heritage/43967/_106261/43967_106261111225021014072_300.jpg
101,00005274,室木家住宅門及び塀,むろきけじゅうたくもんおよびへい,1棟,,登録有形文化財(建造物),住宅,その他工作,,大正,大正元,1912,門　木造、瓦葺、間口4.2m、塀　木造、瓦葺、延長43m,,17 － 0147,49,2006.03.23(平成18.03.23),2006.03.02(平成18.03.02),,20060302,,国土の歴史的景観に寄与しているもの,,石川県,石川県七尾市中島町浜田レ部21-1,,,,,37.11684000000000,136.85040000000000,敷地西辺に沿って建ち，塀の両端が東に折れる。門は切妻造，桟瓦葺の薬医門で，観音開きの門扉を開く。塀は凝灰岩の基礎上に建つ竪板張の塀で，腰より上を漆喰で仕上げ，桟瓦葺屋根を置く。創建時の状態を良く留め，主屋と共に豪壮な民家の景観を形成。,https://bunka.nii.ac.jp/heritage/43967/_106262/43967_106262111225021015647_300.jpg
101,00005428,本岡家住宅主屋,もとおかけじゅうたくしゅおく,1棟,,登録有形文化財(建造物),住宅,建築物,,明治,明治15／明治35移築,1882／1902移築,木造2階建、瓦葺、建築面積353㎡,,17 － 0148,50,2006.04.12(平成18.04.12),2006.03.27(平成18.03.27),,20060327,,造形の規範となっているもの,,石川県,石川県金沢市元町2-7-7,,,,,36.57963000000000,136.66600000000000,敷地西寄りに建ち，桁行１１間半，梁間７間の規模で，木造２階建，切妻造，桟瓦葺とする。表構えは妻面を見せ，いわゆる東造りの形式をとり，正面に大戸を構え，持ち送りで軒を支える。内部には大きな差物が使われるなど，材質，規模，意匠共に秀でている。,https://bunka.nii.ac.jp/heritage/43967/_106416/43967_106416111225021402392_300.jpg
101,00005429,本岡家住宅東蔵,もとおかけじゅうたくひがしぐら,1棟,,登録有形文化財(建造物),住宅,建築物,,昭和前,昭和9,1934,土蔵造2階建、瓦葺、建築面積32㎡,,17 － 0149,50,2006.04.12(平成18.04.12),2006.03.27(平成18.03.27),,20060327,,国土の歴史的景観に寄与しているもの,,石川県,石川県金沢市元町2-7-7,,,,,36.57956000000000,136.66620000000000,敷地南境に近接して建ち，桁行３間半，梁間２間半の規模で，土蔵造２階建，切妻造，桟瓦葺，置屋根形式とする。外壁及び腰をモルタル塗人造石仕上げとする。主屋側１，２階に窓を２箇所づつ開き，観音開きの鉄扉を付け，主屋前庭の空間をつくる配置としている。,https://bunka.nii.ac.jp/heritage/43967/_106417/43967_106417111225021404144_300.jpg
101,00005430,本岡家住宅西蔵,もとおかけじゅうたくにしぐら,1棟,,登録有形文化財(建造物),住宅,建築物,,明治,明治5,1872,土蔵造2階建、瓦葺、建築面積28㎡,,17 － 0150,50,2006.04.12(平成18.04.12),2006.03.27(平成18.03.27),,20060327,,国土の歴史的景観に寄与しているもの,,石川県,石川県金沢市元町2-7-7,,,,,36.57953000000000,136.66590000000000,敷地南境に近接して，主屋の南側に建つ。桁行３間半，梁間２間で，土蔵造２階建，切妻造，桟瓦葺の置屋根とする。基礎を切石積み，外壁をモルタル塗人造石仕上げとし，腰を石張りとする。戸口を主屋側に開き，主屋と廊下で連絡する。敷地及び街路の景観を形成。,https://bunka.nii.ac.jp/heritage/43967/_106418/43967_106418111225021405560_300.jpg
101,00005431,本岡家住宅内門及び築地塀,もとおかけじゅうたくうちもんおよびついじべい,1棟,,登録有形文化財(建造物),住宅,その他工作,,明治,明治35頃,1902頃,内門　木造、瓦葺、間口2.0m、築地塀　土塀、瓦葺、延長5.4m,,17 － 0151,50,2006.04.12(平成18.04.12),2006.03.27(平成18.03.27),,20060327,,国土の歴史的景観に寄与しているもの,,石川県,石川県金沢市元町2-7-7,,,,,36.57985000000000,136.66600000000000,主屋の北側東端に隣接して建ち，間口２ｍの木造棟門の両脇に土塀を続ける。門は切妻造，桟瓦葺で，両開きの戸を開く。塀は基礎を切石積みとし，桟瓦葺屋根の土塀で，延長５．４ｍとする。主屋北側の庭と前方の空間を分け，主屋の正面の景観を形成する。,https://bunka.nii.ac.jp/heritage/43967/_106419/43967_106419111225021406783_300.jpg
101,00005432,角島家住宅店舗及び主屋,かどしまけじゅうたくてんぽおよびしゅおく,1棟,,登録有形文化財(建造物),産業3次,建築物,,昭和前,昭和3,1928,木造3階建、鋼板葺一部瓦葺、建築面積60㎡,,17 － 0152,50,2006.04.12(平成18.04.12),2006.03.27(平成18.03.27),,20060327,,造形の規範となっているもの,,石川県,石川県金沢市安江町5-14,,,,,36.57603000000000,136.65600000000000,北側道路に接して建ち，桁行９．５ｍ，梁間７．６ｍの規模で，木造３階建，切妻造，鋼板葺一部桟瓦葺で，正面１階をタイル貼り，２階以上を銅板張りとし，東端にモルタル塗の外壁を立ち上げる。１階を店舗，２階以上を住宅とし，正面を洋風意匠でまとめている。,https://bunka.nii.ac.jp/heritage/43967/_106420/43967_106420111225021408217_300.jpg
101,00005433,懐古館（旧飯田家住宅）主屋,かいこかん（きゅういいだけじゅうたく）しゅおく,1棟,,登録有形文化財(建造物),住宅,建築物,,江戸,江戸後期／明治末期・大正期増築,1751-1829／1868-1911・1912-1925増築,木造平屋建、茅葺、建築面積281㎡,,17 － 0153,50,2006.04.12(平成18.04.12),2006.03.27(平成18.03.27),,20060327,,造形の規範となっているもの,,石川県,石川県七尾市古屋敷町タ8-6-1,,七尾市,,,37.02428000000000,136.97630000000000,敷地中央に建ち，桁行９間，梁間６間の規模で，木造平屋建，入母屋造，茅葺，平入とし正面の軒を瓦葺きとする。西側に土間をとり，東側にブツマ，ザシキ，ナカノマを並べ，ブツマに床の間を構え，その裏に隠し仏壇を置く。能登の民家形式の特徴をもつ農家建築。,https://bunka.nii.ac.jp/heritage/43967/_106421/43967_106421111225021409313_300.jpg
101,00005599,南惣家住宅主屋,なんそうけじゅうたくしゅおく,1棟,,登録有形文化財(建造物),住宅,建築物,,明治,明治24,1891,木造平屋一部2階建、茅葺（鉄板仮葺）、建築面積322㎡,,17 － 0154,51,2006.08.24(平成18.08.24),2006.08.03(平成18.08.03),,20060803,,造形の規範となっているもの,,石川県,石川県輪島市町野町東大野ク100,,,,,37.44123000000000,137.06690000000000,東面する入母屋造の民家。もと茅葺の屋根は急勾配で，全体にたちの高いつくりであるが，四周に下屋が廻り，外観は安定感がある。欅や松等の良材を用いた丁寧なつくりで，座敷の意匠も端正で質が高い。明治期における大規模民家の特性を端的に示している。,https://bunka.nii.ac.jp/heritage/43967/_106587/43967_106587151102161534093_300.jpg
101,00005600,南惣家住宅前蔵,なんそうけじゅうたくまえぐら,1棟,,登録有形文化財(建造物),住宅,建築物,,明治,明治中期,1868-1911,土蔵造2階建、瓦葺、建築面積96㎡,,17 － 0155,51,2006.08.24(平成18.08.24),2006.08.03(平成18.08.03),,20060803,,造形の規範となっているもの,,石川県,石川県輪島市町野町東大野ク100,,,,,37.44105000000000,137.06710000000000,主屋の東南に位置する。南北棟の切妻造，桟瓦葺，土蔵造２階建で，西面に４箇所の扉口を構え，外壁は漆喰塗，東面と西面の腰を海鼠壁とする。内部は北より米蔵，味噌蔵，納屋，使所の４室に分かれている。主屋と同時期に建てられたもので，つくりも上質である。,https://bunka.nii.ac.jp/heritage/43967/_106588/43967_106588111225021720004_300.jpg
101,00005601,南惣家住宅馬屋,なんそうけじゅうたくうまや,1棟,,登録有形文化財(建造物),住宅,建築物,,明治,明治中期,1868-1911,木造2階建、瓦葺、建築面積101㎡,,17 － 0156,51,2006.08.24(平成18.08.24),2006.08.03(平成18.08.03),,20060803,,造形の規範となっているもの,,石川県,石川県輪島市町野町東大野ク100,,,,,37.44087000000000,137.06710000000000,前蔵の南に建つ。東西棟の切妻造，桟瓦葺，２階建で，南面に庇を架ける。構造は真壁造で，貫を多用して堅固な軸組をつくり，１階の外壁は押縁下見板張で覆う。内部は１階を牛馬舎に細かく間仕切るが，２階は茅置場とする。大規模屋敷に相応しい規模形式をもつ。,https://bunka.nii.ac.jp/heritage/43967/_106589/43967_106589111225021722225_300.jpg
101,00005706,上野家住宅土蔵,うえのけじゅうたくどぞう,1棟,,登録有形文化財(建造物),住宅,建築物,,大正,大正5,1916,土蔵造2階建、瓦葺、建築面積19㎡,,17 － 0159,52,,2006.10.18(平成18.10.18),,20061018,,国土の歴史的景観に寄与しているもの,,石川県,石川県金沢市石引1-15-31,,,,,36.55390000000000,136.67260000000000,主屋側面に隣接して建つ内蔵で，桁行２間，梁間２間半，土蔵造２階建で，切妻造，桟瓦葺の置屋根形式とする。外壁を白漆喰塗とし，下屋状の主屋納戸の朱壁と鮮やかな対比を示し，主屋縁側からの敷地内の景観を整える存在として貴重な建物である。,https://bunka.nii.ac.jp/heritage/43967/_106694/43967_106694111225022024101_300.jpg
101,00005814,上野家住宅旧診療所,うえのけじゅうたくきゅうしんりょうじょ,1棟,,登録有形文化財(建造物),文化福祉,建築物,,大正,大正5,1916,木造2階建、瓦葺、建築面積65㎡,,17 － 0157,52,,2006.10.19(平成18.10.19),,20061019,,造形の規範となっているもの,,石川県,石川県金沢市石引1-15-31,,,,,36.55389000000000,136.67250000000000,道路に面して建ち，桁行４間，梁間４間半，木造２階建，宝形造，桟瓦葺とする。外壁のモルタル塗に横目地を入れ，４本のピラスターを設け，レリーフや持送りを飾り，石造建築風のファサードを形成する。地方の近代化を示す指標となる建物である。,https://bunka.nii.ac.jp/heritage/43967/_106801/43967_106801111225022309632_300.jpg
101,00005830,上野家住宅主屋,うえのけじゅうたくしゅおく,1棟,,登録有形文化財(建造物),住宅,建築物,,大正,大正5,1916,木造2階建、瓦葺、建築面積119㎡,,17 － 0158,52,,2006.10.18(平成18.10.18),,20061018,,造形の規範となっているもの,,石川県,石川県金沢市石引1-15-31,,,,,36.55396000000000,136.67260000000000,細長い敷地で，旧診療所の奥に建つ。桁行５間，梁間６間の規模で，木造２階建，切妻造，桟瓦葺とする。１階は通り庭が存在した伝統的な町家の平面形式とし，２階には床付きの座敷など４室を設ける。診療所と住居の動線を分ける点は，都市住宅の近代化を示す。,https://bunka.nii.ac.jp/heritage/43967/_106816/43967_106816111225022337591_300.jpg
101,00005991,菊知家住宅主屋,きくちけじゅうたくしゅおく,1棟,,登録有形文化財(建造物),住宅,建築物,,明治,明治4,1871,木造平屋一部2階建、瓦葺、建築面積370㎡,,17 － 0160,53,,2006.11.29(平成18.11.29),,20061129,,国土の歴史的景観に寄与しているもの,,石川県,石川県金沢市北森本町ル15,,,,,36.62344000000000,136.69690000000000,旧北国街道に西面して敷地を構える。切妻造，桟瓦葺の妻入で，妻壁に梁と貫を重ねるあずまづくりで，西端を土間，東を床上の居室とする。１０畳２間の座敷をもち，東に奥座敷を増築している。材を吟味し，施工も良質。伸びやかな屋根が特色ある景観をなす。,https://bunka.nii.ac.jp/heritage/43967/_106976/43967_106976111225022816025_300.jpg
101,00005992,菊知家住宅土蔵,きくちけじゅうたくどぞう,1棟,,登録有形文化財(建造物),住宅,建築物,,明治,明治4,1871,土蔵造2階建、瓦葺、建築面積29㎡,,17 － 0161,53,,2006.11.29(平成18.11.29),,20061129,,国土の歴史的景観に寄与しているもの,,石川県,石川県金沢市北森本町ル15,,,,,36.62332000000000,136.69680000000000,主屋の南に建つ南北棟の土蔵造２階建で，切妻造，桟瓦葺の置屋根を架ける。桁行３間，梁間２間半で，西面に戸口を設け，蔵前が主屋水屋に接続する。切石積の高い基礎上に建ち，外壁は押縁下見板張で，東面中央に上下２つの窓を開く。たちが高く存在感ある外観。,https://bunka.nii.ac.jp/heritage/43967/_106977/43967_106977111225022817790_300.jpg
101,00005993,菊知家住宅表門,きくちけじゅうたくおもてもん,1棟,,登録有形文化財(建造物),住宅,その他工作物,,明治,明治4,1871,木造、瓦葺、間口2.4m、袖塀付,,17 － 0162,53,,2006.11.29(平成18.11.29),,20061129,,国土の歴史的景観に寄与しているもの,,石川県,石川県金沢市北森本町ル15,,,,,36.62363400000000,136.69689874000000,主屋の西北に，旧街道からやや奥まって建つ，切妻造，桟瓦葺の棟門。間口８尺で乳金物，八双金物を飾った両開板扉を吊り込み，縦格子の欄間を設け，肘木形の女梁を用いる。左手表側に矩折れに張り出した袖塀に一体として屋根を架け，特色ある景観をなす。,https://bunka.nii.ac.jp/heritage/43967/_106978/43967_106978428403345332154_300.jpg
101,00006008,小松市立空とこども絵本館（旧小松警察署庁舎）,こまつしそらとこどもえほんかん（きゅうこまつけいさつしょちょうしゃ）,1棟,,登録有形文化財(建造物),官公庁舎,建築物,,昭和前,昭和6頃／平成18改修,1931頃／2006改修,階段室　鉄筋コンクリート造3階建、建築面積17㎡、外壁　鉄筋コンクリート造、延長42m,,17 － 0163,54,,2007.05.15(平成19.05.15),,20070515,,造形の規範となっているもの,,石川県,石川県小松市小馬出町10-3,,小松市,,,36.40765000000000,136.44790000000000,鉄筋コンクリート造，３階建の階段室及び三方に廻る外壁が当初のままで残る。外観は下層に筋面タイルを貼り，上層を洗い出し仕上げとする。正面中央上部のレリーフ，上層の窓上部の半アーチ形のタイル貼や陶器製の獣頭等で随所を飾り，特徴ある外観を形成する。,https://bunka.nii.ac.jp/heritage/43967/_106993/43967_106993111225022847716_300.jpg
101,00006449,戸水屋菓子店店舗兼主屋,とみずやかしてんてんぽけんしゅおく,1棟,,登録有形文化財(建造物),産業3次,建築物,,大正,大正10頃,1921頃,木造2階一部平屋建、瓦葺、建築面積172㎡,,17 － 0164,56,2007.10.22(平成19.10.22),2007.10.02(平成19.10.02),,20071002,,国土の歴史的景観に寄与しているもの,,石川県,石川県金沢市寺町2-3-1,,,,,36.55004000000000,136.65550000000000,寺町大通りに東面して建つ。正面桁行５間、梁間７間、切妻造、桟瓦葺、平入のたちの高い２階建町家で、北寄りに土間を通し、南３間分を店とする。正面は出桁造とし、１階の欄間下に木製庇を差し掛け、２階には袖卯建を付けるなど存在感ある表構えを見せる。,https://bunka.nii.ac.jp/heritage/43967/_107432/43967_107432111225024048396_300.jpg
101,00006450,戸水家住宅土蔵,とみずけじゅうたくどぞう,1棟,,登録有形文化財(建造物),住宅,建築物,,明治,明治後期,1868-1911,土蔵造2階建、瓦葺、建築面積25㎡,,17 － 0165,56,2007.10.22(平成19.10.22),2007.10.02(平成19.10.02),,20071002,,国土の歴史的景観に寄与しているもの,,石川県,石川県金沢市寺町2-3-1,,,,,36.55000000000000,136.65540000000000,店舗兼住宅の西方、敷地の最奧に東西棟で建つ。桁行２間半、梁間３間、切妻造、桟瓦葺、妻入の２階建土蔵で、基礎は石積、屋根は置屋根とし、東面に戸口を設ける。外部は白漆喰塗とし、西面は押縁下見板張で覆い、鉢巻や窓まわりなどに丁寧な縁取仕上げを施す。,https://bunka.nii.ac.jp/heritage/43967/_107433/43967_107433111225024050389_300.jpg
101,00006714,聖興寺千代尼堂,しょうこうじちよにどう,1棟,,登録有形文化財(建造物),宗教,建築物,,昭和前,昭和10,1935,木造平屋建、茅葺（銅板仮葺）、建築面積14㎡,,17 － 0166,57,2007.12.19(平成19.12.19),2007.12.05(平成19.12.05),,20071205,,国土の歴史的景観に寄与しているもの,,石川県,石川県白山市中町56-1,,宗教法人聖興寺,,,36.52301000000000,136.56420000000000,通りに南面する境内の西寄りに東面して建ち、北側に千代尼塚がある。千代尼１５０回忌に記念事業で造られた宝形造茅葺（銅板仮葺）の堂宇。方１間半規模で、背面に仏壇を付ける。天井は化粧垂木を放射状に配し、側面には丸窓を穿つ。数寄屋風仏堂の佳品である。,https://bunka.nii.ac.jp/heritage/43967/_107697/43967_107697111225024729655_300.jpg
101,00006715,聖興寺草風庵,しょうこうじそうふうあん,1棟,,登録有形文化財(建造物),宗教,建築物,,昭和前,昭和10,1935,木造平屋建、茅葺（銅板仮葺）、建築面積61㎡,,17 － 0167,57,2007.12.19(平成19.12.19),2007.12.05(平成19.12.05),,20071205,,国土の歴史的景観に寄与しているもの,,石川県,石川県白山市中町56-1,,宗教法人聖興寺,,,36.52293000000000,136.56430000000000,千代尼堂の南側に東面して建つ。南北棟の入母屋造に、東西棟の入母屋造屋根を付ける凸型の構成を取る。正面中央の突出する部分が広間８畳で、北に茶室４畳、背面から南側に水屋等、正面に土庇を設ける。穏やかな意匠でまとめられた、開放的な草庵風茶室である。,https://bunka.nii.ac.jp/heritage/43967/_107698/43967_107698111225024732536_300.jpg
101,00006823,總持寺祖院大祖堂,そうじじそいんだいそどう,1棟,,登録有形文化財(建造物),宗教,建築物,,大正,大正前期／昭和26改修,1912-1925／1941改修,木造平屋建、瓦葺、建築面積883㎡,,17 － 0168,58,2008.03.19(平成20.03.19),2008.03.07(平成20.03.07),,20080307,,再現することが容易でないもの,,石川県,石川県輪島市門前町門前壱2-1他,,宗教法人大本山總持寺祖院,,,37.28636000000000,136.77050000000000,山麓に占める伽藍地の東方ほぼ中央の高台に西面して建つ。入母屋造桟瓦葺で、正面中央に唐破風造桟瓦葺の玄関を設ける。桁行３０ｍ梁間２６ｍ規模の方丈系平面になり、仏間を彩色や彫刻で華やかに飾る。伝統的な曹洞宗法堂の形態を発展させた壮大な堂宇である。,https://bunka.nii.ac.jp/heritage/43967/_107805/43967_107805111225025037336_300.jpg
101,00006824,總持寺祖院仏殿,そうじじそいんぶつでん,1棟,,登録有形文化財(建造物),宗教,建築物,,大正,大正初期,1912-1925,木造平屋建、瓦葺、建築面積520㎡,,17 － 0169,58,2008.03.19(平成20.03.19),2008.03.07(平成20.03.07),,20080307,,造形の規範となっているもの,,石川県,石川県輪島市門前町門前壱2-1他,,宗教法人大本山總持寺祖院,,,37.28599000000000,136.77000000000000,大祖堂の西南に北面して建つ。入母屋造桟瓦葺で、前後２列からなる八間取方丈形式で、正・側面に広縁、正面に土間を設ける。後列西から第２室に須弥壇を構え仏間とし、東端室にトコと違棚、付書院を付ける。曹洞宗客殿の遺風を伝える、質の高い書院風仏堂。,https://bunka.nii.ac.jp/heritage/43967/_107806/43967_107806111225025039091_300.jpg
101,00006825,總持寺祖院放光堂及び廊下,そうじじそいんほうこうどうおよびろうか,1棟,,登録有形文化財(建造物),宗教,建築物,,明治,明治44,1911,木造平屋建、瓦葺、建築面積70㎡,,17 － 0170,58,2008.03.19(平成20.03.19),2008.03.07(平成20.03.07),,20080307,,国土の歴史的景観に寄与しているもの,,石川県,石川県輪島市門前町門前壱2-1他,,宗教法人大本山總持寺祖院,,,37.28662000000000,136.77070000000000,大祖堂北面東端に付く、延長１２ｍ幅１．９ｍの廊下を介して繋がる。西面する３間堂で、軒唐破風付の入母屋造桟瓦葺とする。内部は奥行３間を外陣、その奥２間を内陣とし、背面に方１間の仏間を突出する。円窓や虹梁、出組、蟇股により装飾的な正面を構成する。,https://bunka.nii.ac.jp/heritage/43967/_107807/43967_107807111225025041096_300.jpg
101,00006827,總持寺祖院香積台,そうじじそいんこうしゃくだい,1棟,,登録有形文化財(建造物),宗教,建築物,,昭和中,昭和29頃,1954頃,木造2階建、瓦葺、建築面積584㎡、廊下付,,17 － 0172,58,2008.03.19(平成20.03.19),2008.03.07(平成20.03.07),,20080307,,国土の歴史的景観に寄与しているもの,,石川県,石川県輪島市門前町門前壱2-1他,,宗教法人大本山總持寺祖院,,,37.28617000000000,136.76970000000000,仏殿の西に所在する２階建の庫裏。切妻造妻入桟瓦葺で、下屋庇をまわす。内部は多くの居室や大台所を間仕切り、北正面から東面の下屋と東面の廊下が回廊の一部をなす。正面は中央間口を２間とし、その両脇や２階に花頭風窓に格子を設け、開放的な外観とする。,https://bunka.nii.ac.jp/heritage/43967/_107809/43967_107809111225025042881_300.jpg
101,00006828,總持寺祖院鐘鼓楼,そうじじそいんしょうころう,1棟,,登録有形文化財(建造物),宗教,建築物,,大正,大正初期,1912-1925,木造2階建、瓦葺、建築面積19㎡,,17 － 0173,58,2008.03.19(平成20.03.19),2008.03.07(平成20.03.07),,20080307,,造形の規範となっているもの,,石川県,石川県輪島市門前町門前壱2-1他,,宗教法人大本山總持寺祖院,,,37.28693000000000,136.76990000000000,坐禅堂の西に位置する。柱間４．３ｍの方１間袴腰付鐘楼で、四周に縁をまわす。屋根入母屋造桟瓦葺。各間とも両脇に袖壁を設け、中央を開放。方柱で舟肘木とし、軒は一軒繁垂木とするなど、規模が大きいながら軽快な外観。腕木と束で構成する腰組は特殊な仕様。,https://bunka.nii.ac.jp/heritage/43967/_107810/43967_107810111225025044660_300.jpg
101,00006829,總持寺祖院山門,そうじじそいんさんもん,1棟,,登録有形文化財(建造物),宗教,その他工作,,昭和前,昭和前期,1926-1988,木造2階建、瓦葺、建築面積148㎡、山廊付,,17 － 0174,58,2008.03.19(平成20.03.19),2008.03.07(平成20.03.07),,20080307,,再現することが容易でないもの,,石川県,石川県輪島市門前町門前壱2-1他,,宗教法人大本山總持寺祖院,,,37.28671000000000,136.76990000000000,大祖堂の西北方に建つ。山廊付の３間３戸２階二重門で、入母屋造桟瓦葺とする。２層ともに尾垂木付三手先詰組とし、上層は二軒扇垂木、下層は二軒繁垂木。下層は開放的で扉口袖と内法貫に植物文様を施す。上層は折上格天井の１室。禅宗様になる本格的な山門。,https://bunka.nii.ac.jp/heritage/43967/_107811/43967_107811111225025046544_300.jpg
101,00006830,總持寺祖院白山井戸,そうじじそいんはくさんいど,1棟,,登録有形文化財(建造物),宗教,その他工作,,明治,明治45頃,1912頃,木造、瓦葺、面積5.3㎡,,17 － 0175,58,2008.03.19(平成20.03.19),2008.03.07(平成20.03.07),,20080307,,国土の歴史的景観に寄与しているもの,,石川県,石川県輪島市門前町門前壱2-1他,,宗教法人大本山總持寺祖院,,,37.28647000000000,136.76990000000000,回廊内、大祖堂正面の西方に位置する。井桁組の井戸に、方１間吹放ち宝形造桟瓦葺の井戸屋を設ける。柱間各２．３ｍで、方柱を頭貫と台輪で固め、三斗組とし、中備に蟇股を入れる。一軒扇垂木で、格天井を張る。重厚な建造物群の中、軽やかな佇まいになる。,https://bunka.nii.ac.jp/heritage/43967/_107812/43967_107812111225025048872_300.jpg
101,00006831,總持寺祖院禅悦廊,そうじじそいんぜんえつろう,1棟,,登録有形文化財(建造物),宗教,建築物,,大正,大正期,1912-1925,木造平屋建、瓦葺、建築面積69㎡,,17 － 0176,58,2008.03.19(平成20.03.19),2008.03.07(平成20.03.07),,20080307,,国土の歴史的景観に寄与しているもの,,石川県,石川県輪島市門前町門前壱2-1他,,宗教法人大本山總持寺祖院,,,37.28642000000000,136.76980000000000,山門と香積台を繋ぐ、南北３３ｍの廊下。両下造桟瓦葺で、大祖堂正面を一段切り上げる。伽藍正面側の西面は花頭風の窓を穿ち、格子を設け、腰板壁、小壁漆喰仕上げとし、東面は花頭を略す。床土間で、化粧屋根裏天井。大祖堂正面の威風ある構えをつくる。,https://bunka.nii.ac.jp/heritage/43967/_107813/43967_107813111225025050493_300.jpg
101,00006832,總持寺祖院慧心廊,そうじじそいんけいしんろう,1棟,,登録有形文化財(建造物),宗教,建築物,,大正,大正期,1912-1925,木造平屋建、瓦葺、建築面積85㎡,,17 － 0177,58,2008.03.19(平成20.03.19),2008.03.07(平成20.03.07),,20080307,,国土の歴史的景観に寄与しているもの,,石川県,石川県輪島市門前町門前壱2-1他,,宗教法人大本山總持寺祖院,,,37.28609000000000,136.77030000000000,大祖堂と仏殿を繋ぐ、南北延長１６ｍ東西延長１６ｍ、幅２．８ｍの廊下。方柱をほぼ１間ごとに建て、回廊内側は窓を穿ち、腰板壁、小壁漆喰仕上げとする。梁間は頭貫で繋ぎ、束を建て棟木を支持し、疎垂木の化粧屋根裏天井を張る。屋根は両下造桟瓦葺。,https://bunka.nii.ac.jp/heritage/43967/_107814/43967_107814111225025052247_300.jpg
101,00006833,總持寺祖院玄風廊,そうじじそいんげんふうろう,1棟,,登録有形文化財(建造物),宗教,建築物,,大正,大正期,1912-1925,木造平屋建、瓦葺、建築面積179㎡,,17 － 0178,58,2008.03.19(平成20.03.19),2008.03.07(平成20.03.07),,20080307,,国土の歴史的景観に寄与しているもの,,石川県,石川県輪島市門前町門前壱2-1他,,宗教法人大本山總持寺祖院,,,37.28688000000000,136.77050000000000,大祖堂と坐禅堂を繋ぐ、南北延長４０ｍ東西延長２５ｍの廊下。放光堂正面付近を開放とし、回廊内側を花頭風に穿ち、格子を設け、腰板壁、小壁漆喰仕上げとする。大祖堂付近では地盤高に差があり、屋根を３段とする。廊下北端に仏堂を付設する。,https://bunka.nii.ac.jp/heritage/43967/_107815/43967_107815111225025054884_300.jpg
101,00006834,總持寺祖院山門回廊,そうじじそいんさんもんかいろう,1棟,,登録有形文化財(建造物),宗教,建築物,,大正,大正期,1912-1925,木造平屋建、瓦葺、建築面積40㎡,,17 － 0179,58,2008.03.19(平成20.03.19),2008.03.07(平成20.03.07),,20080307,,国土の歴史的景観に寄与しているもの,,石川県,石川県輪島市門前町門前壱2-1他,,宗教法人大本山總持寺祖院,,,37.28693000000000,136.76990000000000,山門と坐禅堂を繋ぐ、南北延長１３ｍ東西延長７．０ｍの廊下。花頭風の窓を穿ち、格子を設け、腰板壁、小壁漆喰仕上げとし、一部に貫を数段通す真壁を設ける。屋根桟瓦葺。床は土間、天井は疎垂木の化粧屋根裏。回廊が一体となり整然とした伽藍景観をつくる。,https://bunka.nii.ac.jp/heritage/43967/_107816/43967_107816111225025056561_300.jpg
101,00006835,總持寺祖院白山殿,そうじじそいんはくさんでん,1棟,,登録有形文化財(建造物),宗教,建築物,,江戸,江戸前期,1615-1660,木造平屋建、こけら葺、建築面積3.3㎡,,17 － 0180,58,2008.03.19(平成20.03.19),2008.03.07(平成20.03.07),,20080307,,造形の規範となっているもの,,石川県,石川県輪島市門前町門前壱2-1他,,宗教法人大本山總持寺祖院,,,37.28738000000000,136.76980000000000,主要伽藍の北方に位置する。１間社流造桟瓦葺で、南面して建つ。身舎は円柱、柱上大斗肘木とし、中備に蟇股を置く。妻は豕叉首で、軒は二軒繁垂木。向拝は連三斗で、中備蟇股。簡明な意匠になる社殿で、蟇股や絵様などから近世初頭に遡る社殿と判断される。,https://bunka.nii.ac.jp/heritage/43967/_107817/43967_107817111225025058313_300.jpg
101,00006836,總持寺祖院三松関,そうじじそいんさんしょうかん,1棟,,登録有形文化財(建造物),宗教,その他工作,,江戸,江戸後期,1751-1829,木造平屋建、瓦葺、建築面積14㎡,,17 － 0182,58,2008.03.19(平成20.03.19),2008.03.07(平成20.03.07),,20080307,,国土の歴史的景観に寄与しているもの,,石川県,石川県輪島市門前町門前壱2-1他,,宗教法人大本山總持寺祖院,,,37.28690000000000,136.76860000000000,山門の西方、伽藍西端に建つ高麗門で、切妻造桟瓦葺とする。本柱を方柱とし、腕木で出桁を支持し、一軒疎垂木、切妻造桟瓦葺。本柱間に木鼻付貫を通し、その上を束で３分割し、中備に蟇股を入れて飾る。規模が大きく、境内地正面を画する風格を備える。,https://bunka.nii.ac.jp/heritage/43967/_107818/43967_107818111225025059300_300.jpg
101,00006837,總持寺祖院三松関土塀,そうじじそいんさんしょうかんどべい,1棟,,登録有形文化財(建造物),宗教,その他工作,,江戸,江戸後期,1751-1829,土塀、瓦葺、延長18m,,17 － 0183,58,2008.03.19(平成20.03.19),2008.03.07(平成20.03.07),,20080307,,国土の歴史的景観に寄与しているもの,,石川県,石川県輪島市門前町門前壱2-1他,,宗教法人大本山總持寺祖院,,,37.28687000000000,136.76850000000000,三松関の両脇に取り付く土塀。切込み矧ぎの石積上に、土台をまわし、腰簓子下見板張、上部漆喰仕上げとする。石材は、戸室石。腕木が出桁を支持し、切妻造桟瓦葺屋根を置く。赤瓦と白漆喰、黒色の腰板張が伽藍正面を鮮やかに飾る。,https://bunka.nii.ac.jp/heritage/43967/_107819/43967_107819111225025101322_300.jpg
101,00006838,總持寺祖院閑月門,そうじじそいんかんげつもん,1棟,,登録有形文化財(建造物),宗教,その他工作物,,江戸,江戸末期,1830-1867,木造、瓦葺、間口2.8m、袖塀及び潜付,,17 － 0184,58,2008.03.19(平成20.03.19),2008.03.07(平成20.03.07),,20080307,,国土の歴史的景観に寄与しているもの,,石川県,石川県輪島市門前町門前壱2-1他,,宗教法人大本山總持寺祖院,,,37.28731000000000,136.76950000000000,山門の北方に建つ、伽藍北面を画する門。１間薬医門で、本柱間２．７ｍの規模をもつ。礎石上に方柱を建て、冠木や貫、男梁で固める。組物はなく、一軒疎垂木、妻蟇股。屋根切妻造で、桟瓦を葺く。城門風の簡明で、重厚な薬医門である。,https://bunka.nii.ac.jp/heritage/43967/_107820/43967_107820151214162202380_300.jpg
101,00006839,總持寺祖院閑月萩板塀,そうじじそいんかんげつはぎいたべい,1棟,,登録有形文化財(建造物),宗教,その他工作,,江戸,江戸後期,1751-1829,木造、瓦葺、延長25m,,17 － 0185,58,2008.03.19(平成20.03.19),2008.03.07(平成20.03.07),,20080307,,国土の歴史的景観に寄与しているもの,,石川県,石川県輪島市門前町門前壱2-1他,,宗教法人大本山總持寺祖院,,,37.28685000000000,136.76970000000000,白山蔵の南面から西面を囲む塀。切込み矧ぎの石積上に、黒色の竪板張とする。腕木が出桁を持ち出し、一軒疎垂木の切妻造桟瓦葺屋根を支持する。石積には様々な色合いの戸室石が使われ、主要伽藍部と違う風趣を見せる。,https://bunka.nii.ac.jp/heritage/43967/_107821/43967_107821111225025105673_300.jpg
101,00006968,總持寺祖院白山蔵,そうじじそいんはくさんぐら,1棟,,登録有形文化財(建造物),宗教,建築物,,江戸,文政4／大正前期・昭和40頃改修,1821／1912-1925・1965頃改修,土蔵造2階建、瓦葺、建築面積92㎡,,17 － 0181,58,2008.03.19(平成20.03.19),2008.03.07(平成20.03.07),,20080307,,国土の歴史的景観に寄与しているもの,,石川県,石川県輪島市門前町門前壱2-1他,,宗教法人大本山總持寺祖院,,,37.28695000000000,136.76970000000000,鐘鼓楼の西に東面して建つ。桁行１３ｍ梁間７．２ｍの２階建土蔵。切妻造桟瓦葺、東側全面に下屋庇を設け蔵前とする。東面に出入口と窓を２ヶ所、南面に窓を設け、外壁を漆喰で仕上げる。内部は漆喰仕上げの真壁。重厚で、対面する鐘鼓楼と意匠的な対比を見せる。,https://bunka.nii.ac.jp/heritage/43967/_107950/43967_107950111225025455486_300.jpg
101,00007021,旧小倉家住宅離れ,きゅうこくらけじゅうたくはなれ,1棟,,登録有形文化財(建造物),住宅,建築物,,昭和前,昭和11,1936,木造2階建、瓦葺、建築面積144㎡,,17 － 0186,59,2008.05.07(平成20.05.07),2008.04.18(平成20.04.18),,20080418,,再現することが容易でないもの,,石川県,石川県金沢市芳斉1-2-4他,,,,,36.56922000000000,136.64960000000000,東面する敷地の南辺近く中央に建つ木造２階建。東西棟の入母屋造で、東妻面には一段落として入母屋造破風を付け、特徴的な外観とする。外壁は下見板張で、小壁を弁柄色に仕上げる。内部も赤壁で、トコや書院、欄間ほか、数寄屋風の洗練された意匠でまとめる。,https://bunka.nii.ac.jp/heritage/43967/_108003/43967_108003111225025633044_300.jpg
101,00007023,旧小倉家住宅離れ表門,きゅうこくらけじゅうたくはなれおもてもん,1棟,,登録有形文化財(建造物),住宅,その他工作,,昭和前,昭和11頃,1936頃,木造、銅板葺、間口1.6m、両袖塀付,,17 － 0188,59,2008.05.07(平成20.05.07),2008.04.18(平成20.04.18),,20080418,,国土の歴史的景観に寄与しているもの,,石川県,石川県金沢市芳斉1-2-4他,,,,,36.56916000000000,136.65000000000000,旧武家町の通りに東面して建つ。１間腕木門で、両脇に袖塀を付ける。屋根は切妻造銅板葺とし、棟瓦を置く。棟木や母屋に磨き丸太を用い、柱を名栗仕上げとし、&#26979;上部に繊細な格子欄間を置く。丁寧なつくりになる数寄屋風の門の好例である。,https://bunka.nii.ac.jp/heritage/43967/_108005/43967_108005111225025637596_300.jpg
101,00007024,戸板ホール（旧戸板村役場庁舎）,といたほーる（きゅうといたむらやくばちょうしゃ）,1棟,,登録有形文化財(建造物),官公庁舎,建築物,,昭和前,昭和15／昭和36・平成19改修,1940／1961・2007改修,木造2階建、瓦葺、建築面積212㎡,,17 － 0189,59,2008.05.07(平成20.05.07),2008.04.18(平成20.04.18),,20080418,,国土の歴史的景観に寄与しているもの,,石川県,石川県金沢市二口町ロ17他,,,,,36.57682000000000,136.63380000000000,金沢旧城下からその外港の金石へ通じる通りに北面する旧村役場庁舎。寄棟造妻入木造２階建に、正面に玄関ポーチ、背面に下屋を付設する。外壁を鎧下見板張とし、矩形窓を数多く開ける。ポーチ部分のみ柱や壁をモルタル仕上げとし、外観を特徴づける。,https://bunka.nii.ac.jp/heritage/43967/_108006/43967_108006111225025638496_300.jpg
101,00007025,江沼神社竹涇館,えぬまじんじゃちっけいかん,1棟,,登録有形文化財(建造物),住宅,建築物,,明治,明治33年／昭和41年頃移築,1900／1966頃移築,木造2階建、瓦葺、建築面積158㎡,,17 － 0190,59,2008.05.07(平成20.05.07),2008.04.18(平成20.04.18),,20080418,,造形の規範となっているもの,,石川県,石川県加賀市大聖寺八間道55,,宗教法人江沼神社,,,36.30853000000000,136.30870000000000,境内の入口付近、参道に面して建つ。南北棟の寄棟造桟瓦葺の木造２階建を中心に、入母屋造の式台を付設する切妻造平屋建を西面北端に付ける。トコやトコ脇をもつ上段の間と大広間を続き座敷として設け、東面に畳廊下と広縁を通す。公的な接客空間を伝える。,https://bunka.nii.ac.jp/heritage/43967/_108007/43967_108007111225025640187_300.jpg
101,00007026,江沼神社梅花庵,えぬまじんじゃばいかあん,1棟,,登録有形文化財(建造物),住宅,建築物,,江戸,江戸末期／明治前期・昭和41移築,1830-1867／1868-1911・1966移築,木造平屋建、鉄板葺、建築面積44㎡,,17 － 0191,59,2008.05.07(平成20.05.07),2008.04.18(平成20.04.18),,20080418,,再現することが容易でないもの,,石川県,石川県加賀市大聖寺八間道55,,宗教法人江沼神社,,,36.30937000000000,136.30770000000000,境内の北西に位置する。南面する木造平屋建で、切妻造妻入鉄板葺。外壁は漆喰の大壁仕上げで、竪板を高く張る。内部は玄関と口ノ間、主座敷を南北に一列に並べる。主座敷にはトコやトコ脇、付書院を構え、天井に大きく四季草花図を描くなど華やかなつくりになる。,https://bunka.nii.ac.jp/heritage/43967/_108008/43967_108008111225025641970_300.jpg
101,00007207,赤倉家住宅主屋,あかくらけじゅうたくしゅおく,1棟,,登録有形文化財(建造物),住宅,建築物,,明治,明治後期／昭和54改修,1868-1911／1979改修,木造2階建、瓦葺、建築面積150㎡,,17 － 0192,60,2008.07.23(平成20.07.23),2008.07.08(平成20.07.08),,20080708,,国土の歴史的景観に寄与しているもの,,石川県,石川県七尾市魚町110,,,,,37.04827000000000,136.96030000000000,通りに北面して建つ平入町家。間口８．２ｍの木造２階建。前方を土間床のミセとし、その奥、西側にニワ、東を床上居室とする。２階は八畳２室を東西に並べ、正面側に半間幅の板間を通す。２階正面の格子や袖卯建など、伝統的な町家の表構えを残す。,https://bunka.nii.ac.jp/heritage/43967/_108189/43967_108189111225030229500_300.jpg
101,00007467,東酒造場店舗兼主屋,ひがししゅぞうじょうてんぽけんしゅおく,1棟,,登録有形文化財(建造物),産業2次,建築物,,昭和前,昭和11／昭和57頃改修,1936／1982頃改修,木造2階一部平屋建、瓦葺、建築面積232㎡,,17 － 0193,62,2009.01.22(平成21.01.22),2009.01.08(平成21.01.08),,20090108,,造形の規範となっているもの,,石川県,石川県小松市野田町丁35,,合資会社東栄松商店,,,36.43224000000000,136.48020000000000,敷地の中央北寄りに東面する。正面に入母屋造桟瓦葺の２階建、背面に直交する入母屋造平屋建を設ける。内部は前方南半に土間、北にオイ、後方に田の字型に４室を配し、彫刻欄間を飾る。伝統的な間取を受け継ぎながら、外観や平面ほかに近代性を反映する。,https://bunka.nii.ac.jp/heritage/43967/_108449/43967_108449111225031139770_300.jpg
101,00007468,東酒造場東蔵,ひがししゅぞうじょうひがしぐら,1棟,,登録有形文化財(建造物),産業2次,建築物,,昭和中,昭和21,1946,石造平屋建、瓦葺、建築面積139㎡,,17 － 0194,62,2009.01.22(平成21.01.22),2009.01.08(平成21.01.08),,20090108,,国土の歴史的景観に寄与しているもの,,石川県,石川県小松市野田町丁35,,合資会社東栄松商店,,,36.43211000000000,136.48050000000000,敷地の南辺東端に建つ。桁行１５ｍ梁間９．４ｍの石造平屋建。切妻造妻入桟瓦葺とし、西面の酒母室側に入口を設け引分け戸をたてる。内部は一室で、漆喰仕上げ、トラス組とする。地元産の観音下石を積み上げ、腰部を江戸切仕上げとする。重厚で趣のある石蔵。,https://bunka.nii.ac.jp/heritage/43967/_108450/43967_108450111225031141586_300.jpg
101,00007469,東酒造場中蔵,ひがししゅぞうじょうなかぐら,1棟,,登録有形文化財(建造物),産業2次,建築物,,昭和中,昭和24,1949,木造2階建、瓦葺、建築面積178㎡,,17 － 0195,62,2009.01.22(平成21.01.22),2009.01.08(平成21.01.08),,20090108,,造形の規範となっているもの,,石川県,石川県小松市野田町丁35,,合資会社東栄松商店,,,36.43209000000000,136.48030000000000,敷地南辺、東蔵の西方に建つ。桁行１９ｍ梁間９．５ｍの切妻造桟瓦葺。木造２階建で、柱外側に観音下石を積み上げ、内部を白漆喰で仕上げる。東蔵と共通する外観であるが、鉢巻を簡略にし、出入口の外側&#26979;上に半円アーチと楔石の装飾をするなど、違いを見せる。,https://bunka.nii.ac.jp/heritage/43967/_108451/43967_108451111225031143385_300.jpg
101,00007470,東酒造場作業場,ひがししゅぞうじょうさぎょうば,1棟,,登録有形文化財(建造物),産業2次,建築物,,昭和中,昭和24,1949,木造平屋一部2階建、瓦葺及び鉄板葺、建築面積178㎡、煙突付,,17 － 0196,62,2009.01.22(平成21.01.22),2009.01.08(平成21.01.08),,20090108,,国土の歴史的景観に寄与しているもの,,石川県,石川県小松市野田町丁35,,合資会社東栄松商店,,,36.43215000000000,136.48030000000000,東蔵と中蔵の間にある切妻造２階建の酒母室と休憩室や、東蔵や中蔵の北面に一連で続く釜場などの作業空間からなる。北面は下見板張の真壁や出格子窓、煉瓦造の煙突、複雑に架かる屋根など変化に富む外観をつくり、通りの酒母室南面は石積で街路景観を整える。,https://bunka.nii.ac.jp/heritage/43967/_108452/43967_108452111225031146033_300.jpg
101,00007471,東酒造場西蔵,ひがししゅぞうじょうにしぐら,1棟,,登録有形文化財(建造物),産業2次,建築物,,江戸,慶応4／明治35移築,1868／1902移築,土蔵造2階建、瓦葺、建築面積56㎡,,17 － 0197,62,2009.01.22(平成21.01.22),2009.01.08(平成21.01.08),,20090108,,国土の歴史的景観に寄与しているもの,,石川県,石川県小松市野田町丁35,,合資会社東栄松商店,,,36.43208000000000,136.48010000000000,敷地の南辺西端に建つ土蔵造２階建。桁行９．５ｍ梁間５．９ｍの切妻造妻入桟瓦葺。東面に出入口、南・西面に窓を開け、窓枠等に石材を用いる。江戸切仕上げの石積基礎上に、高く下見板張とし、軒まわりにも石材をまわす。石蔵が連続する景観に変化を与える。,https://bunka.nii.ac.jp/heritage/43967/_108453/43967_108453111225031147906_300.jpg
101,00007472,東酒造場検査室,ひがししゅぞうじょうけんさしつ,1棟,,登録有形文化財(建造物),産業2次,建築物,,昭和中,昭和24,1949,木造2階一部平屋建、瓦葺、建築面積59㎡,,17 － 0198,62,2009.01.22(平成21.01.22),2009.01.08(平成21.01.08),,20090108,,造形の規範となっているもの,,石川県,石川県小松市野田町丁35,,合資会社東栄松商店,,,36.43211000000000,136.48010000000000,西蔵と中蔵の間に建つ。桁行３．６ｍ梁間３．２ｍの木造２階建で、切妻造桟瓦葺とし、北側に広い下屋を付ける。内部は白漆喰仕上げ大壁造で、天井まで塗り上げる。南面外壁は石積基礎上に下見板張とし、ベイウィンドウを設け、窓にはステンドグラスを入れる。,https://bunka.nii.ac.jp/heritage/43967/_108454/43967_108454111225031149603_300.jpg
101,00007473,東酒造場麹室,ひがししゅぞうじょうこうじしつ,1棟,,登録有形文化財(建造物),産業2次,建築物,,昭和中,昭和24,1949,石造平屋建、瓦葺、建築面積62㎡,,17 － 0199,62,2009.01.22(平成21.01.22),2009.01.08(平成21.01.08),,20090108,,国土の歴史的景観に寄与しているもの,,石川県,石川県小松市野田町丁35,,合資会社東栄松商店,,,36.43215000000000,136.48010000000000,敷地西辺、西蔵の北側に隣接する。桁行７．４ｍ梁間８．３ｍの規模の小さい石造平屋建で、切妻造桟瓦葺とする。観音下石を軒まで積み上げ、妻壁の上部は真壁に小屋架構を現す。石積の重厚な外壁上に掛かる、軽快な屋根が印象的である。,https://bunka.nii.ac.jp/heritage/43967/_108455/43967_108455111225031151423_300.jpg
101,00007474,東酒造場桂松庵,ひがししゅぞうじょうけいしょうあん,1棟,,登録有形文化財(建造物),産業2次,建築物,,昭和中,昭和27,1952,木造平屋建、瓦葺及び銅板葺、建築面積18㎡,,17 － 0200,62,2009.01.22(平成21.01.22),2009.01.08(平成21.01.08),,20090108,,造形の規範となっているもの,,石川県,石川県小松市野田町丁35,,合資会社東栄松商店,,,36.43219000000000,136.48010000000000,麹室の北に接し、主屋西側の庭園に面する四畳半茶室。南北棟の入母屋造で、軒先を銅板とする桟瓦葺とし、北・東面に銅板葺庇を付ける。網代組や筵を組み合わせた天井をもち、障子窓や貴人口から光を採り込み、明るく軽快な茶室に仕上げている。,https://bunka.nii.ac.jp/heritage/43967/_108456/43967_108456111225031153248_300.jpg
101,00007475,東酒造場緑寿庵,ひがししゅぞうじょうりょくじゅあん,1棟,,登録有形文化財(建造物),産業2次,建築物,,昭和中,昭和23,1948,木造平屋建、瓦葺及び銅板葺、建築面積46㎡,,17 － 0201,62,2009.01.22(平成21.01.22),2009.01.08(平成21.01.08),,20090108,,造形の規範となっているもの,,石川県,石川県小松市野田町丁35,,合資会社東栄松商店,,,36.43228000000000,136.48000000000000,敷地の北西隅に位置する。南北棟の入母屋造桟瓦葺で、庭側の南から東面に深い土庇、東面北寄りに入母屋造の玄関を設ける。庭園に面する主座敷には、大きくトコとトコ脇を構え、花頭形に開ける付書院を備え、緩やかな折上格天井を張り、格式のある空間をつくる。,https://bunka.nii.ac.jp/heritage/43967/_108457/43967_108457111225031155893_300.jpg
101,00007476,東酒造場道具蔵,ひがししゅぞうじょうどうぐぐら,1棟,,登録有形文化財(建造物),産業2次,建築物,,昭和中,昭和23,1948,木造2階一部平屋建、瓦葺、建築面積84㎡,,17 － 0202,62,2009.01.22(平成21.01.22),2009.01.08(平成21.01.08),,20090108,,造形の規範となっているもの,,石川県,石川県小松市野田町丁35,,合資会社東栄松商店,,,36.43227000000000,136.48030000000000,敷地北辺、主屋の東方に建つ。桁行７．７ｍ梁間５．９ｍ規模の切妻造桟瓦葺で、南面に蔵前を設ける。木造２階建で、外壁に切石を積み上げ、開口部に半円アーチなどの洋風意匠を取り入れ、上下の窓の間には竜虎の彫刻を施す。丁寧な装飾が施された石蔵の好例。,https://bunka.nii.ac.jp/heritage/43967/_108458/43967_108458111225031157569_300.jpg
101,00007477,東酒造場大門,ひがししゅぞうじょうおおもん,1棟,,登録有形文化財(建造物),産業2次,建築物,,昭和中,昭和24,1949,木造平屋建、瓦葺、建築面積69㎡,,17 － 0203,62,2009.01.22(平成21.01.22),2009.01.08(平成21.01.08),,20090108,,国土の歴史的景観に寄与しているもの,,石川県,石川県小松市野田町丁35,,合資会社東栄松商店,,,36.43218000000000,136.48050000000000,敷地東辺の中央、通りから入った所に蔵に挟まれて建つ。両下造桟瓦葺の長屋門で、南半部は作業場と一体の空間をつくる。北側の門口４．７ｍに両開の大戸と潜りを設け、正面南寄りは石積基礎に漆喰壁で高く腰板を張り出格子窓を付け、屋敷構えに風格を与える。,https://bunka.nii.ac.jp/heritage/43967/_108459/43967_108459111225031159348_300.jpg
101,00007478,東酒造場勝手口,ひがししゅぞうじょうかってぐち,1棟,,登録有形文化財(建造物),産業2次,その他工作,,昭和中,昭和23,1948,木造、瓦葺、間口1.7m、左右塀付,,17 － 0204,62,2009.01.22(平成21.01.22),2009.01.08(平成21.01.08),,20090108,,国土の歴史的景観に寄与しているもの,,石川県,石川県小松市野田町丁35,,合資会社東栄松商店,,,36.43234000000000,136.48040000000000,敷地北辺の中央、主屋と道具蔵の間に建つ。間口１．７ｍと小規模な薬医門で、東西棟の切妻造桟瓦葺。洋風を加味したの道具蔵と対照的に軽やかな和風意匠とする。両脇に続く袖塀は、切石を高く積み上げ、その上に東側は土塀、西側は板塀を造り、総延長８．６ｍ。,https://bunka.nii.ac.jp/heritage/43967/_108460/43967_108460111225031201030_300.jpg
101,00007625,清水家住宅主屋,しみずけじゅうたくしゅおく,1棟,,登録有形文化財(建造物),住宅,建築物,,明治,明治21,1888,木造2階建、瓦葺、建築面積130㎡,,17 － 0205,63,2009.05.14(平成21.05.14),2009.04.28(平成21.04.28),,20090428,,国土の歴史的景観に寄与しているもの,,石川県,石川県金沢市中央通町376,,,,,36.56332599000000,136.64804791000000,金沢城下に位置する。北面する妻入の木造２階建で、梁間１１ｍに切妻造屋根を架け、西に平屋を付設。正面妻は梁や束、貫を縦横に組み、下部を下見板張とし、右手に出格子を付ける。中央に玄関、その東に土縁を設ける。伝統的な民家の佇まいを残す近代和風住宅。,https://bunka.nii.ac.jp/heritage/43967/_108607/43967_108607208967141170160_300.jpg
101,00007626,清水家住宅表門及び塀,しみずけじゅうたくおもてもんおよびへい,1棟,,登録有形文化財(建造物),住宅,その他工作物,,明治,明治21,1888,門　木造、瓦葺、間口2.0m、左右袖塀付、塀　木造、瓦葺、総延長18m、勝手口付,,17 － 0206,63,2009.05.14(平成21.05.14),2009.04.28(平成21.04.28),,20090428,,国土の歴史的景観に寄与しているもの,,石川県,石川県金沢市中央通町376,,,,,36.56338074000000,136.64796790000000,表門は敷地北辺の中央に建つ一間腕木門。両脇に板張、上部黒漆喰の袖塀を設け、引分け戸をたてる。袖塀から続く塀は東西に総延長１８ｍ。切石積基礎の上に柱を建て腕木で軒を支持。下見板張の上部を黒漆喰壁とし、屋根桟瓦葺。落ち着きのある街路景観をつくる。,https://bunka.nii.ac.jp/heritage/43967/_108608/43967_108608768311842841068_300.jpg
101,00008272,観田家住宅主屋,かんだけじゅうたくしゅおく,1棟,,登録有形文化財(建造物),住宅,建築物,,明治,明治3年,1870,木造2階建、瓦葺、建築面積205㎡,,17 － 0207,68,2010.09.10(平成22.09.10),2010.09.10(平成22.09.10),,20100910,,造形の規範となっているもの,,石川県,石川県金沢市金石西2-345,,,,,36.60252000000000,136.59150000000000,南北棟とする切妻造桟瓦葺の木造２階建を中心に、東北に座敷や茶室、西面に待合などを付設する。外壁は板張で、妻壁上部は漆喰仕上げで小屋組を見せる。座敷まわりは土縁をまわし、赤壁仕上げとし、華美な座敷飾りを構える。質の高い意匠をもつ近代和風建築。,https://bunka.nii.ac.jp/heritage/43967/_133914/43967_133914111225033444195_300.jpg
101,00008273,観田家住宅西蔵,かんだけじゅうたくにしぐら,1棟,,登録有形文化財(建造物),住宅,建築物,,明治,明治3年,1870,土蔵造2階建、瓦葺、建築面積41㎡,,17 － 0208,68,2010.09.10(平成22.09.10),2010.09.10(平成22.09.10),,20100910,,国土の歴史的景観に寄与しているもの,,石川県,石川県金沢市金石西2-345,,,,,36.60250000000000,136.59140000000000,主屋の西南、通り沿いに建つ。桁行７．３ｍ梁間５．５ｍの土蔵造２階建、南北棟の切妻造桟瓦葺。南面に蔵前を付ける。通り側の外壁は、腰の石貼より上部を全面竪板張とし、縦長の開口を穿ち、木製の出窓枠を付す。東面は腰を輪違の海鼠壁と独特の仕様になる。,https://bunka.nii.ac.jp/heritage/43967/_133915/43967_133915111225033445900_300.jpg
101,00008274,観田家住宅西塀,かんだけじゅうたくにしべい,1棟,,登録有形文化財(建造物),住宅,その他工作,,昭和中,昭和30年頃,1955頃,木造、鉄板葺、延長11m,,17 － 0209,68,2010.09.10(平成22.09.10),2010.09.10(平成22.09.10),,20100910,,国土の歴史的景観に寄与しているもの,,石川県,石川県金沢市金石西2-345,,,,,36.60242000000000,136.59140000000000,西側道路に沿って西蔵南西角から南方向に建つ。木造、切妻造鉄板葺、延長１１ｍ。布石上に柱を建て、腕木を出し、軒桁を支持する。北端間に両開戸を吊り、他間は欄間を付し、舟板を横に張る。北前船で栄えた港町らしい佇まいを呈している。,https://bunka.nii.ac.jp/heritage/43967/_133916/43967_133916111225033447752_300.jpg
101,00008439,聖興寺本堂,しょうこうじほんどう,1棟,,登録有形文化財(建造物),宗教,建築物,,明治,明治31年,1898,木造平屋建、瓦葺、建築面積577㎡,,17 － 0210,69,2011.01.26(平成23.01.26),2011.01.26(平成23.01.26),,20110126,,国土の歴史的景観に寄与しているもの,,石川県,石川県白山市西新町23-3,,宗教法人聖興寺,,,36.52320000000000,136.56460000000000,境内中央後方に南面して建つ。桁行二一メートル梁間二二メートル、入母屋造本瓦葺で、正面に一間向拝を付ける。外陣や柵内、内陣などからなる典型的な真宗本堂平面になる。総円柱で、側まわりを二手先斗?詰組とするなど、風格ある外観をなす。,https://bunka.nii.ac.jp/heritage/43967/_134835/43967_134835111225034012681_300.jpg
101,00008440,聖興寺客殿,しょうこうじきゃくでん,1棟,,登録有形文化財(建造物),宗教,建築物,,大正,大正7年,1918,木造平屋建、瓦及び銅板葺、建築面積421㎡,,17 － 0211,69,2011.01.26(平成23.01.26),2011.01.26(平成23.01.26),,20110126,,造形の規範となっているもの,,石川県,石川県白山市西新町23-3他,,宗教法人聖興寺,,,36.52326000000000,136.56480000000000,大きな唐破風造の玄関を構える大式台を南正面に配し、その北奥に南北二室からなる仏間、その東北に十二畳半を二室南北に並べ、その東西に土縁などを設ける。金の壁紙、黒塗の格天井を張り、漆塗と螺鈿細工の欄間を飾るなど、華美な意匠になる接客空間。,https://bunka.nii.ac.jp/heritage/43967/_134836/43967_134836111225034015189_300.jpg
101,00008441,聖興寺茶室,しょうこうじちゃしつ,1棟,,登録有形文化財(建造物),宗教,建築物,,大正,大正7年,1918,木造平屋建、瓦葺、建築面積127㎡,,17 － 0212,69,2011.01.26(平成23.01.26),2011.01.26(平成23.01.26),,20110126,,造形の規範となっているもの,,石川県,石川県白山市西新町24-1他,,宗教法人聖興寺,,,36.52334000000000,136.56520000000000,客殿の東方、中庭を挟んだ位置に建つ。入母屋造桟瓦葺で、寥々庵や翠光軒、暢音堂と称する茶室や座敷を中心に水屋や土縁が配され、東北隅に待合や雪隠を付設する。寥々庵は二畳台目で、磨丸太のトコ柱や竹の框が用いられる。品格のある近代和風建築。,https://bunka.nii.ac.jp/heritage/43967/_134837/43967_134837111225034018628_300.jpg
101,00008442,聖興寺座敷,しょうこうじざしき,1棟,,登録有形文化財(建造物),宗教,建築物,,大正,大正7年,1918,木造2階建、瓦葺、建築面積140㎡,,17 － 0213,69,2011.01.26(平成23.01.26),2011.01.26(平成23.01.26),,20110126,,国土の歴史的景観に寄与しているもの,,石川県,石川県白山市西新町24-1,,宗教法人聖興寺,,,36.52324000000000,136.56500000000000,茶室と客殿の間の中庭南方に位置する。木造二階建、寄棟造桟瓦葺。一階は前後二列に各三室を配し、西・南・東面に廊下を通し、北面に土縁を設ける。二階も同様に間仕切り、南北に縁を付設する。主要室にトコや棚を設ける和風建築で、接客や居室として使われる。,https://bunka.nii.ac.jp/heritage/43967/_134838/43967_134838111225034020552_300.jpg
101,00008443,聖興寺庫裏,しょうこうじくり,1棟,,登録有形文化財(建造物),宗教,建築物,,大正,大正7年,1918,木造2階建、瓦葺、建築面積245㎡,,17 － 0214,69,2011.01.26(平成23.01.26),2011.01.26(平成23.01.26),,20110126,,国土の歴史的景観に寄与しているもの,,石川県,石川県白山市西新町24-1,,宗教法人聖興寺,,,36.52313000000000,136.56500000000000,客殿大式台の東南に西面して建つ。木造二階建、切妻造桟瓦葺。西面に大きく妻を見せ、庇を付設し、玄関や中玄関を開ける。妻面の庇より上方は、上半部を束や貫、舟肘木等で飾り、下半部は下見板張とし、格子付の大きい窓を穿つ。近代的な庫裏の一例。,https://bunka.nii.ac.jp/heritage/43967/_134839/43967_134839111225034022335_300.jpg
101,00008444,聖興寺南土蔵,しょうこうじみなみどぞう,1棟,,登録有形文化財(建造物),宗教,建築物,,大正,大正7年,1918,土蔵造2階建、瓦葺、建築面積39㎡,,17 － 0215,69,2011.01.26(平成23.01.26),2011.01.26(平成23.01.26),,20110126,,国土の歴史的景観に寄与しているもの,,石川県,石川県白山市西新町24-1,,宗教法人聖興寺,,,36.52311000000000,136.56510000000000,庫裏の東方、境内の東端に位置する。南北棟で、切妻造桟瓦葺の置屋根とする。桁行九・一メートル梁間四・三メートルの土蔵造二階建。内部や妻面は漆喰仕上げ。通り側の東面は中塗仕上げとし、鳥居型に一、二階の窓を囲い、街路景観を整える。,https://bunka.nii.ac.jp/heritage/43967/_134840/43967_134840111225034024045_300.jpg
101,00008445,聖興寺北土蔵,しょうこうじきたどぞう,1棟,,登録有形文化財(建造物),宗教,建築物,,大正,大正3年,1914,土蔵造2階建、瓦葺、建築面積15㎡,,17 － 0216,69,2011.01.26(平成23.01.26),2011.01.26(平成23.01.26),,20110126,,国土の歴史的景観に寄与しているもの,,石川県,石川県白山市西新町24-1,,宗教法人聖興寺,,,36.52319000000000,136.56520000000000,南蔵の北側、裏玄関を挟んで建つ。南北棟で、切妻造桟瓦葺の置屋根とする。桁行三・七メートル梁間四・一メートルの土蔵造二階建。内部は竪板張で、一、二階とも一室。外壁は漆喰仕上げで、腰を黒漆喰、通り側は腰石貼とし、重厚な印象を与える。,https://bunka.nii.ac.jp/heritage/43967/_134841/43967_134841111225034026747_300.jpg
101,00008446,聖興寺鐘楼,しょうこうじしょうろう,1棟,,登録有形文化財(建造物),宗教,その他工作,,江戸,江戸中期／昭和51年移築,1661-1751／1976移築,木造、瓦葺、面積10㎡,,17 － 0217,69,2011.01.26(平成23.01.26),2011.01.26(平成23.01.26),,20110126,,造形の規範となっているもの,,石川県,石川県白山市中町56-1,,宗教法人聖興寺,,,36.52292000000000,136.56440000000000,本堂の南方に位置し、戸室石を積み上げた高い基壇上に建つ。入母屋造桟瓦葺の方一間吹放ち鐘楼。粽付の円柱を四方転びにたて、貫や台輪で固め、三斗組を置く。中備は木鼻付平三斗。一軒疎垂木で、格天井を張る。安定した外観をもつ、瀟洒な鐘楼。,https://bunka.nii.ac.jp/heritage/43967/_134842/43967_134842111225034028476_300.jpg
101,00008447,聖興寺山門,しょうこうじさんもん,1棟,,登録有形文化財(建造物),宗教,その他工作,,昭和中,昭和31年,1956,木造、瓦葺、間口2.6m,,17 － 0218,69,2011.01.26(平成23.01.26),2011.01.26(平成23.01.26),,20110126,,国土の歴史的景観に寄与しているもの,,石川県,石川県白山市中町56-1,,宗教法人聖興寺,,,36.52288000000000,136.56450000000000,切妻造本瓦葺の四脚門。出組とし、妻側は中備に蟇股、平側は中央に出組、その間に蟇股を置く。さらに妻は持ち出した虹梁上に笈形付大瓶束をたてるなど密度の濃い軒まわりとする。本柱間の龍彫物や、木鼻や扉まわりの彫刻など、高い装飾性を見せる。,https://bunka.nii.ac.jp/heritage/43967/_134843/43967_134843111225034030241_300.jpg
101,00009145,甚之助谷第二号谷止工,じんのすけたにだいにごうたにどめこう,1基,,登録有形文化財(建造物),治山治水,土木構造物,,大正,大正4年,1915,石造、堤長13.3m、堤高5.5m,,,72,2012.02.23(平成24.02.23),2012.02.23(平成24.02.23),,20120223,,国土の歴史的景観に寄与しているもの,,石川県,石川県白山市白峰,,石川県,都道府県,,36.13659000000000,136.76360000000000,白山砂防施設の最初期に石川県の直轄事業として施工された谷止工のひとつで、堤長13.3メートル堤高5.5メートルを測り、空積とする。標高2100メートルの高地にあって、現地で採取.加工された石を用いて精緻に積上げる。当砂防施設の初期段階を示す。,https://bunka.nii.ac.jp/heritage/43967/_164698/43967_164698140222024937791_300.jpg
101,00009146,甚之助谷上流第一六号砂防堰堤,じんのすけたにだいじゅうろくごうさぼうえんてい,1基,,登録有形文化財(建造物),治山治水,土木構造物,,昭和前,昭和8年,1933,コンクリート造堰堤、堤長25.0m、堤高4.0m,,,72,2012.02.23(平成24.02.23),2012.02.23(平成24.02.23),,20120223,,国土の歴史的景観に寄与しているもの,,石川県,石川県白山市白峰,,石川県,都道府県,,36.13344000000000,136.76100000000000,白山砂防施設のうち手取川甚之助谷筋の最上流部に設けられた砂防堰堤のひとつ。逆台形の水通しをもつ練積の堰堤で、水通し部の笠石を庇状に突出させる。山崩が頻繁に発生する急峻な地形にあって、建設当初の姿をほぼ完全に留めており価値がある。,https://bunka.nii.ac.jp/heritage/43967/_164699/43967_164699140222024939358_300.jpg
101,00009147,甚之助谷第一一号砂防堰堤,じんのすけたにだいじゅういちごうさぼうえんてい,1基,,登録有形文化財(建造物),治山治水,土木構造物,,昭和前,昭和7年,1932,コンクリート造堰堤、堤長40.0m、堤高4.0m,,,72,2012.02.23(平成24.02.23),2012.02.23(平成24.02.23),,20120223,,国土の歴史的景観に寄与しているもの,,石川県,石川県白山市白峰,,石川県,都道府県,,36.12877000000000,136.75610000000000,白山砂防施設のうち手取川甚之助谷筋の中流部に設けられた階段状の砂防堰堤群の最下流に位置する。逆台形の水通しをもつ練積の堰堤で、水通し部の笠石をわずかに庇状に突出させる。堤長40メートル堤高4メートルと規模が大きく、堰堤群の基礎をなす。,https://bunka.nii.ac.jp/heritage/43967/_164700/43967_164700140222024940752_300.jpg
101,00009148,甚之助谷第一二号砂防堰堤,じんのすけたにだいじゅうにごうさぼうえんてい,1基,,登録有形文化財(建造物),治山治水,土木構造物,,昭和前,昭和7年,1932,コンクリート造堰堤、堤長33.0m、堤高5.5m,,,72,2012.02.23(平成24.02.23),2012.02.23(平成24.02.23),,20120223,,国土の歴史的景観に寄与しているもの,,石川県,石川県白山市白峰,,石川県,都道府県,,36.12882000000000,136.75620000000000,甚之助谷中流の階段状堰堤群のうち、直下流の第11号堰堤上方の堆砂の上に築造される。逆台形の水通しをもつ練積の堰堤で、水通し部の笠石をわずかに庇状に突出させる。堤長33メートル堤高5.5メートル、破損が比較的少なく当初の姿をよく留める。,https://bunka.nii.ac.jp/heritage/43967/_164701/43967_164701140222024942410_300.jpg
101,00009149,甚之助谷第一三号砂防堰堤,じんのすけたにだいじゅうさんごうさぼうえんてい,1基,,登録有形文化財(建造物),治山治水,土木構造物,,昭和前,昭和7年,1932,コンクリート造堰堤、堤長30.5m、堤高5.5m,,,72,2012.02.23(平成24.02.23),2012.02.23(平成24.02.23),,20120223,,国土の歴史的景観に寄与しているもの,,石川県,石川県白山市白峰,,石川県,都道府県,,36.12888000000000,136.75630000000000,甚之助谷中流の階段状堰堤群のうち、直下流の第12号堰堤上方の堆砂の上に築造される。逆台形の水通しをもつ練積の堰堤で、水通し部の笠石をわずかに庇状に突出させる。堤長30.5メートル堤高5.5メートル、正面に道路橋が架かり視認性が高い。,https://bunka.nii.ac.jp/heritage/43967/_164702/43967_164702140222024944036_300.jpg
101,00009150,甚之助谷第一四号砂防堰堤,じんのすけたにだいじゅうよんごうさぼうえんてい,1基,,登録有形文化財(建造物),治山治水,土木構造物,,昭和前,昭和8年,1933,コンクリート造堰堤、堤長33.0m、堤高5.5m,,,72,2012.02.23(平成24.02.23),2012.02.23(平成24.02.23),,20120223,,国土の歴史的景観に寄与しているもの,,石川県,石川県白山市白峰,,石川県,都道府県,,36.12890000000000,136.75640000000000,甚之助谷中流の階段状堰堤群のうち、直下流の第13号堰堤上方の堆砂の上に築造される。逆台形の水通しをもつ練積の堰堤で、水通し部の笠石をわずかに庇状に突出させる。堤長33.0メートル、堤高5.5メートル、第13号堰堤の直上にあり視認性が高い。,https://bunka.nii.ac.jp/heritage/43967/_164703/43967_164703140222024946364_300.jpg
101,00009151,甚之助谷第一六号砂防堰堤,じんのすけたにだいじゅうろくごうさぼうえんてい,1基,,登録有形文化財(建造物),治山治水,土木構造物,,昭和前,昭和8年,1933,コンクリート造堰堤、堤長31.0m、堤高5.5m,,,72,2012.02.23(平成24.02.23),2012.02.23(平成24.02.23),,20120223,,国土の歴史的景観に寄与しているもの,,石川県,石川県白山市白峰,,石川県,都道府県,,36.12898000000000,136.75650000000000,甚之助谷中流の階段状堰堤群のひとつで、第14号と第18号堰堤の中間に築造される。逆台形の水通しをもつ練積の堰堤で、水通し部の笠石をわずかに庇状に突出させる。堤長31メートル堤高5.5メートル、埋没部分が少なく、堤体全体を良好にみせる。,https://bunka.nii.ac.jp/heritage/43967/_164704/43967_164704140222024948308_300.jpg
101,00009152,甚之助谷第一八号砂防堰堤,じんのすけたにだいじゅうはちごうさぼうえんてい,1基,,登録有形文化財(建造物),治山治水,土木構造物,,昭和前,昭和8年,1933,コンクリート造堰堤、堤長24.0m、堤高4.5m,,,72,2012.02.23(平成24.02.23),2012.02.23(平成24.02.23),,20120223,,国土の歴史的景観に寄与しているもの,,石川県,石川県白山市白峰,,石川県,都道府県,,36.12907000000000,136.75660000000000,甚之助谷中流の階段状堰堤群のひとつで、第16号と第19号堰堤の中間に築造される。逆台形の水通しをもつ練積の堰堤で、水通し部の笠石をわずかに庇状に突出させる。堤長24メートル堤高4.5メートル、破損が比較的少なく当初の姿をよく留める。,https://bunka.nii.ac.jp/heritage/43967/_164705/43967_164705140222024949435_300.jpg
101,00009153,甚之助谷第一九号砂防堰堤,じんのすけたにだいじゅうきゅうごうさぼうえんてい,1基,,登録有形文化財(建造物),治山治水,土木構造物,,昭和前,昭和8年,1933,コンクリート造堰堤、堤長25.0m、堤高5.0m,,,72,2012.02.23(平成24.02.23),2012.02.23(平成24.02.23),,20120223,,国土の歴史的景観に寄与しているもの,,石川県,石川県白山市白峰,,石川県,都道府県,,36.12917000000000,136.75660000000000,甚之助谷中流の階段状堰堤群のひとつで、直下流の第18号堰堤上方の堆砂の上に築造される。逆台形の水通しをもつ練積の堰堤で、水通し部の笠石をわずかに庇状に突出させる。堤長25メートル堤高5メートル、両袖部がコンクリート造に置換されている。,https://bunka.nii.ac.jp/heritage/43967/_164706/43967_164706140222024950872_300.jpg
101,00009154,甚之助谷第二〇号砂防堰堤,じんのすけたにだいにじゅうごうさぼうえんてい,1基,,登録有形文化財(建造物),治山治水,土木構造物,,昭和前,昭和8年,1933,コンクリート造堰堤、堤長26.0m、堤高5.0m,,,72,2012.02.23(平成24.02.23),2012.02.23(平成24.02.23),,20120223,,国土の歴史的景観に寄与しているもの,,石川県,石川県白山市白峰,,石川県,都道府県,,36.12927000000000,136.75670000000000,甚之助谷中流の階段状堰堤群のひとつで、直下流の第19号堰堤上方の堆砂の上に築造される。逆台形の水通しをもつ練積の堰堤で、堤長26メートル堤高5メートル、当初の両袖部と水通し部の笠石が失われているが、原位置で砂防堰堤の機能を維持している。,https://bunka.nii.ac.jp/heritage/43967/_164707/43967_164707140222024951646_300.jpg
101,00009155,甚之助谷第二一号砂防堰堤,じんのすけたにだいにじゅういちごうさぼうえんてい,1基,,登録有形文化財(建造物),治山治水,土木構造物,,昭和前,昭和12年,1937,コンクリート造堰堤、堤長28.5m、堤高5.0m,,,72,2012.02.23(平成24.02.23),2012.02.23(平成24.02.23),,20120223,,国土の歴史的景観に寄与しているもの,,石川県,石川県白山市白峰,,石川県,都道府県,,36.12936000000000,136.75680000000000,甚之助谷中流の階段状堰堤群のひとつで、直下流の第20号堰堤上方の堆砂の上に築造される。逆台形の水通しをもつ練積の堰堤で、水通し部の笠石は現在失われている。堤長28.5メートル堤高5メートル、両袖部はコンクリート造に置換されている。,https://bunka.nii.ac.jp/heritage/43967/_164708/43967_164708140222024953683_300.jpg
101,00009156,甚之助谷第二二号砂防堰堤,じんのすけたにだいにじゅうにごうさぼうえんてい,1基,,登録有形文化財(建造物),治山治水,土木構造物,,昭和前,昭和12年,1937,コンクリート造堰堤、堤長36.0m、堤高4.5m,,,72,2012.02.23(平成24.02.23),2012.02.23(平成24.02.23),,20120223,,国土の歴史的景観に寄与しているもの,,石川県,石川県白山市白峰,,石川県,都道府県,,36.12943000000000,136.75690000000000,甚之助谷中流の階段状堰堤群のひとつで、直下流の第21号堰堤上方の堆砂の上に築造される。逆台形の水通しをもつ練積の堰堤で、水通し部の笠石は現在失われている。堤長36メートル堤高4.5メートル、両袖部はコンクリート造に置換されている。,https://bunka.nii.ac.jp/heritage/43967/_164709/43967_164709140222024956374_300.jpg
101,00009157,甚之助谷第二三号砂防堰堤,じんのすけたにだいにじゅうさんごうさぼうえんてい,1基,,登録有形文化財(建造物),治山治水,土木構造物,,昭和前,昭和13年,1938,コンクリート造堰堤、堤長32.5m、堤高5.0m,,,72,2012.02.23(平成24.02.23),2012.02.23(平成24.02.23),,20120223,,国土の歴史的景観に寄与しているもの,,石川県,石川県白山市白峰,,石川県,都道府県,,36.12949000000000,136.75700000000000,甚之助谷中流の階段状堰堤群のひとつで、直下流の第22号堰堤上方の堆砂の上に築造される。逆台形の水通しをもつ練積の堰堤で、水通し部に笠石を用いて庇状に突出させる。堤長32.5メートル堤高5.0メートル、両袖部はコンクリート造に置換されている。,https://bunka.nii.ac.jp/heritage/43967/_164710/43967_164710140222024957728_300.jpg
101,00009158,柳谷第七号砂防堰堤,やなぎたにだいななごうさぼうえんてい,1基,,登録有形文化財(建造物),治山治水,土木構造物,,昭和前,昭和3年,1928,コンクリート造堰堤、堤長60.5m、堤高8.0m,,,72,2012.02.23(平成24.02.23),2012.02.23(平成24.02.23),,20120223,,国土の歴史的景観に寄与しているもの,,石川県,石川県白山市白峰,,石川県,都道府県,,36.12541000000000,136.74770000000000,白山砂防施設のうち手取川柳谷筋の最下流部にある、内務省直轄事業で最初に施工された砂防堰堤のひとつ。逆台形の水通しをもつ練積の堰堤で、水通しの水平部の笠石を突出させる。内務省直轄事業最初期の堰堤の特徴を良好に留めている。,https://bunka.nii.ac.jp/heritage/43967/_164711/43967_164711140222024959183_300.jpg
101,00009159,御鍋砂防堰堤,おなべさぼうえんてい,1基,,登録有形文化財(建造物),治山治水,土木構造物,,昭和前,昭和32年,1957,コンクリート造堰堤、堤長60.7m、堤高41.0m,,,72,2012.02.23(平成24.02.23),2012.02.23(平成24.02.23),,20120223,,国土の歴史的景観に寄与しているもの,,石川県,石川県白山市瀬戸・木滑新,,国（国土交通省）,国,,36.28214000000000,136.66220000000000,白山砂防施設のうち手取川の東を流れる尾添川の下流部に設けられた砂防堰堤。砂防堰堤としては国内最大級の規模で、堤高41メートルを測る。わが国の砂防堰堤では初めて3次元応力解析を用いるなど最新の技術が取り入れられており、土木技術の発展を示す。,https://bunka.nii.ac.jp/heritage/43967/_164712/43967_164712140222025000906_300.jpg
101,00009160,鈴木家住宅主屋,すずきけじゅうたくしゅおく,1棟,,登録有形文化財(建造物),住宅,建築物,,昭和前,昭和6年,1931,木造2階建、瓦葺、建築面積165㎡,,17 - 0234,72,2012.02.23(平成24.02.23),2012.02.23(平成24.02.23),,20120223,,国土の歴史的景観に寄与しているもの,,石川県,石川県小松市中町8他,,,,,36.40748000000000,136.44950000000000,中町通り沿いの東南角地に建ち、木造2階建、建築面積165平方メートル、入母屋造桟瓦葺。角を隅入りとし、入母屋の妻や軒庇を段違いに設けて変化のある外観とする。外部は開口部に格子を建て、内部では座敷に面皮材を用いるなど、上品なつくりの町家である。,https://bunka.nii.ac.jp/heritage/43967/_164713/43967_164713322846468984982_300.jpg
101,00009161,鈴木家住宅店蔵,すずきけじゅうたくみせぐら,1棟,,登録有形文化財(建造物),住宅,建築物,,昭和前,昭和6年,1931,鉄筋コンクリート造2階建、建築面積22㎡,,17 - 0235,72,2012.02.23(平成24.02.23),2012.02.23(平成24.02.23),,20120223,,国土の歴史的景観に寄与しているもの,,石川県,石川県小松市中町8他,,,,,36.40754000000000,136.44960000000000,主屋北側に接して建つ蔵で、東西5.2メートル南北4.3メートル、鉄筋コンクリート造2階建、陸屋根である。外壁を漆喰塗、腰を戸室石張として土蔵風に仕上げ、パラペットの東面を山型につくりアクセントとする。大火後の再建のため防火に配慮した店蔵。,https://bunka.nii.ac.jp/heritage/43967/_164714/43967_164714681835940211514_300.jpg
101,00009162,鈴木家住宅土蔵,すずきけじゅうたくどぞう,1棟,,登録有形文化財(建造物),住宅,建築物,,明治,明治15年／昭和5年改修,1882／1930改修,土蔵造2階建、瓦葺、建築面積48㎡,,17 - 0236,72,2012.02.23(平成24.02.23),2012.02.23(平成24.02.23),,20120223,,国土の歴史的景観に寄与しているもの,,石川県,石川県小松市中町8他,,,,,36.40751000000000,136.44940000000000,敷地北西隅に建ち、桁行9.1メートル梁間4.6メートル、土蔵造2階建、切妻造桟瓦葺で、南面を出入口として蔵前を設ける。布石積の基礎に建ち、外壁漆喰塗仕上げで、両妻に窓を穿つ。昭和5年の小松大火に耐えた土蔵で、明治期の商家の屋敷構えを伝える。,https://bunka.nii.ac.jp/heritage/43967/_164715/43967_164715947221977766165_300.jpg
101,00009261,田辺家住宅主屋,たなべけじゅうたくしゅおく,1棟,,登録有形文化財(建造物),住宅,建築物,,昭和前,昭和2年／平成22年改修,1927／2010改修,木造2階建、瓦葺一部鉄板葺、建築面積100㎡,,17 － 0238,73,2012.08.13(平成24.08.13),2012.08.13(平成24.08.13),,20120813,,国土の歴史的景観に寄与しているもの,,石川県,石川県金沢市寺町1-138,,,,,36.54820000000000,136.65840000000000,北西角地に建つ木造二階建、寄棟造桟瓦葺で、北面に東入りの玄関、西面に平家建の茶の間浴室がつく。東面北寄りは上下階通しの出窓で、二階南半のサンルームにガラス障子を建て込む。南側は上下階とも和室で南面出窓は東面と同意匠。ホール式平面の近代住宅。,https://bunka.nii.ac.jp/heritage/43967/_194054/43967_194054364120982030564_300.jpg
101,00009262,田辺家住宅門及び塀,たなべけじゅうたくもんおよびへい,1基,,登録有形文化財(建造物),住宅,その他工作物,,昭和前,昭和2年／昭和中期改修,1927／1946～1965改修,門　コンクリート造、高さ2.9m　塀　コンクリート造、延長24m,,17 － 0239,73,2012.08.13(平成24.08.13),2012.08.13(平成24.08.13),,20120813,,国土の歴史的景観に寄与しているもの,,石川県,石川県金沢市寺町1-138,,,,,36.54832000000000,136.65850000000000,敷地東面北端に開く門で、北側門柱は高さ二・九メートルの円柱で基部は玉石張、胴部はモルタル塗で円盤が載る。南側門柱は植木鉢とする。門から南へ延びる塀はコンクリート擁壁に玉石張で、片端波形のコンクリートブロックを一段積み、南面東半まで廻らす。,https://bunka.nii.ac.jp/heritage/43967/_194055/43967_194055052266861423174_300.jpg
