台帳ID,管理対象ID,名称,ふりがな,員数,棟名,文化財種類,種別1,種別2,国,時代,年代,西暦,構造及び形式等,その他参考となるべき事項,登録番号,登録回,登録告示年月日,登録年月日,追加年月日,重文指定年月日,国宝指定年月日,登録基準1,登録基準2,都道府県,所在地,保管施設の名称,所有者名,所有者種別,管理団体又は責任者,緯度,経度,解説文,画像URL
101,00000175,旧九州鉄道城山三連橋梁,きゅうきゅうしゅうてつどうきやまさんれんきょうりょう,1基,,登録有形文化財(建造物),交通,土木構造物,,明治,明治22,1889,煉瓦造3連アーチ橋，延長24.5m，幅4.7m,,40 － 0002,2,1997.05.29(平成9.05.29),1997.05.07(平成9.05.07),,19970507,,国土の歴史的景観に寄与しているもの,,福岡県,福岡県筑紫野市大字永岡,,筑紫野市,,,33.46610000000000,130.53610000000000,幅４．７ｍ，延長２４．５ｍの煉瓦造の三連アーチ橋梁で，アーチ橋としては中規模な遺構である。中央部のアーチ下は河川，両脇アーチ下が道路となっている。簡素な構成のアーチ橋であるが，九州で最も早い時期に造られた煉瓦造橋梁として広く知られている。,https://bunka.nii.ac.jp/heritage/43967/_101165/43967_101165111225010440828_300.jpg
101,00000315,九州マクセル赤煉瓦記念館（旧三菱方城炭礦坑務工作室）,きゅうしゅうまくせるあかれんがきねんかん（きゅうみつびしほうじょうたんこうこうむこうさくしつ）,1棟,,登録有形文化財(建造物),産業1次,建築物,,明治,明治37頃,1904頃,煉瓦造2階建塔屋付，スレート葺，建築面積297㎡,,40 － 0003,5,1997.09.16(平成9.09.16),1997.09.03(平成9.09.03),,19970903,,国土の歴史的景観に寄与しているもの,,福岡県,福岡県田川郡福智町伊方4680,,マクセル株式会社,,,33.68257000000000,130.79210000000000,明治３５年に開削に着手した方城炭礦の開発時の施設で，建設当初は扇風機室として利用された。煉瓦造，２階建で，通りに面した一部を３階建てとする。使用された煉瓦は炭礦開発のために特別に焼成したものと伝え，炭礦の往事の様子をよく示す施設である。,https://bunka.nii.ac.jp/heritage/43967/_101305/43967_101305091397832394424_300.jpg
101,00000490,旧三池炭鉱宮浦坑煙突,きゅうみいけたんこうみやうらこうえんとつ,1基,,登録有形文化財(建造物),産業1次,その他工作,,明治,明治21,1888,煉瓦造煙突，高さ31.2m，基部直径4.3m,,40 － 0004,8,1998.02.12(平成10.02.12),1998.01.16(平成10.01.16),,19980116,,国土の歴史的景観に寄与しているもの,,福岡県,福岡県大牟田市西宮浦町132-8,,大牟田市,,,33.02903000000000,130.45480000000000,明治２０年に開削に着手した炭鉱に残る煉瓦造の円形煙突。蒸気動力のボイラーの排煙を目的に建設された。電化にともない多くの煙突が失われたため，三池炭鉱に現存する唯一の煙突となった。「炭鉱節」に唄われた三池炭鉱の煙突として広く親しまれている。,https://bunka.nii.ac.jp/heritage/43967/_101480/43967_101480111225010800039_300.jpg
101,00001083,草野歴史資料館（旧草野銀行本店）,くさのれきししりょうかん（きゅうくさのぎんこうほんてん）,1棟,,登録有形文化財(建造物),産業3次,建築物,,明治,明治44,1911,木造２階建，瓦葺，建築面積177㎡,,40 － 0005,16,1999.03.12(平成11.03.12),1999.02.17(平成11.02.17),,19990217,,造形の規範となっているもの,,福岡県,福岡県久留米市草野町草野411-1,,久留米市,,,33.31929000000000,130.63540000000000,久留米市の東部，旧御井郡の中心地として栄えた草野地区の地元銀行建築。木造平屋建，瓦葺寄棟屋根，下見板貼りの銀行店舗で，正面に千鳥破風の車寄ポーチを突き出す。門扉，鉄柵もよく遺されており，地方銀行の様子を今に伝える。,https://bunka.nii.ac.jp/heritage/43967/_102073/43967_102073111225011444309_300.jpg
101,00001084,山辺道文化館（旧中野病院）診療棟,やまべのみちぶんかかん（きゅうなかのびょういん）しんりょうとう,1棟,,登録有形文化財(建造物),文化福祉,建築物,,大正,大正3頃,1914頃,木造２階建，瓦葺，建築面積270㎡,,40 － 0006,16,1999.03.12(平成11.03.12),1999.02.17(平成11.02.17),,19990217,,造形の規範となっているもの,,福岡県,福岡県久留米市草野町草野487-1,,久留米市,,,33.31816000000000,130.63330000000000,久留米市の東方，草野地区に建つ大型の病院建築。煉瓦造基礎，木造下見板貼りの左右対称形の建物で，正面中央部を２階建とし，玄関上部にバルコニーを設ける。２階寄棟屋根から前面に突き出したペディメントの蟇股大瓶束風の飾りはユニーク。,https://bunka.nii.ac.jp/heritage/43967/_102074/43967_102074111225011444571_300.jpg
101,00001085,山辺道文化館（旧中野病院）倉庫,やまべのみちぶんかかん（きゅうなかのびょういん）そうこ,1棟,,登録有形文化財(建造物),文化福祉,建築物,,大正,大正3頃,1914頃,木造平屋建，瓦葺，建築面積26㎡,,40 － 0007,16,1999.03.12(平成11.03.12),1999.02.17(平成11.02.17),,19990217,,造形の規範となっているもの,,福岡県,福岡県久留米市草野町草野487-1,,久留米市,,,33.31809000000000,130.63310000000000,診療棟の背後，南西方に建つ木造平屋建，桟瓦葺，寄棟屋根の倉庫建物。診療棟と同様，下見板貼りで軒下と腰を縦羽目とする。北面の東端と南面の中央東寄りに出入口を設け，内開き窓の外側に外開きの１枚戸を付けて盗難避けとしている。,https://bunka.nii.ac.jp/heritage/43967/_102075/43967_102075111225011445084_300.jpg
101,00001148,北九州市旧大阪商船,きたきゅうしゅうしきゅうおおさかしょうせん,1棟,,登録有形文化財(建造物),交通,建築物,,大正,大正6,1917,木造一部コンクリート造２階建，建築面積670㎡,,40 － 0008,17,1999.07.19(平成11.07.19),1999.06.07(平成11.06.07),,19990607,,国土の歴史的景観に寄与しているもの,,福岡県,福岡県北九州市門司区港町7-18,,北九州市,,,33.94612000000000,130.96220000000000,門司港のランドマークとして広く親しまれている。辰野式フリークラシックのセセッション化を一段と押し進めた作品としても知られる。設計は大阪建築士の草分け的存在である河合幾次。現在は市有化されて海事・イベント館として活用されている。,https://bunka.nii.ac.jp/heritage/43967/_102138/43967_102138111225011518785_300.jpg
101,00001149,草野歴史資料館（旧草野銀行本店）門,くさのれきししりょうかん（きゅうくさのぎんこうほんてん）もん,1基,,登録有形文化財(建造物),産業3次,その他工作,,明治,明治41,1908,石造，幅員2.9m，左右柵基壇18.7m附属,,40 － 0009,17,1999.07.19(平成11.07.19),1999.06.07(平成11.06.07),,19990607,,国土の歴史的景観に寄与しているもの,,福岡県,福岡県久留米市草野町草野411-1,,久留米市,,,33.31942000000000,130.63530000000000,銀行本館の前庭を前面街路と側面街路に沿って鈎型に囲うもので、正面中央に正門、側面に通用門を設け、高欄風の石造土台の上に鉄柵を建てる。資料館開館（昭和５９年）にあたり復元された門扉と鉄柵は地方銀行におけるアプローチ空間の有様をよく伝える。,https://bunka.nii.ac.jp/heritage/43967/_132577/43967_132577111225011520697_300.jpg
101,00001308,門司区役所（旧門司市役所）,もじくやくしょ（きゅうもじしやくしょ）,1棟,,登録有形文化財(建造物),官公庁舎,建築物,,昭和前,昭和5,1930,鉄筋コンクリート造３階建，建築面積1854㎡,,40 － 0010,19,1999.09.07(平成11.09.07),1999.08.23(平成11.08.23),,19990823,,造形の規範となっているもの,,福岡県,福岡県北九州市門司区清滝1-1-1,,北九州市,,,33.94118000000000,130.95960000000000,門司港とJR門司港駅を見下ろす丘の上に建つ。玄関ポーチなどに装飾的要素を残すものの、全体としては無装飾のインターナショナルスタイルを基調とする。左右対称で建物の隅を曲線で処理しているのが特徴。設計は九州帝大建築課長であった倉田謙による。,https://bunka.nii.ac.jp/heritage/43967/_102298/43967_102298111225011701189_300.jpg
101,00001458,内田三連橋梁,うちださんれんきょうりょう,1基,,登録有形文化財(建造物),交通,土木構造物,,明治,明治28,1895,煉瓦造3連アーチ橋、橋長17m、幅員12m,,40 － 0011,21,1999.12.02(平成11.12.02),1999.11.18(平成11.11.18),,19991118,,国土の歴史的景観に寄与しているもの,,福岡県,福岡県田川郡赤村大字内田1804-1他,,平成筑豊鉄道株式会社,,,33.62870000000000,130.86690000000000,筑豊地方の運炭鉄道網拡充のために設立された豊州鉄道株式会社が油須原－香春間に建設した橋長１７ｍの煉瓦造３連アーチ橋。上流側壁面には切石が貼られているが，下流側は複線化を考慮し凹凸をつけて煉瓦が積まれており，結果として装飾的になっている。,https://bunka.nii.ac.jp/heritage/43967/_102448/43967_102448111225011837582_300.jpg
101,00001459,石坂トンネル（第２隧道）,いしざかとんねる（だいにずいどう）,1基,,登録有形文化財(建造物),交通,土木構造物,,明治,明治28,1895,煉瓦造、全長75m、幅8.1m、石造・煉瓦造坑口,,40 － 0012,21,1999.12.02(平成11.12.02),1999.11.18(平成11.11.18),,19991118,,国土の歴史的景観に寄与しているもの,,福岡県,福岡県田川郡赤村大字赤6938-2～京都郡みやこ町大字崎山字石坂1506-2,,平成筑豊鉄道株式会社,,,33.61706000000000,130.89900000000000,豊州鉄道株式会社が石坂峠付近の大坂山の岩盤に掘削した全長７５ｍ、曲線平面の煉瓦造隧道。複線仕様の扁平な馬蹄形坑口を持つ。坑門は切石積みでアーチ部のみ煉瓦で構成し，坑門端部で迫り出した門柱状の意匠によりポータルを造る。担当技師は野辺地久記。,https://bunka.nii.ac.jp/heritage/43967/_102449/43967_102449111225011838122_300.jpg
101,00001755,呉川眼鏡橋,くれかわめがねばし,1基,,登録有形文化財(建造物),交通,土木構造物,,明治,明治19,1886,石造単アーチ橋、橋長8.6m、幅員4.2m,,40 － 0013,24,2000.05.25(平成12.05.25),2000.04.28(平成12.04.28),,20000428,,国土の歴史的景観に寄与しているもの,,福岡県,福岡県田川郡香春町大字鏡山1113、1497,,香春町,,,33.67737000000000,130.87530000000000,１級河川遠賀川水系の呉川に架かる石造単アーチ橋。橋長８．６ｍ、幅員４．２ｍの規模を持ち、アーチは半径約３ｍのほぼ半円形をしている。切石の花崗岩が整然と布積みされた充腹アーチが、周囲の自然景観に溶け込んでいる。,https://bunka.nii.ac.jp/heritage/43967/_102745/43967_102745111225012144802_300.jpg
101,00001756,仲哀隧道,ちゅうあいずいどう,1基,,登録有形文化財(建造物),交通,土木構造物,,明治,明治22,1889,煉瓦造坑口、延長432m,,40 － 0014,24,2000.05.25(平成12.05.25),2000.04.28(平成12.04.28),,20000428,,国土の歴史的景観に寄与しているもの,,福岡県,福岡県田川郡香春町大字鏡山1073～京都郡みやこ町大字松田2032-6,,香春町、みやこ町,,,33.68114000000000,130.88230000000000,筑豊で採掘された石炭等を運搬するために掘削された全長４３２ｍの隧道。隧道内壁の両端部は煉瓦及び石造で、その他の部分は素堀りとする。馬蹄形の坑口周りを花崗岩の切石とし、煉瓦積みの坑門が門柱状の意匠で飾られる。,https://bunka.nii.ac.jp/heritage/43967/_102746/43967_102746111225012145056_300.jpg
101,00002097,旧三池炭鉱三川電鉄変電所（信号電材株式会社本社）,きゅうみいけたんこうみかわでんてつへんでんしょ（しんごうでんざいかぶしきがいしゃほんしゃ）,1棟,,登録有形文化財(建造物),交通,建築物,,明治,明治42頃,1909頃,煉瓦造平屋建、スレート葺、建築面積462㎡,,40 － 0015,27,2000.12.20(平成12.12.20),2000.12.04(平成12.12.04),,20001204,,国土の歴史的景観に寄与しているもの,,福岡県,福岡県大牟田市新港町1-30,,信号電材 株式会社,,,33.01154000000000,130.42540000000000,三池港に通じる三池炭鉱専用鉄道用の旧変電所。規模がほぼ等しい煉瓦造切妻平屋建の建屋が２棟並列する。妻面にバラ窓風の開口部を設け，側面には窓台に砂岩を用いたアーチ形窓が並ぶ。民間会社が保存を図りつつ社屋として活用している。,https://bunka.nii.ac.jp/heritage/43967/_103087/43967_103087914274100358861_300.jpg
101,00002098,鶴味噌並倉北棟,つるみそなみくらきたとう,1棟,,登録有形文化財(建造物),産業2次,建築物,,大正,大正7,1918,煉瓦造平屋建、瓦葺、建築面積62㎡,,40 － 0016,27,2000.12.20(平成12.12.20),2000.12.04(平成12.12.04),,20001204,,国土の歴史的景観に寄与しているもの,,福岡県,福岡県柳川市三橋町江曲216,,鶴味噌醸造株式会社,,,33.16079000000000,130.40920000000000,三橋町と柳川市との境を流れる掘割に沿って建つ。煉瓦造平屋建，切妻造桟瓦葺の旧麹室で，鋸歯飾りをあしらった胴蛇腹，妻面に円形換気窓を設ける。中棟との間に設けた庇部に，妻面に合わせて煉瓦壁を延ばし，半円アーチ形の開口部を穿つ。,https://bunka.nii.ac.jp/heritage/43967/_103088/43967_103088111225012535629_300.jpg
101,00002099,鶴味噌並倉中棟,つるみそなみくらなかとう,1棟,,登録有形文化財(建造物),産業2次,建築物,,大正,大正初期,1912-1925,煉瓦造平屋建、瓦葺、建築面積45㎡,,40 － 0017,27,2000.12.20(平成12.12.20),2000.12.04(平成12.12.04),,20001204,,国土の歴史的景観に寄与しているもの,,福岡県,福岡県柳川市三橋町江曲216,,鶴味噌醸造株式会社,,,33.16074000000000,130.40920000000000,３棟の内，煉瓦造蔵として最初に建てられたと伝わる。妻面を木造横板貼とし，フランス積の壁面に北・南棟で模される櫛形アーチ開口部を２箇所設ける。登梁を中柱で支えた和小屋を載せる。他棟と類似しつつ，微妙に変化をもつ外観が水辺景観を豊かにしている。,https://bunka.nii.ac.jp/heritage/43967/_103089/43967_103089111225012535891_300.jpg
101,00002100,鶴味噌並倉南棟,つるみそなみくらみなみとう,1棟,,登録有形文化財(建造物),産業2次,建築物,,明治,明治39頃／大正7増築,1906頃／1918増築,煉瓦造平屋建、瓦葺、建築面積70㎡,,40 － 0018,27,2000.12.20(平成12.12.20),2000.12.04(平成12.12.04),,20001204,,国土の歴史的景観に寄与しているもの,,福岡県,福岡県柳川市三橋町江曲216,,鶴味噌醸造株式会社,,,33.16068000000000,130.40920000000000,北棟と類似した外観。キングポストトラスの小屋組を載せ，小規模な切妻屋根を冠す中棟との間隙に煉瓦壁を築き，鋸歯飾りの胴蛇腹によって主棟との連続性を持つ。３棟の煉瓦妻面が掘割に面する並倉は，水郷柳川の歴史的景観形成に大きく寄与している。,https://bunka.nii.ac.jp/heritage/43967/_103090/43967_103090111225012536147_300.jpg
101,00002700,旧蔵内家住宅大玄関棟,きゅうくらうちけじゅうたくおおげんかんとう,1棟,,登録有形文化財(建造物),住宅,建築物,,大正,大正9,1920,木造平屋建、銅板葺、建築面積147㎡,,40 － 0019,32,2002.03.12(平成14.03.12),2002.02.14(平成14.02.14),,20020214,,国土の歴史的景観に寄与しているもの,,福岡県,福岡県築上郡築上町大字上深野396,,,,,33.63658000000000,130.99470000000000,主屋をはじめとする建築群の正面に建つ。戸袋に貼られた新聞より大正９年の建設と判明する。東面して建つ銅板葺の妻入建物で，屋根はＴ字型の大棟として東・南・北に妻飾を設け，その周囲にも一段低い屋根を架ける。全体として変化に富む外観を構成している。,https://bunka.nii.ac.jp/heritage/43967/_103690/43967_103690111225013148975_300.jpg
101,00002701,旧蔵内家住宅応接間棟,きゅうくらうちけじゅうたくおうせつまとう,1棟,,登録有形文化財(建造物),住宅,建築物,,明治,明治20,1887,木造平屋建、瓦葺、建築面積110㎡,,40 － 0020,32,2002.03.12(平成14.03.12),2002.02.14(平成14.02.14),,20020214,,国土の歴史的景観に寄与しているもの,,福岡県,福岡県築上郡築上町大字上深野396,,,,,33.63670000000000,130.99460000000000,東西棟の桟瓦葺・入母屋造で，周囲に銅板葺の下屋庇を廻し，内部は１５畳と１０畳の２室からなる。付書院や欄間の細工など，良材を用いた繊細な造形である。年代は主屋と同時期で，主屋と東北隅で繋がり，大玄関棟や茶室と雁行し，連続感のある構成をつくる。,https://bunka.nii.ac.jp/heritage/43967/_103691/43967_103691111225013149505_300.jpg
101,00002702,旧蔵内家住宅主屋,きゅうくらうちけじゅうたくしゅおく,1棟,,登録有形文化財(建造物),住宅,建築物,,明治,明治20,1887,木造2階建、瓦葺、建築面積256㎡,,40 － 0021,32,2002.03.12(平成14.03.12),2002.02.14(平成14.02.14),,20020214,,国土の歴史的景観に寄与しているもの,,福岡県,福岡県築上郡築上町大字上深野396,,,,,33.63668000000000,130.99440000000000,東を正面とした桁行８間半，梁間４間の総２階建，南北棟・桟瓦葺・入母屋造の屋根を上げた建物で，大邸宅の中心に相応しい雄大さを備えている。西面には低い屋根を架けて，１階に居間など内向きの部屋を設けている。竣工写真から建築年代が判明する。,https://bunka.nii.ac.jp/heritage/43967/_103692/43967_103692111225013150028_300.jpg
101,00002703,旧蔵内家住宅茶室,きゅうくらうちけじゅうたくちゃしつ,1棟,,登録有形文化財(建造物),住宅,建築物,,大正,大正8,1919,木造平屋建、銅板葺、建築面積47㎡,,40 － 0022,32,2002.03.12(平成14.03.12),2002.02.14(平成14.02.14),,20020214,,造形の規範となっているもの,,福岡県,福岡県築上郡築上町大字上深野396,,,,,33.63679000000000,130.99450000000000,主屋北側に位置し，応接棟の北西隅と巧みに接続している。入母屋造で，周囲に下屋庇を廻し，その西面には入母屋破風を設ける。現在銅板葺であるが当初は檜皮葺であった。茶室は８畳で，床の間の落掛に竹を用い，全体を木割の細い数寄屋風意匠で纏めている。,https://bunka.nii.ac.jp/heritage/43967/_103693/43967_103693111225013151414_300.jpg
101,00002704,旧蔵内家住宅座敷棟,きゅうくらうちけじゅうたくざしきとう,1棟,,登録有形文化財(建造物),住宅,建築物,,大正,大正6,1917,木造平屋建、瓦葺、建築面積138㎡,,40 － 0023,32,2002.03.12(平成14.03.12),2002.02.14(平成14.02.14),,20020214,,造形の規範となっているもの,,福岡県,福岡県築上郡築上町大字上深野396,,,,,33.63683000000000,130.99430000000000,主屋の北西に接続する建物で，大広間棟などとともに，事業拡大を図った大正期に整えられた。東西棟・入母屋造・桟瓦葺で，周囲に一間幅の下屋庇をつける。内部は１０畳間２室で，主屋側の室に床の間や付書院を設け，数寄屋風の丁寧なつくりになっている。,https://bunka.nii.ac.jp/heritage/43967/_103694/43967_103694111225013151945_300.jpg
101,00002705,旧蔵内家住宅大広間棟,きゅうくらうちけじゅうたくおおひろまとう,1棟,,登録有形文化財(建造物),住宅,建築物,,大正,大正7,1918,木造平屋建、瓦葺、建築面積240㎡,,40 － 0024,32,2002.03.12(平成14.03.12),2002.02.14(平成14.02.14),,20020214,,国土の歴史的景観に寄与しているもの,,福岡県,福岡県築上郡築上町大字上深野396,,,,,33.63696000000000,130.99440000000000,座敷棟の北にある南北棟の長大な建物で，東に築かれた庭園に臨んで建ち，格調ある佇まいをみせる。屋根はＴ字型の大棟で三方に破風を設け，周囲に庇を廻す。１８畳が２室続く内部も広壮で座敷飾にも特色がある。棟札より棟梁は近郷山田村の中江九壽と判る。,https://bunka.nii.ac.jp/heritage/43967/_103695/43967_103695111225013152476_300.jpg
101,00002706,旧蔵内家住宅炊事場棟,きゅうくらうちけじゅうたくすいじばとう,1棟,,登録有形文化財(建造物),住宅,建築物,,大正,大正5,1916,木造平屋建、瓦葺、建築面積178㎡,,40 － 0025,32,2002.03.12(平成14.03.12),2002.02.14(平成14.02.14),,20020214,,造形の規範となっているもの,,福岡県,福岡県築上郡築上町大字上深野396,,,,,33.63670000000000,130.99430000000000,主屋西面の南側で接続する。炊事場・食堂・台所・浴室・便所・井戸など，居住のサービス機能を備えた部分である。真壁造で端整なつくりになるが，東西棟・入母屋造・桟瓦葺の大屋根を架け，入母屋造の一段低い下屋を各方向に付けた賑やかな外観としている。,https://bunka.nii.ac.jp/heritage/43967/_103696/43967_103696111225013153007_300.jpg
101,00002707,旧蔵内家住宅宝蔵,きゅうくらうちけじゅうたくほうぞう,1棟,,登録有形文化財(建造物),住宅,建築物,,明治,明治20頃,1887頃,木造2階建、瓦葺、建築面積116㎡,,40 － 0026,32,2002.03.12(平成14.03.12),2002.02.14(平成14.02.14),,20020214,,再現することが容易でないもの,,福岡県,福岡県築上郡築上町大字上深野396,,,,,33.63683000000000,130.99420000000000,座敷棟と炊事場の後方，屋敷西面中央に建つ収蔵施設。桁行１０間の壮大な規模を有し，南北に細長い切妻造・桟瓦葺・２階建の土蔵で，内部の南北に２箇所の階段を設ける。壁面は丁寧な仕上の漆喰塗とし，小庇付窓を数多く配するなど，特色あるつくりである。,https://bunka.nii.ac.jp/heritage/43967/_103697/43967_103697111225013153275_300.jpg
101,00002708,旧蔵内家住宅米倉,きゅうくらうちけじゅうたくこめぐら,1棟,,登録有形文化財(建造物),住宅,建築物,,昭和前,昭和初期,1926-1988,木造2階建、瓦葺、建築面積88㎡,,40 － 0027,32,2002.03.12(平成14.03.12),2002.02.14(平成14.02.14),,20020214,,国土の歴史的景観に寄与しているもの,,福岡県,福岡県築上郡築上町大字上深野396,,,,,33.63654000000000,130.99430000000000,主屋の南側にある米を収蔵していた土蔵で，主屋側に庇を設け，渡廊下で連絡していた。東西に細長い建物で，桟瓦葺の屋根は東妻を兜造風，西妻を切妻造とする。道路に面した南壁面は漆喰塗で腰を縦板張とするが，東妻は下見板張とし，存在感のある外観である。,https://bunka.nii.ac.jp/heritage/43967/_103698/43967_103698111225013153805_300.jpg
101,00002709,旧蔵内家住宅倉,きゅうくらうちけじゅうたくくら,1棟,,登録有形文化財(建造物),住宅,建築物,,昭和前,昭和前期,1926-1988,木造平屋建、瓦葺、建築面積173㎡,,40 － 0028,32,2002.03.12(平成14.03.12),2002.02.14(平成14.02.14),,20020214,,国土の歴史的景観に寄与しているもの,,福岡県,福岡県築上郡築上町大字上深野396,,,,,33.63660000000000,130.99410000000000,屋敷南西の角地を画するように建ち，東面で米倉と接する。Ｌ字型平面とし，南面のほぼ中央に通用門を構え，内部を分けて農機具倉・左官倉・大工倉などに用いていた。屋根は桟瓦葺，真壁造で外廻りの腰を縦板張にする。大邸宅の屋敷構成を特色づける施設。,https://bunka.nii.ac.jp/heritage/43967/_103699/43967_103699111225013155064_300.jpg
101,00002710,旧蔵内家住宅中門,きゅうくらうちけじゅうたくちゅうもん,1棟,,登録有形文化財(建造物),住宅,その他工作,,大正,大正10,1921,木造平屋建、銅板葺、間口1.8m,,40 － 0029,32,2002.03.12(平成14.03.12),2002.02.14(平成14.02.14),,20020214,,造形の規範となっているもの,,福岡県,福岡県築上郡築上町大字上深野396,,,,,33.63660000000000,130.99490000000000,大玄関棟の北東にあり，アプローチ空間と屋敷北側に築かれた庭園を連絡する門で，古写真から大正１０年の建築と判明する。桁行１間，梁間１間，入母屋造・銅板葺の小規模な門であるが，自然の丸柱，丸太の桁や垂木など，数寄屋風の整った造形である。,https://bunka.nii.ac.jp/heritage/43967/_103700/43967_103700111225013155592_300.jpg
101,00002711,旧蔵内家住宅便所,きゅうくらうちけじゅうたくべんじょ,1棟,,登録有形文化財(建造物),住宅,建築物,,大正,大正10,1921,木造平屋建、瓦葺、建築面積5.7㎡,,40 － 0030,32,2002.03.12(平成14.03.12),2002.02.14(平成14.02.14),,20020214,,造形の規範となっているもの,,福岡県,福岡県築上郡築上町大字上深野396,,,,,33.63644000000000,130.99470000000000,屋敷南側に開かれた入口脇にあり，中門と同じ頃の建築と推定される。寄棟造・桟瓦葺の小規模な建物であるが，腰高で石造風のコンクリート基礎上に，自然の丸柱を立て，桁や垂木も丸太とし，墨壁に丸窓を設けるなど，よく数寄屋風の意匠で纏められている。,https://bunka.nii.ac.jp/heritage/43967/_103701/43967_103701111225013155864_300.jpg
101,00004081,楠森河北家住宅主屋,くすもりかわきたけじゅうたくしゅおく,1棟,,登録有形文化財(建造物),住宅,建築物,,明治,明治14,1881,木造2階建、瓦葺、建築面積254㎡,,40 － 0031,41,2004.03.29(平成16.03.29),2004.03.02(平成16.03.02),,20040302,,国土の歴史的景観に寄与しているもの,,福岡県,福岡県うきは市浮羽町山北2056,,,,,33.32988000000000,130.80780000000000,東面して建つ妻入の木造２階建。屋根は，東面入母屋造，西面切妻造，桟瓦葺で，各面には高さの異なる下屋を廻し，南面や西面に角屋を突出するなど，複雑な平面に対応した変化ある外観をつくる。上層民家に相応しい雄大な規模と，格式のある構成を備えている。,https://bunka.nii.ac.jp/heritage/43967/_105071/43967_105071111225014636669_300.jpg
101,00004082,楠森河北家住宅座敷,くすもりかわきたけじゅうたくざしき,1棟,,登録有形文化財(建造物),住宅,建築物,,明治,明治中期,1868-1911,木造平屋建、瓦葺、建築面積83㎡,,40 － 0032,41,2004.03.29(平成16.03.29),2004.03.02(平成16.03.02),,20040302,,造形の規範となっているもの,,福岡県,福岡県うきは市浮羽町山北2056,,,,,33.32974000000000,130.80770000000000,主屋の南西方に接続して建つ離れ座敷。木造平屋建，３室からなるＬ字型平面で，屋根は南北棟の入母屋造で下屋を廻し，南面東側は寄棟造屋根を突出する。全体に繊細な数寄屋風のつくりで，軒下の小壁に軒丸瓦を嵌め込んで飾るなど，要所に趣向を凝らしている。,https://bunka.nii.ac.jp/heritage/43967/_105072/43967_105072111225014636941_300.jpg
101,00004083,楠森河北家住宅新座敷,くすもりかわきたけじゅうたくしんざしき,1棟,,登録有形文化財(建造物),住宅,建築物,,大正,大正初期,1912-1925,木造平屋建、瓦葺、建築面積71㎡,,40 － 0033,41,2004.03.29(平成16.03.29),2004.03.02(平成16.03.02),,20040302,,造形の規範となっているもの,,福岡県,福岡県うきは市浮羽町山北2056,,,,,33.32970000000000,130.80790000000000,主屋南面の東に廊下で結ばれている接客用の座敷。木造平屋建，入母屋造，桟瓦葺で，下屋を廻す。内部は１間半の大床を備えた１２畳半の１室で，周囲に縁側を設け，開放的な扱いとする。良材を用いた丁寧なつくりになり，壁や欄間などの造作も手が込んでいる。,https://bunka.nii.ac.jp/heritage/43967/_105073/43967_105073111225014637475_300.jpg
101,00004084,楠森河北家住宅材木小屋,くすもりかわきたけじゅうたくざいもくごや,1棟,,登録有形文化財(建造物),住宅,建築物,,明治,明治前期,1868-1911,土蔵造2階建、瓦葺、建築面積95㎡,,40 － 0034,41,2004.03.29(平成16.03.29),2004.03.02(平成16.03.02),,20040302,,国土の歴史的景観に寄与しているもの,,福岡県,福岡県うきは市浮羽町山北2056,,,,,33.33006000000000,130.80820000000000,桁行約１６ｍの土蔵造で，西側に秤蔵が接続する。屋根は東西棟の切妻造，桟瓦葺で，南面に戸口を２箇所設け，庇を付ける。外壁は漆喰塗だが，内部は東西に分かれ，西側は２階建になるが，東側は吹き抜けの広大な１室とする。屋敷内で最も大きい収納施設。,https://bunka.nii.ac.jp/heritage/43967/_105074/43967_105074111225014637748_300.jpg
101,00004085,楠森河北家住宅秤蔵,くすもりかわきたけじゅうたくはかりぐら,1棟,,登録有形文化財(建造物),住宅,建築物,,明治,明治後期,1868-1911,木造平屋建、瓦葺、建築面積45㎡,,40 － 0035,41,2004.03.29(平成16.03.29),2004.03.02(平成16.03.02),,20040302,,国土の歴史的景観に寄与しているもの,,福岡県,福岡県うきは市浮羽町山北2056,,,,,33.33007000000000,130.80790000000000,桁行約７ｍの木造平屋建，切妻造，桟瓦葺で，材木小屋の西妻面に接続して建つ。床材に万延２年の墨書があるが，家相図より明治後期に現在地に移動し，改造されたと考えられる。現在は車庫等になっているが，屋敷構成の変遷を知る上で欠かせない存在である。,https://bunka.nii.ac.jp/heritage/43967/_105075/43967_105075111225014638014_300.jpg
101,00004086,楠森河北家住宅炭部屋,くすもりかわきたけじゅうたくすみべや,1棟,,登録有形文化財(建造物),住宅,建築物,,江戸,万延2頃,1861頃,土蔵造2階建、瓦葺、建築面積68㎡,,40 － 0036,41,2004.03.29(平成16.03.29),2004.03.02(平成16.03.02),,20040302,,造形の規範となっているもの,,福岡県,福岡県うきは市浮羽町山北2056,,,,,33.32999000000000,130.80770000000000,主屋の北西方に離れて建ち，西で米蔵と接する。木造２階建，東西棟の切妻造，桟瓦葺で，南面には戸口２箇所を設け，下屋庇をつける。外壁は漆喰塗で，１階の腰を縦板張とし，２階に虫籠窓などを設ける。１階３室，２階に居室を設けた重厚なつくりの付属施設。,https://bunka.nii.ac.jp/heritage/43967/_105076/43967_105076111225014638288_300.jpg
101,00004087,楠森河北家住宅米蔵・器蔵,くすもりかわきたけじゅうたくこめぐら・うつわぐら,1棟,,登録有形文化財(建造物),住宅,建築物,,江戸,文化9／安政4増築,1812／1857増築,土蔵造2階建、瓦葺、建築面積45㎡,,40 － 0037,41,2004.03.29(平成16.03.29),2004.03.02(平成16.03.02),,20040302,,造形の規範となっているもの,,福岡県,福岡県うきは市浮羽町山北2056,,,,,33.32992000000000,130.80760000000000,南北棟の切妻造，桟瓦葺，２階建の土蔵で，外壁は漆喰塗，腰を縦板張とする。北半分の米蔵は棟木に文化９年の墨書，南半分の器蔵は柱に安政４年の墨書があり，器蔵が増築されて現状になった。窓及び庇のつくりや位置などの違いに建築時期の差が現れている。,https://bunka.nii.ac.jp/heritage/43967/_105077/43967_105077111225014638560_300.jpg
101,00004088,楠森河北家住宅味噌部屋,くすもりかわきたけじゅうたくみそべや,1棟,,登録有形文化財(建造物),住宅,建築物,,明治,明治前期／大正期増築,1868-1911／1912-1925増築,土蔵造平屋建、瓦葺、建築面積23㎡,,40 － 0038,41,2004.03.29(平成16.03.29),2004.03.02(平成16.03.02),,20040302,,国土の歴史的景観に寄与しているもの,,福岡県,福岡県うきは市浮羽町山北2056,,,,,33.32982000000000,130.80770000000000,主屋の西方にある。木造平屋建，南北棟の切妻造，桟瓦葺で，東面に戸口を設け，東と西の各面に虫籠窓を設ける。外壁は軒裏まで塗込めた荒壁仕上で，腰は縦板張とする。南妻面の下屋は大正期の増築である。主屋北西方の裏庭空間の構成要素のひとつ。,https://bunka.nii.ac.jp/heritage/43967/_105078/43967_105078111225014639090_300.jpg
101,00004300,料亭金鍋本館,りょうていきんなべほんかん,1棟,,登録有形文化財(建造物),産業3次,建築物,,大正,大正6頃,1917頃,木造3階建、瓦葺、建築面積382㎡,,40 － 0039,43,2004.08.17(平成16.08.17),2004.07.23(平成16.07.23),,20040723,,国土の歴史的景観に寄与しているもの,,福岡県,福岡県北九州市若松区本町2-516、522、523,,,,,33.90385000000000,130.80810000000000,木造３階建の老舗料亭。南北に細長い建物で，中廊下の東西に部屋を配した平面構成とし，２階に床・棚付３０畳の大広間を設ける。全体に良材を用い，洗練された質の高い数寄屋風で纏め，洋風も用いる。重厚な黒漆喰塗の外観は，地域の景観上，存在感がある。,https://bunka.nii.ac.jp/heritage/43967/_105290/43967_105290111225014856055_300.jpg
101,00004301,料亭金鍋表門,りょうていきんなべおもてもん,1棟,,登録有形文化財(建造物),産業3次,その他工作,,大正,大正6頃,1917頃,木造、瓦葺、間口1.8m、塀延長3.9m付,,40 － 0040,43,2004.08.17(平成16.08.17),2004.07.23(平成16.07.23),,20040723,,造形の規範となっているもの,,福岡県,福岡県北九州市若松区本町2-516、522、523,,,,,33.90412000000000,130.80800000000000,北と南が道路に面した細長い敷地で，表門は北辺際にある。左右には塀が延び，西塀は折れ曲がって，表門とともに玄関前庭を区画する。間口約２ｍで角柱を立て，腕木，軒桁，垂木に丸太を用い，ガラス欄間を嵌め込むなど，近代的な数寄屋風意匠になっている。,https://bunka.nii.ac.jp/heritage/43967/_105291/43967_105291111225014856591_300.jpg
101,00005206,大牟田市役所本庁舎旧館,おおむたしやくしょほんちょうしゃきゅうかん,1棟,,登録有形文化財(建造物),官公庁舎,建築物,,昭和前,昭和11,1936,鉄筋コンクリート造4階建、建築面積1378㎡、塔屋付,,40 － 0041,48,2005.12.27(平成17.12.27),2005.12.26(平成17.12.26),,20051226,,国土の歴史的景観に寄与しているもの,,福岡県,福岡県大牟田市有明町2-3,,大牟田市,,,33.03024000000000,130.44590000000000,ＪＲ大牟田駅前に位置する。正面を６２ｍとしたＲＣ造４階建の庁舎建築で，中央背面に議場を張り出す。縦長窓を密に配した採光に配慮したつくりで，複数の蛇腹と中央部の柱形で外観を引きしめる。正面中央部には５層の塔屋を設け，中心性を強調する。,https://bunka.nii.ac.jp/heritage/43967/_106196/43967_106196111225020844220_300.jpg
101,00005933,嘉穂劇場,かほげきじょう,1棟,,登録有形文化財(建造物),文化福祉,建築物,,昭和前,昭和6／平成16改修,1931／2004改修,木造2階建、鉄板葺、建築面積1117㎡,,40 － 0042,53,2006.12.19(平成18.12.19),2006.11.29(平成18.11.29),,20061129,,国土の歴史的景観に寄与しているもの,,福岡県,福岡県飯塚市飯塚5-23,,特定非営利活動法人嘉穂劇場,,,33.63649000000000,130.68710000000000,木造２階建の芝居小屋。鉄板葺屋根とし，正面は入母屋造，背面は切妻造とする。正面は１，２階共，両端間を除く各間に建具４枚を引違いに建込む。２階外側に手摺りを設け，妻に太鼓櫓を飾る。明治期から昭和初期に筑豊地方に建築された劇場建築の唯一の遺構。,https://bunka.nii.ac.jp/heritage/43967/_106918/43967_106918111225022627649_300.jpg
101,00006123,旅館鹿島本館客室棟,りょかんかしまほんかんきゃくしつとう,1棟,,登録有形文化財(建造物),産業3次,建築物,,昭和前,昭和初期,1926-1988,木造2階建、瓦葺、建築面積169㎡,,40 － 0044,54,2007.05.29(平成19.05.29),2007.05.15(平成19.05.15),,20070515,,造形の規範となっているもの,,福岡県,福岡県福岡市博多区冷泉町１４８ 他,,有限会社 鹿島本館,営利法人,,33.59434416000000,130.41261956000000,敷地の奧，北東側に建つ。切妻造の木造２階建で，北西から東南に中廊下を通し，１階に５室，２階に５室の客室を配する。各室の床廻りの意匠を変え，天井も船底や掛け込みなどとし，材料も竹，葭簀，網代を用いるなど凝った数寄屋意匠でまとめているのが特徴。,https://bunka.nii.ac.jp/heritage/43967/_107107/43967_107107017961696098871_300.jpg
101,00006144,旅館鹿島本館管理棟,りょかんかしまほんかんかんりとう,1棟,,登録有形文化財(建造物),産業3次,建築物,,昭和前,昭和初期,1926-1988,木造2階建、瓦葺、建築面積330㎡,,40 － 0043,54,2007.05.29(平成19.05.29),2007.05.15(平成19.05.15),,20070515,,国土の歴史的景観に寄与しているもの,,福岡県,福岡県福岡市博多区冷泉町１４８ 他,,有限会社 鹿島本館,営利法人,,33.59419597000000,130.41242807000000,博多駅北西方，櫛田神社参道近くに位置する。南西から北東に細長く延びた敷地の南西側に建ち，北西面に廊下を配し，南東に中庭を介して管理部や客室部を櫛歯状に突き出す。南西面は，前面道路から退いた玄関と入母屋の妻面が落ち着いた佇まいをつくっている。,https://bunka.nii.ac.jp/heritage/43967/_107128/43967_107128444387352699014_300.jpg
101,00006152,旅館鹿島本館表門及び塀,りょかんかしまほんかんおもてもんおよびへい,1基,,登録有形文化財(建造物),産業3次,その他工作物,,昭和前,昭和初期,1926-1988,表門　木造門柱2基、間口2.4m、塀　木造、瓦葺、延長8.9m,,40 － 0045,54,2007.05.29(平成19.05.29),2007.05.15(平成19.05.15),,20070515,,国土の歴史的景観に寄与しているもの,,福岡県,福岡県福岡市博多区冷泉町3-11,,,,,33.59408583000000,130.41227560000000,管理棟玄関部の前に位置し，前面道路からやや退いて塀重門風に門柱を立てる。門柱と桟瓦葺の袖塀の小屋根との間には柄振板を挟み込む。塀は，南袖塀から南方に延び，管理棟宿直室前庭を囲む真壁造，桟瓦葺の屋根塀で，小壁に連子窓を開け，街路景観を整える。,https://bunka.nii.ac.jp/heritage/43967/_107136/43967_107136292908841614762_300.jpg
101,00006284,旧サッポロビール九州工場事務所棟,きゅうさっぽろびーるきゅうしゅうこうじょうじむしょとう,1棟,,登録有形文化財(建造物),産業2次,建築物,,大正,大正2,1913,煉瓦造2階建、鉄板葺、建築面積232㎡、塔屋付,,40 － 0046,55,2007.08.13(平成19.08.13),2007.07.31(平成19.07.31),,20070731,,国土の歴史的景観に寄与しているもの,,福岡県,福岡県北九州市門司区大里本町3-6-104,,北九州市,,,33.90621000000000,130.93170000000000,関門海峡沿いの国道１９９号東側敷地に西面して建つ。桁行１９ｍ，梁間１４ｍで，煉瓦造２階建とする。正面中央玄関部を突出させ塔状に３階高まで立ち上げ，１・２階共に左右対称の意匠として中心性を強調する。鉱滓煉瓦を使用し，細部意匠にも工夫がみられる。,https://bunka.nii.ac.jp/heritage/43967/_107268/43967_107268111225023701715_300.jpg
101,00006285,旧サッポロビール九州工場醸造棟,きゅうさっぽろびーるきゅうしゅうこうじょうじょうぞうとう,1棟,,登録有形文化財(建造物),産業2次,建築物,,大正,大正2,1913,煉瓦造2階建・3階建・4階建及び7階建、鉄板葺，建築面積1180㎡,,40 － 0047,55,2007.08.13(平成19.08.13),2007.07.31(平成19.07.31),,20070731,,国土の歴史的景観に寄与しているもの,,福岡県,福岡県北九州市門司区大里本町3-6-103他,,北九州市,,,33.90572000000000,130.93130000000000,事務所棟の南側に建つ。南北５５ｍ，東西２７ｍの規模の煉瓦造で，２階建，３階建，４階建，７階建の建物をほぼコの字状に連結して並べ，周囲にアーチ窓を開く。ビールの製造工程に従って高さの異なる建物が組み合わされ，大規模な特徴のある多様な外観を見せる。,https://bunka.nii.ac.jp/heritage/43967/_107269/43967_107269111225023702610_300.jpg
101,00006286,旧サッポロビール九州工場組合棟,きゅうさっぽろびーるきゅうしゅうこうじょうくみあいとう,1棟,,登録有形文化財(建造物),産業2次,建築物,,大正,大正6,1917,煉瓦造平屋建、鉄板葺、建築面積108㎡,,40 － 0048,55,2007.08.13(平成19.08.13),2007.07.31(平成19.07.31),,20070731,,国土の歴史的景観に寄与しているもの,,福岡県,福岡県北九州市門司区大里本町3-6-103他,,特定非営利活動法人門司赤煉瓦倶楽部,,,33.90594000000000,130.93170000000000,醸造棟の北側に近接して建つ。桁行１２ｍ，梁間９ｍ規模で，煉瓦造平屋建，切妻造，鉄板葺とする。床を地盤面より１．７ｍ高くつくる。北面に扉口を開き，周囲にアーチ窓を開く。柱形を外に見せ，要に石材を使い，妻壁にパラペットを立上げ，重厚な外観とする。,https://bunka.nii.ac.jp/heritage/43967/_107270/43967_107270111225023703483_300.jpg
101,00006287,旧サッポロビール九州工場倉庫,きゅうさっぽろびーるきゅうしゅうこうじょうそうこ,1棟,,登録有形文化財(建造物),産業2次,建築物,,大正,大正2,1913,煉瓦造2階建、鉄板葺、建築面積1050㎡,,40 － 0049,55,2007.08.13(平成19.08.13),2007.07.31(平成19.07.31),,20070731,,再現することが容易でないもの,,福岡県,福岡県北九州市門司区大里本町3-6-103他,,特定非営利活動法人門司赤煉瓦倶楽部,,,33.90649000000000,130.93140000000000,事務所棟の道路を隔てて西側に建つ。桁行３３ｍ，梁間２９ｍの規模で，煉瓦造２階建，切妻造，鉄板葺を並列に２連に並べる。妻面に扉口を開き，上部を円形窓としていた。小屋組はクイーンポスト形式で，倉庫の大空間を確保している。,https://bunka.nii.ac.jp/heritage/43967/_107271/43967_107271111225023704373_300.jpg
101,00006466,旧三井田川鉱業所伊田竪坑櫓,きゅうみついたがわこうぎょうしょいだたてこうやぐら,1基,,登録有形文化財(建造物),産業2次,その他工作,,明治,明治42,1909,鉄骨造、高さ28m,,40 － 0051,56,2007.10.22(平成19.10.22),2007.10.02(平成19.10.02),,20071002,,国土の歴史的景観に寄与しているもの,,福岡県,福岡県田川市大字伊田2734-1,,田川市,,,33.64146000000000,130.81490000000000,市のほぼ中心部に位置する旧鉱山施設。Ⅰ形鋼を用いた４本の鋼柱等からなる鋼構造体の頂部に、２基の大型ヘッドシーブを据え付けて総高２８ｍとし、西側にはバックステイを添える。筑豊に残る唯一の鋼製櫓で、現存する明治期の竪坑櫓として最大級の規模を誇る。,https://bunka.nii.ac.jp/heritage/43967/_107449/43967_107449111225024113042_300.jpg
101,00006467,旧三井田川鉱業所伊田竪坑第一煙突,きゅうみついたがわこうぎょうしょいだたてこうだいいちえんとつ,1基,,登録有形文化財(建造物),産業2次,その他工作,,明治,明治41,1908,煉瓦造、高さ45m,,40 － 0052,56,2007.10.22(平成19.10.22),2007.10.02(平成19.10.02),,20071002,,国土の歴史的景観に寄与しているもの,,福岡県,福岡県田川市大字伊田2734-1,,田川市,,,33.64033000000000,130.81510000000000,竪坑櫓より約１２０ｍ南方に位置する。旧汽罐場に付属する高さ４５ｍ（１５０尺）の煉瓦造円形煙突で、全体をイギリス積で精緻に築き、基部には半円アーチ形の煙道を一部残す。現存する明治期の煉瓦煙突として最大級の規模を誇る。,https://bunka.nii.ac.jp/heritage/43967/_107450/43967_107450111225024115996_300.jpg
101,00006491,旧三井田川鉱業所伊田竪坑第二煙突,きゅうみついたがわこうぎょうしょいだたてこうだいにえんとつ,1基,,登録有形文化財(建造物),産業2次,その他工作,,明治,明治41,1908,煉瓦造、高さ45m,,40 － 0053,56,2007.10.22(平成19.10.22),2007.10.02(平成19.10.02),,20071002,,国土の歴史的景観に寄与しているもの,,福岡県,福岡県田川市大字伊田2734-1,,田川市,,,33.64039000000000,130.81500000000000,第一煙突から約２５ｍ西に位置する。旧汽罐場に付属する高さ４５ｍ（１５０尺）の煉瓦造煙突で、全体をイギリス積で築き、基部を八角形断面、他の部分を円形断面とする。竪坑、第一煙突と共に「炭鉱節」に謡われた構造物として知られ、筑豊の繁栄の歴史を物語る。,https://bunka.nii.ac.jp/heritage/43967/_107474/43967_107474111225024149266_300.jpg
101,00006659,箱嶋家住宅主屋,はこしまけじゅうたくしゅおく,1棟,,登録有形文化財(建造物),住宅,建築物,,明治,明治初期,1868-1911,木造2階建、瓦葺、建築面積102㎡,,40 － 0056,57,2007.12.19(平成19.12.19),2007.12.05(平成19.12.05),,20071205,,造形の規範となっているもの,,福岡県,福岡県福岡市東区馬出2-662,,,,,33.60817000000000,130.41810000000000,旧唐津街道に東面する木造２階建の町家。桁行３間半梁間６間半の切妻造平入で、屋根は桟瓦葺とする。正面１階は中央に戸口を開き、両脇を出格子とする。２階は全面を出格子とする。内部は北側に通り土間、南に１列３室が並ぶ伝統的な町家平面である。,https://bunka.nii.ac.jp/heritage/43967/_107642/43967_107642111225024613802_300.jpg
101,00006660,旧上妻家住宅（津屋崎千軒民俗館藍の家）主屋,きゅうこうづまけじゅうたく（つやざきせんげんみんぞくかんあいのいえ）しゅおく,1棟,,登録有形文化財(建造物),産業2次,建築物,,明治,明治34,1901,木造2階建、瓦葺、建築面積156㎡,,40 － 0057,57,2007.12.19(平成19.12.19),2007.12.05(平成19.12.05),,20071205,,造形の規範となっているもの,,福岡県,福岡県福津市津屋崎4-935,,福津市,,,33.78945000000000,130.46300000000000,通りに西面する木造２階建の平入町家。桁行６間梁間４間半の切妻造桟瓦葺で、表裏に庇が付き、背面に渡廊下で便所が接続。正面中央の戸口の両脇を格子で飾る。２階壁は白漆喰塗で、窓枠を塗り出す。内部は南が土間で北に喰違いに５室を配す。明治期町家の好例。,https://bunka.nii.ac.jp/heritage/43967/_107643/43967_107643111225024615629_300.jpg
101,00006661,旧上妻家住宅（津屋崎千軒民俗館藍の家）井戸屋形,きゅうこうづまけじゅうたく（つやざきせんげんみんぞくかんあいのいえ）いどやかた,1棟,,登録有形文化財(建造物),産業2次,その他工作,,明治,明治後期,1868-1911,木造平屋建、桧皮葺、建築面積1.0㎡,,40 － 0058,57,2007.12.19(平成19.12.19),2007.12.05(平成19.12.05),,20071205,,国土の歴史的景観に寄与しているもの,,福岡県,福岡県福津市津屋崎4-935,,福津市,,,33.78940000000000,130.46300000000000,主屋の東背面、裏庭の中央に位置する。井戸枠は方１．０ｍの人造石研出し仕上げで、四隅に内転びの柱を立て、六角屋根を架ける。屋根は檜皮で葺き、竹で押さえる。西面と北面に壁があり、それぞれ円形と方形の下地窓を開く。数寄屋風意匠をもつ遺構である。,https://bunka.nii.ac.jp/heritage/43967/_107644/43967_107644111225024616534_300.jpg
101,00007322,旧古河鉱業若松ビル,きゅうふるかわこうぎょうわかまつびる,1棟,,登録有形文化財(建造物),産業3次,建築物,,大正,大正8／平成16改修,1919／2004改修,煉瓦造2階建、銅板一部スレート葺、建築面積297㎡,,40 － 0059,60,2008.07.23(平成20.07.23),2008.07.08(平成20.07.08),,20080708,,国土の歴史的景観に寄与しているもの,,福岡県,福岡県北九州市若松区本町1-217他,,北九州市,,,33.90237000000000,130.81260000000000,鋭角の角地に敷地を占める、煉瓦造２階建。南西隅に大塔、南東に小塔を建てる。壁面はモルタル塗で、南面と西面は煉瓦タイル貼のピラスターを付け、その間に２連の縦長窓を上下階に開け、縦線を強調する。若松港のランドマークとして親しまれる。,https://bunka.nii.ac.jp/heritage/43967/_108304/43967_108304111225030617174_300.jpg
101,00007323,旧三井寺ポンプ所及び変電所,きゅうみいでらぽんぷじょおよびへんでんしょ,1棟,,登録有形文化財(建造物),産業1次,建築物,,昭和前,昭和8,1933,煉瓦造平屋建、瓦葺、建築面積223㎡,,40 － 0060,60,2008.07.23(平成20.07.23),2008.07.08(平成20.07.08),,20080708,,国土の歴史的景観に寄与しているもの,,福岡県,福岡県久留米市三潴町高三潴字三井寺1101-7,,筑後川土地改良区,,,33.25907000000000,130.45860000000000,寄棟造の東棟と切妻造の南棟がＬ字型に続き、南棟の北に一段低い寄棟造の北棟が付く。イギリス積の煉瓦造平屋建で、屋根は桟瓦葺。面積２２３㎡。東棟と南棟には半円アーチ窓を開ける。小屋はキングポスト・トラス。田園風景の中に残る、もと農業用水施設である。,https://bunka.nii.ac.jp/heritage/43967/_108305/43967_108305111225030618996_300.jpg
101,00008597,石蔵酒造事務所兼主屋,いしくらしゅぞうじむしょけんしゅおく,1棟,,登録有形文化財(建造物),産業2次,建築物,,大正,大正期,1912-1926,木造2階建、瓦葺、建築面積204㎡、煙突付,,40 － 0061,69,2011.01.26(平成23.01.26),2011.01.26(平成23.01.26),,20110126,,国土の歴史的景観に寄与しているもの,,福岡県,福岡県福岡市博多区堅粕1-3-6,,石蔵酒造株式会社,,,33.59871000000000,130.41750000000000,通りの北側に位置する。間口一八メートルの二階建町家で、桁行に西から土間、事務室、居室の三部分に分かれ、屋根も入母屋と切妻の複雑な構成となる。一階に平格子、二階に漆喰仕上げの大壁に銅板貼の両開戸を設けるなど、意匠性豊かな表構えをつくる。,https://bunka.nii.ac.jp/heritage/43967/_134993/43967_134993269855868334326_300.jpg
101,00008598,石蔵酒造主倉,いしくらしゅぞうしゅぐら,1棟,,登録有形文化財(建造物),産業2次,建築物,,明治,明治中期,1883-1897,木造2階建、瓦葺、建築面積974㎡,,40 － 0062,69,2011.01.26(平成23.01.26),2011.01.26(平成23.01.26),,20110126,,国土の歴史的景観に寄与しているもの,,福岡県,福岡県福岡市博多区堅粕1-3-6,,,,,33.59886000000000,130.41760000000000,事務所兼主屋の北に位置する。東西棟の切妻造桟瓦葺で、南・北面全面に下屋を付設。桁行三九メートル、梁間は併せて二六メートルに及ぶ。妻面は下見板張とし、鉢巻などを漆喰で仕上げる。二階建で、トラス組が豊かな内部空間をつくる。大規模な酒造倉の一例。,https://bunka.nii.ac.jp/heritage/43967/_134994/43967_134994111225034532173_300.jpg
101,00008599,石蔵酒造西倉及び旧精米所,いしくらしゅぞうにしくらおよびきゅうせいまいじょ,1棟,,登録有形文化財(建造物),産業2次,建築物,,昭和前,昭和前期,1926-1945,木造2階建、瓦葺、建築面積429㎡、渡廊下、煙突及び釜場付,,40 － 0063,69,2011.01.26(平成23.01.26),2011.01.26(平成23.01.26),,20110126,,国土の歴史的景観に寄与しているもの,,福岡県,福岡県福岡市博多区堅粕1-3-6,,,,,33.59908000000000,130.41740000000000,敷地の西隅に位置する。通り沿いの旧精米所とその北の西倉からなり、事務所への渡り廊下を付設する。いずれも切妻造桟瓦葺で、西面妻は下見板張、南面は腰高に下見板を張り、上部漆喰仕上げ。下見板の黒色と漆喰の白の鮮やかな対比が趣ある外観をつくる。,https://bunka.nii.ac.jp/heritage/43967/_134995/43967_134995111225034533730_300.jpg
101,00008600,髙橋家住宅店舗兼主屋,たかはしけじゅうたくてんぽけんしゅおく,1棟,,登録有形文化財(建造物),産業3次,建築物,,大正,大正前期,1912-1918,木造2階建、瓦葺、建築面積70㎡,,40 － 0064,69,2011.01.26(平成23.01.26),2011.01.26(平成23.01.26),,20110126,,造形の規範となっているもの,,福岡県,福岡県福岡市博多区下呉服町72,,,,,33.60221000000000,130.40780000000000,博多町人町に位置し、竪町筋に北面する。間口五・六メートル奥行一二メートルの木造二階建。切妻造桟瓦葺で正面に庇を付ける。二階は格子戸、一階はガラス戸を全面にたてる。通り土間で正面にミセを設け、二階に座敷三室を配する。標準的な博多の近代町家。,https://bunka.nii.ac.jp/heritage/43967/_134996/43967_134996266066191096459_300.jpg
101,00008601,吉住家住宅主屋,よしずみけじゅうたくしゅおく,1棟,,登録有形文化財(建造物),住宅,建築物,,昭和前,昭和4年,1929,木造2階建、瓦葺、建築面積108㎡,,40 － 0065,69,2011.01.26(平成23.01.26),2011.01.26(平成23.01.26),,20110126,,造形の規範となっているもの,,福岡県,福岡県福岡市博多区上呉服町273,,,,,33.59889000000000,130.41260000000000,博多西門通りに北面する。間口五・五メートルの二階建。渡り廊下を介して台所棟を背面に付設。いずれも切妻造桟瓦葺。二階に座敷、一階に通り土間と仏間等を設ける。正面に庇を付け、二階に格子戸をたて、一階を全面ガラス戸とし、近代的な町家構えをつくる。,https://bunka.nii.ac.jp/heritage/43967/_134997/43967_134997111225034538209_300.jpg
101,00008602,浄福寺鐘楼,じょうふくじしょうろう,1棟,,登録有形文化財(建造物),宗教,その他工作,,江戸,江戸後期／明治中期・昭和50年移築,1751-1830／1883-1897・1975移築,木造、瓦葺、面積8.4㎡,,40 － 0066,69,2011.01.26(平成23.01.26),2011.01.26(平成23.01.26),,20110126,,造形の規範となっているもの,,福岡県,福岡県福岡市南区桧原6-897-7,,宗教法人浄福寺,,,33.53186000000000,130.38520000000000,方一間で、四周吹放ちとする。礎盤上に円柱を内転びにたて、腰貫や長押、台輪で固め、尾垂木付二手先を詰組とし、一軒扇垂木を配る。妻木連格子の入母屋造本瓦葺。中央を鏡天井とする化粧屋根裏天井で、彫刻欄間や地紋彫を飾る。秀逸な意匠になる吹放ち鐘楼。,https://bunka.nii.ac.jp/heritage/43967/_134998/43967_134998111225034539828_300.jpg
101,00008603,旧林田春次郎家住宅本屋,きゅうはやしだはるじろうけじゅうたくほんや,1棟,,登録有形文化財(建造物),住宅,建築物,,大正,大正3年／昭和後期改修,1914／1966-1989改修,木造平屋一部2階建、瓦葺、建築面積210㎡,,40 － 0067,69,2011.01.26(平成23.01.26),2011.01.26(平成23.01.26),,20110126,,国土の歴史的景観に寄与しているもの,,福岡県,福岡県田川市新町3330-1他,,,,,33.64467000000000,130.81060000000000,市街地の高台に占める敷地中央に東面して建つ。東西棟の入母屋造妻入桟瓦葺、木造二階建と、その北面に付く入母屋造平屋建からなる。建築面積二一〇平方メートル。平屋部分は前後二列の六間取で、前列北室にトコを構える。変化のある外観を構成する近代の住宅。,https://bunka.nii.ac.jp/heritage/43967/_134999/43967_134999024525153114600_300.jpg
101,00008604,旧林田春次郎家住宅迎賓館,きゅうはやしだはるじろうけじゅうたくげいひんかん,1棟,,登録有形文化財(建造物),住宅,建築物,,昭和前,昭和9年／昭和後期改修,1934／1966-1989改修,木造2階建、銅板葺、建築面積124㎡,,40 － 0068,69,2011.01.26(平成23.01.26),2011.01.26(平成23.01.26),,20110126,,造形の規範となっているもの,,福岡県,福岡県田川市新町3330-1他,,,,,33.64486000000000,130.81070000000000,主屋の北方に位置する木造二階建。入母屋造銅板葺の緩やかな屋根になる。一階に小部屋、二階に大広間と次の間を配し、香春岳を望む東面に広縁を設ける。大広間北端にトコと棚を構え、その東北には瀟洒な角部屋を造る。銘木を用い、優れた和風意匠が印象的。,https://bunka.nii.ac.jp/heritage/43967/_135000/43967_135000026478084405866_300.jpg
101,00009078,筑紫女学園洗心庵,ちくしじょがくえんせんしんあん,1棟,,登録有形文化財(建造物),学校,建築物,,昭和前,昭和15年／平成15年改修,1940/2003改修,木造平屋建、瓦葺一部銅板葺、建築面積38㎡,,40 － 0069,71,2011.10.28(平成23.10.28),2011.10.28(平成23.10.28),,20111028,,国土の歴史的景観に寄与しているもの,,福岡県,福岡県福岡市中央区警固2-24-3,,学校法人筑紫女学園,非営利法人,,33.58280000000000,130.38900000000000,校地の東北隅に位置する。北に四畳半の茶室、南に六畳の水屋を配し、茶室には台目のトコを構え、水屋にも丸炉を切る。屋根は東西棟からＴ字型に南北棟が延び、妻などに土庇を付設する。丸太柱を多用し、外壁は漆喰仕上げとする。軽快で変化に富む外観をなす。,https://bunka.nii.ac.jp/heritage/43967/_162438/43967_162438140216024932348_300.jpg
101,00009079,筑紫女学園待合,ちくしじょがくえんまちあい,1棟,,登録有形文化財(建造物),学校,建築物,,昭和前,昭和15年／平成15年改修,1940/2003改修,木造平屋建、杉皮葺、建築面積1.4㎡,,40 － 0070,71,2011.10.28(平成23.10.28),2011.10.28(平成23.10.28),,20111028,,国土の歴史的景観に寄与しているもの,,福岡県,福岡県福岡市中央区警固2-24-3,,学校法人筑紫女学園,非営利法人,,33.58275000000000,130.38910000000000,洗心庵東南に位置する。桁行1.8メートル梁間南0.9メートル北0.6メートル、招屋根杉皮葺。丸太柱で側・背面を漆喰仕上げ真壁とし、南妻に下地窓を開ける。南北で妻壁の出を変え、座板は途中で折れ、杉板と竹を交互に張る。繊細なデザインの庭園建築。,https://bunka.nii.ac.jp/heritage/43967/_162439/43967_162439140216024934650_300.jpg
101,00009080,筑紫女学園香風亭,ちくしじょがくえんこうふうてい,1棟,,登録有形文化財(建造物),学校,建築物,,昭和中,昭和30年／平成15年改修,1955/2003改修,木造平屋建、瓦葺一部銅板葺、建築面積123㎡,,40 － 0071,71,2011.10.28(平成23.10.28),2011.10.28(平成23.10.28),,20111028,,国土の歴史的景観に寄与しているもの,,福岡県,福岡県福岡市中央区警固2-24-3,,学校法人筑紫女学園,非営利法人,,33.58267000000000,130.38890000000000,洗心庵の南に位置する。南北棟の切妻造桟瓦葺で、軒先を銅板葺とし、北面に角屋を付設する。十畳の主座敷と十五畳の次の間を中心に縁を廻らして下屋とし、三畳台目の茶室や納戸、玄関を付ける。装飾を廃した開放的な書院座敷で、品格ある雰囲気を有する。,https://bunka.nii.ac.jp/heritage/43967/_162440/43967_162440140216024937867_300.jpg
101,00009228,南久保田家住宅主屋,みなみくぼたけじゅうたくしゅおく,1棟,,登録有形文化財(建造物),住宅,建築物,,大正,大正4年,1915,木造平屋一部2階建、瓦葺、建築面積427㎡,,,72,2012.02.23(平成24.02.23),2012.02.23(平成24.02.23),,20120223,,国土の歴史的景観に寄与しているもの,,福岡県,福岡県うきは市吉井町福永字屋敷160-2,,,,,33.35212000000000,130.76400000000000,敷地中央に東面し、桁行24.6メートル梁間12.8メートルで、西に納戸、北に便所を張出す。木造平屋1部2階建、入母屋造桟瓦葺で、2階外壁は大壁で重厚な構えとする。18畳主室にスギ板の鏡天井を張るなど、長大材を用いた雄大なつくりになる大型民家。,https://bunka.nii.ac.jp/heritage/43967/_164781/43967_164781140222025159794_300.jpg
101,00009229,南久保田家住宅米蔵,みなみくぼたけじゅうたくこめぐら,1棟,,登録有形文化財(建造物),住宅,建築物,,明治,明治32年,1899,木造平屋一部2階建、瓦葺、建築面積69㎡,,,72,2012.02.23(平成24.02.23),2012.02.23(平成24.02.23),,20120223,,国土の歴史的景観に寄与しているもの,,福岡県,福岡県うきは市吉井町福永字屋敷160-2,,,,,33.35219000000000,130.76360000000000,敷地北西隅に南北棟で建ち、桁行9.9メートル梁間6.9メートル、木造平屋1部2階建、切妻造妻入、桟瓦葺である。布石積基礎上に建ち、外壁は真壁漆喰塗で、北面に下見板を張り、1階内部を土間とする。明治期の屋敷構えを伝える、建ちの高い米蔵である。,https://bunka.nii.ac.jp/heritage/43967/_164782/43967_164782140222025200581_300.jpg
101,00009230,南久保田家住宅古蔵,みなみくぼたけじゅうたくふるぐら,1棟,,登録有形文化財(建造物),住宅,建築物,,明治,明治前期,1868～1882,木造2階建、瓦葺、建築面積38㎡,,,72,2012.02.23(平成24.02.23),2012.02.23(平成24.02.23),,20120223,,国土の歴史的景観に寄与しているもの,,福岡県,福岡県うきは市吉井町福永字屋敷160-2,,,,,33.35219000000000,130.76370000000000,米蔵の東側に東西棟で建ち、桁行7.8メートル梁間4.9メートル、木造2階建、切妻造桟瓦葺で、南面出入口に庇を付ける。外壁は大壁漆喰塗で軒裏まで塗込め、腰を竪板張とする。明治28年の家相図に確認される蔵で、往時の屋敷構えを伝える。,https://bunka.nii.ac.jp/heritage/43967/_164783/43967_164783140222025201587_300.jpg
101,00009231,南久保田家住宅ツキアタリ蔵,みなみくぼたけじゅうたくつきあたりぐら,1棟,,登録有形文化財(建造物),住宅,建築物,,大正,大正後期,1919～1926,木造2階建、瓦葺、建築面積56㎡,,,72,2012.02.23(平成24.02.23),2012.02.23(平成24.02.23),,20120223,,国土の歴史的景観に寄与しているもの,,福岡県,福岡県うきは市吉井町福永字屋敷160-2,,,,,33.35213000000000,130.76360000000000,米蔵と農業倉庫の間に南北棟で建ち、桁行9.9メートル梁間4.9メートル、木造2階建、切妻造桟瓦葺で、出入口のある東面全長に下屋を付け、薪置場などに区画する。外壁は大壁漆喰塗で腰に竪板を張る。1階は土間で、2階を床板張とする、もと家財蔵。,https://bunka.nii.ac.jp/heritage/43967/_164784/43967_164784140222025203583_300.jpg
101,00009232,南久保田家住宅味噌部屋,みなみくぼたけじゅうたくみそべや,1棟,,登録有形文化財(建造物),住宅,建築物,,大正,大正前期,1912～1918,木造平屋建、瓦葺、建築面積27㎡,,,72,2012.02.23(平成24.02.23),2012.02.23(平成24.02.23),,20120223,,国土の歴史的景観に寄与しているもの,,福岡県,福岡県うきは市吉井町福永字屋敷160-2,,,,,33.35190000000000,130.76390000000000,主屋南側の水路脇に南北棟で建ち、桁行6.7メートル梁間4.0メートル、木造平屋建、切妻造妻入、桟瓦葺である。外壁は真壁漆喰塗で腰を竪板張とする。内部は土間で、主屋の土間に向く北面を出入口として庇を付ける。旧家の生活様態を伝える建物である。,https://bunka.nii.ac.jp/heritage/43967/_164785/43967_164785140222025204439_300.jpg
101,00009233,南久保田家住宅農業倉庫,みなみくぼたけじゅうたくのうぎょうそうこ,1棟,,登録有形文化財(建造物),住宅,建築物,,昭和前,昭和10年,1935,木造2階建、瓦葺、建築面積89㎡,,,72,2012.02.23(平成24.02.23),2012.02.23(平成24.02.23),,20120223,,国土の歴史的景観に寄与しているもの,,福岡県,福岡県うきは市吉井町福永字屋敷160-2,,,,,33.35195000000000,130.76370000000000,敷地南西隅に東西棟で建ち、桁行12.9メートル梁間6.9メートル、木造2階建、切妻造桟瓦葺で、南面1間通りを下屋として、屋敷外からの出入りの可能なつくりとする。外壁は竪板張とし、内部は納屋などに仕切る。農作との関連を示す大型倉庫である。,https://bunka.nii.ac.jp/heritage/43967/_164786/43967_164786140222025205434_300.jpg
101,00009234,南久保田家住宅材木置場及び脇門,みなみくぼたけじゅうたくざいもくおきばおよびわきもん,1棟,,登録有形文化財(建造物),住宅,建築物,,大正,大正4年頃,1915頃,木造平屋建、瓦葺、建築面積44㎡,,,72,2012.02.23(平成24.02.23),2012.02.23(平成24.02.23),,20120223,,国土の歴史的景観に寄与しているもの,,福岡県,福岡県うきは市吉井町福永字屋敷160-2,,,,,33.35190000000000,130.76420000000000,主屋南東隅に5畳大の脇部屋を建て、その東側に脇門を開き、さらに矩折れに材木置場を延ばす。延長23.5メートル、木造、切妻造桟瓦葺である。材木置場は、表庭側を漆喰塗とし、裏側は吹放ちとして材木等を納める。屋敷の表構えと実用を兼ねた建物。,https://bunka.nii.ac.jp/heritage/43967/_164787/43967_164787140222025206245_300.jpg
101,00009235,南久保田家住宅裏門,みなみくぼたけじゅうたくうらもん,1棟,,登録有形文化財(建造物),住宅,建築物,,大正,大正4年頃,1915頃,木造平屋建、瓦葺、建築面積11㎡,,,72,2012.02.23(平成24.02.23),2012.02.23(平成24.02.23),,20120223,,国土の歴史的景観に寄与しているもの,,福岡県,福岡県うきは市吉井町福永字屋敷160-2,,,,,33.35190000000000,130.76380000000000,主屋の南西側、農業倉庫の東隣に東西棟で並び建ち、桁行5.2メートル梁間2.1メートル、木造平屋建、切妻造桟瓦葺である。南面東寄りに門を開き、両開き板戸を吊る。外壁は漆喰塗及び竪板張とする。小規模ながら堅実なつくりになる裏門である。,https://bunka.nii.ac.jp/heritage/43967/_164788/43967_164788140222025207830_300.jpg
101,00009403,旧小倉警察署庁舎（旧岡田医院）,きゅうこくらけいさつしょちょうしゃ（きゅうおかだいいん）,1棟,,登録有形文化財(建造物),官公庁舎,建築物,,明治,明治23年／昭和4年・昭和後期・平成18年改修,1890／1929・1966～1989・2006改修,木造2階建、瓦葺、建築面積162㎡,,40 － 0080,73,2012.08.13(平成24.08.13),2012.08.13(平成24.08.13),,20120813,,国土の歴史的景観に寄与しているもの,,福岡県,福岡県北九州市小倉北区室町2-42-8,,株式会社聖林公司,営利法人,,33.88628000000000,130.87630000000000,紫川畔の角地に建つ。木造二階建、建築面積一六二平方メートル、寄棟造桟瓦葺で、南角に張出す玄関に円柱で支持した庇を付す。外壁は横板張で上げ下げ窓を連続させ、軒に蛇腹を廻らすなど洋風意匠とする。建築年代の明らかなものとして県内最古の庁舎建築。,https://bunka.nii.ac.jp/heritage/43967/_194196/43967_194196217831540401630_300.jpg
101,00009538,上野ビル（旧三菱合資会社若松支店）本館,うえのびる（きゅうみつびしごうしがいしゃわかまつしてん）　ほんかん,1棟,,登録有形文化財(建造物),産業3次,建築物,,大正,大正2年,1913,煉瓦造3階建、建築面積465㎡,,40 － 0081,74,2013.03.29(平成25.03.29),2013.03.29(平成25.03.29),,20130329,,造形の規範となっているもの,,福岡県,福岡県北九州市若松区本町1-14-1他,,上野海運株式会社,営利法人,,33.90256000000000,130.81390000000000,若松港に面して建つ。煉瓦造三階建、建築面積四六五平方メートル、陸屋根である。左右対称の正面で、中央に玄関を突出する。縦長窓を規則的に配した重厚な外観に対して、内部は中央の吹き抜けを取り、鋳鉄製の柱やステンドグラスを用いて華やかに仕上げる。,https://bunka.nii.ac.jp/heritage/43967/_194331/43967_194331140908092910265_300.jpg
101,00009539,上野ビル（旧三菱合資会社若松支店）倉庫棟,うえのびる（きゅうみつびしごうしがいしゃわかまつしてん）　そうことう,1棟,,登録有形文化財(建造物),産業3次,建築物,,大正,大正2年,1913,煉瓦造2階建、瓦葺、建築面積190㎡,,40 － 0082,74,2013.03.29(平成25.03.29),2013.03.29(平成25.03.29),,20130329,,造形の規範となっているもの,,福岡県,福岡県北九州市若松区本町1-14-1他,,上野海運株式会社,営利法人,,33.90243000000000,130.81370000000000,本館の西側に東面して建つ。煉瓦造二階建、建築面積一九〇平方メートル、切妻造瓦葺、L字形の平面とし、東面に突出した妻に三菱の社標を掲げる。基礎や窓まわりに石材を用いるなど簡素ながらも確かなつくりで、当時の煉瓦造倉庫の技術的水準を示す。,https://bunka.nii.ac.jp/heritage/43967/_194332/43967_194332140908092912728_300.jpg
101,00009540,上野ビル（旧三菱合資会社若松支店）旧分析室,うえのびる（きゅうみつびしごうしがいしゃわかまつしてん）　きゅうぶんせきしつ,1棟,,登録有形文化財(建造物),産業3次,建築物,,大正,大正2年,1913,木造平屋建、瓦葺、建築面積119㎡,,40 － 0083,74,2013.03.29(平成25.03.29),2013.03.29(平成25.03.29),,20130329,,造形の規範となっているもの,,福岡県,福岡県北九州市若松区本町1-14-1他,,上野海運株式会社,営利法人,,33.90272000000000,130.81380000000000,倉庫棟の北側に東面にして建つ。木造平屋建、建築面積一一九平方メートル、切妻造瓦葺である。煉瓦造の周囲の建物にあわせて大壁造とし、窓は縦長窓、腰壁はスクラッチタイル張とする。石炭の品質分析を行った、石炭会社の現地事務所を特徴づける建物である。,https://bunka.nii.ac.jp/heritage/43967/_194333/43967_194333140908092914910_300.jpg
101,00009541,上野ビル（旧三菱合資会社若松支店）門柱及び塀,うえのびる（きゅうみつびしごうしがいしゃわかまつしてん）　もんちゅうおよびへい,1基,,登録有形文化財(建造物),産業3次,その他工作,,大正,大正2年,1913,門柱　煉瓦造門柱6基　塀　煉瓦造、総延長115m,,40 － 0084,74,2013.03.29(平成25.03.29),2013.03.29(平成25.03.29),,20130329,,造形の規範となっているもの,,福岡県,福岡県北九州市若松区本町1-14-1他,,上野海運株式会社,営利法人,,33.90233000000000,130.81400000000000,敷地正面である南面の東寄りと、北面の東寄りと西寄りの三箇所に門を開き、南、東、北の三面に塀を廻らす。煉瓦造、塀は総長一一五メートル、正門の門柱は高さ二・三メートルを測る。建設当時の姿をよく残し、石炭会社の現地事務所の構えを伝える。,https://bunka.nii.ac.jp/heritage/43967/_194334/43967_194334140908092916960_300.jpg
101,00009542,多田家住宅主屋,ただけじゅうたくしゅおく,1棟,,登録有形文化財(建造物),住宅,建築物,,明治,明治23年,1890,木造平屋一部2階建、瓦葺、建築面積337㎡,,40 － 0085,74,2013.03.29(平成25.03.29),2013.03.29(平成25.03.29),,20130329,,国土の歴史的景観に寄与しているもの,,福岡県,福岡県朝倉郡筑前町森山字耳取417-1,,,,,33.45249000000000,130.62250000000000,敷地中央に南面し、木造平屋一部二階建、入母屋造桟瓦葺である。西側を高い吹抜けの土間とし、床上部は居室を二列並べ、東列南面に一〇畳座敷を張出して鍵座敷型に配置する。外観は南西面を漆喰で塗込め重厚な外観とする。風格ある構えの大規模民家。,https://bunka.nii.ac.jp/heritage/43967/_194335/43967_194335140916101104811_300.jpg
101,00009543,多田家住宅離れ及び渡廊下,ただけじゅうたくはなれおよびわたりろうか,1棟,,登録有形文化財(建造物),住宅,建築物,,明治,明治35年,1902,木造平屋建、瓦葺、建築面積100㎡,,40 － 0086,74,2013.03.29(平成25.03.29),2013.03.29(平成25.03.29),,20130329,,国土の歴史的景観に寄与しているもの,,福岡県,福岡県朝倉郡筑前町森山字耳取417-1,,,,,33.45242000000000,130.62270000000000,主屋南東隅から敷地南辺沿いに渡廊下をのばし、太鼓橋を介して離れに接続する。離れは木造平屋建、寄棟造桟瓦葺で、庭側は縁高欄を廻らし、南面は広縁から集落を見晴らす。主室の座敷飾りに銘木を用い、軒は垂木を扇に配るなど、瀟洒で開放的なつくりの離れ。,https://bunka.nii.ac.jp/heritage/43967/_194336/43967_194336140916101105909_300.jpg
101,00009544,多田家住宅隠居屋,ただけじゅうたくいんきょや,1棟,,登録有形文化財(建造物),住宅,建築物,,昭和前,昭和8年頃,1933頃,木造2階建、瓦葺、建築面積94㎡,,40 － 0087,74,2013.03.29(平成25.03.29),2013.03.29(平成25.03.29),,20130329,,国土の歴史的景観に寄与しているもの,,福岡県,福岡県朝倉郡筑前町森山字耳取417-1,,,,,33.45260000000000,130.62270000000000,主屋北東に雁行して建ち、木造二階建、建築面積九四平方メートル、入母屋造桟瓦葺である。下階は仏間を備えた座敷とし、仏壇脇に花頭窓を穿つ。上階は座敷と書斎からなり、数寄屋風を加味した意匠とする。上下階とも周囲に縁と庇を廻らし、ガラス窓を建てる。,https://bunka.nii.ac.jp/heritage/43967/_194337/43967_194337140916101106945_300.jpg
101,00009545,多田家住宅前ノ蔵,ただけじゅうたくまえのくら,1棟,,登録有形文化財(建造物),住宅,建築物,,明治,明治3年,1870,土蔵造平屋一部2階建、瓦葺、建築面積40㎡,,40 － 0088,74,2013.03.29(平成25.03.29),2013.03.29(平成25.03.29),,20130329,,国土の歴史的景観に寄与しているもの,,福岡県,福岡県朝倉郡筑前町森山字耳取417-1,,,,,33.45247000000000,130.62230000000000,主屋西面に東西棟で建つ。土蔵造平屋一部二階建、桁行七・九メートル梁間五・一メートル、切妻造桟瓦葺で東面に戸口を設ける。外壁は漆喰塗で腰を海鼠壁とし、木瓜形に縁取りした小窓に銅扉を吊り、漆喰塗の小庇を付ける。主屋とともに重厚な表構えをつくる。,https://bunka.nii.ac.jp/heritage/43967/_194338/43967_194338140916101107980_300.jpg
101,00009546,多田家住宅長蔵,ただけじゅうたくながくら,1棟,,登録有形文化財(建造物),住宅,建築物,,江戸,江戸末期／明治24年改修,1830～1868／1891改修,土蔵造平屋建、瓦葺、建築面積159㎡,,40 － 0089,74,2013.03.29(平成25.03.29),2013.03.29(平成25.03.29),,20130329,,国土の歴史的景観に寄与しているもの,,福岡県,福岡県朝倉郡筑前町森山字耳取417-1,,,,,33.45274000000000,130.62240000000000,主屋北辺西寄りに東西棟で建つ長大な蔵。土蔵造平屋建、桁行二三・二メートル梁間六・九メートル、切妻造桟瓦葺で、南面二箇所に戸口を設ける。外壁は漆喰塗で腰を海鼠壁とし、南面上部に小窓を穿つ。敷地内で最古の建物として、往時の屋敷構えを伝える。,https://bunka.nii.ac.jp/heritage/43967/_194339/43967_194339140916101109079_300.jpg
101,00009547,多田家住宅納屋,ただけじゅうたくなや,1棟,,登録有形文化財(建造物),住宅,建築物,,昭和前,昭和8年頃,1933頃,木造平屋建、瓦葺、建築面積19㎡,,40 － 0090,74,2013.03.29(平成25.03.29),2013.03.29(平成25.03.29),,20130329,,国土の歴史的景観に寄与しているもの,,福岡県,福岡県朝倉郡筑前町森山字耳取417-1,,,,,33.45253000000000,130.62220000000000,主屋北西に広がる裏庭に北面して建つ。木造平屋建、桁行一〇・一メートル梁間一・九メートル、片流招屋根付、桟瓦葺である。南面は、東西にのびる土塀と一連の意匠とし、北面は一部を板壁とする。内部を東西四室に間仕切り、東端を便所とする。,https://bunka.nii.ac.jp/heritage/43967/_194340/43967_194340140916101110129_300.jpg
101,00009548,多田家住宅倉庫,ただけじゅうたくそうこ,1棟,,登録有形文化財(建造物),住宅,建築物,,昭和前,昭和8年頃,1933頃,木造2階建、瓦葺、建築面積26㎡,,40 － 0091,74,2013.03.29(平成25.03.29),2013.03.29(平成25.03.29),,20130329,,国土の歴史的景観に寄与しているもの,,福岡県,福岡県朝倉郡筑前町森山字耳取417-1,,,,,33.45257000000000,130.62210000000000,納屋西側、材木蔵の南側に南北棟で建つ。木造二階建、桁行五・三メートル梁間五・〇メートル、切妻造桟瓦葺で、東面を下屋とする。昭和二〇年頃まで使用人住居として使用されたため、二階窓に格子を建てる。旧家の暮らしぶりを伝える倉庫である。,https://bunka.nii.ac.jp/heritage/43967/_194341/43967_194341140916101111237_300.jpg
101,00009549,多田家住宅材木蔵,ただけじゅうたくざいもくぐら,1棟,,登録有形文化財(建造物),住宅,建築物,,昭和前,昭和8年頃,1933頃,土蔵造一部木造平屋建、瓦葺、建築面積102㎡,,40 － 0092,74,2013.03.29(平成25.03.29),2013.03.29(平成25.03.29),,20130329,,国土の歴史的景観に寄与しているもの,,福岡県,福岡県朝倉郡筑前町森山字耳取417-1,,,,,33.45265000000000,130.62210000000000,敷地西辺北端に南北棟で建ち、南半を土蔵造平屋建の材木置場、北半を木造平屋建の薪置場とする。屋根は段違いの切妻造桟瓦葺とし、東面に下屋を設ける。外壁は材木置場を漆喰塗及び海鼠壁とし、薪置場は中塗仕上げとする。背面側の屋敷景観を整える大型の蔵。,https://bunka.nii.ac.jp/heritage/43967/_194342/43967_194342140916101112315_300.jpg
101,00009550,多田家住宅北ノ蔵,ただけじゅうたくきたのくら,1棟,,登録有形文化財(建造物),住宅,建築物,,昭和前,昭和8年頃,1933頃,土蔵造平屋建、瓦葺、建築面積22㎡,,40 － 0093,74,2013.03.29(平成25.03.29),2013.03.29(平成25.03.29),,20130329,,国土の歴史的景観に寄与しているもの,,福岡県,福岡県朝倉郡筑前町森山字耳取417-1,,,,,33.45276000000000,130.62260000000000,隠居屋後方に南北棟で建つ。土蔵造平屋建、桁行五・六メートル梁間四・〇メートル、切妻造桟瓦葺で西面に戸口を設ける。布石積基礎上に建ち、外壁は漆喰塗で隅部のみ腰に瓦を貼る。東面に高窓を穿ち、銅扉を開く。弓道場とともに、良質な屋敷景観をつくる。,https://bunka.nii.ac.jp/heritage/43967/_194343/43967_194343140916101113321_300.jpg
101,00009551,多田家住宅器蔵,ただけじゅうたくうつわぐら,1棟,,登録有形文化財(建造物),住宅,建築物,,昭和前,昭和8年頃,1933頃,土蔵造2階建、瓦葺、建築面積37㎡、渡廊下付,,40 － 0094,74,2013.03.29(平成25.03.29),2013.03.29(平成25.03.29),,20130329,,国土の歴史的景観に寄与しているもの,,福岡県,福岡県朝倉郡筑前町森山字耳取417-1,,,,,33.45263000000000,130.62280000000000,隠居屋東面に、太鼓橋状の渡廊下を介して東西棟で建つ。土蔵造二階建、桁行七・六メートル梁間四・八メートル、切妻造桟瓦葺である。外壁は漆喰塗で腰を海鼠壁とし、南面に上下二箇所ずつ窓を穿つ。什器類を収めた土蔵で、主庭の景観を引き立てている。,https://bunka.nii.ac.jp/heritage/43967/_194344/43967_194344140916101114409_300.jpg
101,00009552,多田家住宅弓道場,ただけじゅうたくきゅうどうじょう,1棟,,登録有形文化財(建造物),住宅,建築物,,昭和前,昭和8年頃,1933頃,木造平屋建、瓦葺、建築面積22㎡,,40 － 0095,74,2013.03.29(平成25.03.29),2013.03.29(平成25.03.29),,20130329,,国土の歴史的景観に寄与しているもの,,福岡県,福岡県朝倉郡筑前町森山字耳取417-1,,,,,33.45274000000000,130.62270000000000,北ノ蔵東隣に東面して建つ。木造平屋建、桁行五・〇メートル梁間四・三メートル、切妻造桟瓦葺で、三面に庇を廻らせ、南東面にガラス窓を建てる。内部は北半を板敷の射場とし、南側に四畳の控えを配し神棚を祀る。屋敷地内に残る軽快なつくりの弓道場である。,https://bunka.nii.ac.jp/heritage/43967/_194345/43967_194345140916101116035_300.jpg
101,00009553,多田家住宅的場,ただけじゅうたくまとば,1棟,,登録有形文化財(建造物),住宅,建築物,,昭和前,昭和8年頃,1933頃,木造平屋建、瓦葺、建築面積7.9㎡,,40 － 0096,74,2013.03.29(平成25.03.29),2013.03.29(平成25.03.29),,20130329,,国土の歴史的景観に寄与しているもの,,福岡県,福岡県朝倉郡筑前町森山字耳取417-1,,,,,33.45276000000000,130.62300000000000,弓道場と相対し、西面して建つ。木造平屋建、桁行四メートル梁間二メートル、切妻造桟瓦葺。正面内法高に虹梁を架けて吹放しとし、残る三面は土壁とし、腰に杉皮を張る。虹梁上と隅柱には舟肘木を載せて桁を受ける。弓道場とともに屋敷景観に趣を添える。,https://bunka.nii.ac.jp/heritage/43967/_194346/43967_194346140916101117060_300.jpg
101,00009554,多田家住宅物置,ただけじゅうたくものおき,1棟,,登録有形文化財(建造物),住宅,建築物,,昭和前,昭和8年頃,1933頃,木造平屋建、瓦葺、建築面積6.6㎡,,40 － 0097,74,2013.03.29(平成25.03.29),2013.03.29(平成25.03.29),,20130329,,国土の歴史的景観に寄与しているもの,,福岡県,福岡県朝倉郡筑前町森山字耳取417-1,,,,,33.45268000000000,130.62300000000000,的場の南側に、勝手門を挟んで建つ。木造平屋建、桁行三・四メートル梁間一・九メートル、切妻造桟瓦葺で、当地方で用いられた左桟瓦を葺く。平面は西正面を吹放しとし、他の三面を土壁とする。裏山で収集した薪や柴などを収めた、簡素なつくりの物置である。,https://bunka.nii.ac.jp/heritage/43967/_194347/43967_194347140916101118102_300.jpg
101,00009555,多田家住宅表門,ただけじゅうたくおもてもん,1棟,,登録有形文化財(建造物),住宅,その他工作,,明治,明治24年頃,1891頃,木造、瓦葺、間口2.9m、潜戸付,,40 － 0098,74,2013.03.29(平成25.03.29),2013.03.29(平成25.03.29),,20130329,,国土の歴史的景観に寄与しているもの,,福岡県,福岡県朝倉郡筑前町森山字耳取417-1,,,,,33.45243000000000,130.62230000000000,敷地南面に通りからやや後退して建つ。桁行二・九メートル梁間一・七メートルの薬医門形式で、切妻造桟瓦葺とし、西側に潜戸を開く。親柱は正面側半分を花崗岩の石柱、背面側を木柱として冠木を受ける独特なつくりの表門で、風格のある表構えを形成する。,https://bunka.nii.ac.jp/heritage/43967/_194348/43967_194348140916101119731_300.jpg
101,00009556,多田家住宅裏門,ただけじゅうたくうらもん,1棟,,登録有形文化財(建造物),住宅,その他工作,,明治,明治5年頃,1872頃,木造、瓦葺、間口2.1m,,40 － 0099,74,2013.03.29(平成25.03.29),2013.03.29(平成25.03.29),,20130329,,国土の歴史的景観に寄与しているもの,,福岡県,福岡県朝倉郡筑前町森山字耳取417-1,,,,,33.45259000000000,130.62300000000000,敷地東辺中央に建ち、潜戸付きの板戸を両開きに吊る。間口二・一メートルの薬医門形式で、切妻造桟瓦葺とする。屋敷地前面を通る日田街道が、明治初年までは当門の位置を通過していたとする由緒に因む門で、屋敷地の変遷を伝える記念的意味を持つ裏門。,https://bunka.nii.ac.jp/heritage/43967/_194349/43967_194349140916101120869_300.jpg
101,00009557,多田家住宅勝手門,ただけじゅうたくかってもん,1棟,,登録有形文化財(建造物),住宅,その他工作,,昭和前,昭和8年頃,1933頃,木造、瓦葺、間口2.0m,,40 － 0100,74,2013.03.29(平成25.03.29),2013.03.29(平成25.03.29),,20130329,,国土の歴史的景観に寄与しているもの,,福岡県,福岡県朝倉郡筑前町森山字耳取417-1,,,,,33.45272000000000,130.62300000000000,敷地東辺の北寄り、的場と物置の間に建つ。間口二・〇メートルの腕木門形式で、柱間に板戸を両開きに吊る。屋根は切妻造桟瓦葺とし、東面屋根には左桟瓦を葺く。南北面に付属する土塀も左桟瓦を葺いており、地方的特色のある屋敷景観を形成している。,https://bunka.nii.ac.jp/heritage/43967/_194350/43967_194350140916101121940_300.jpg
101,00009558,多田家住宅石塀,ただけじゅうたくいしべい,1基,,登録有形文化財(建造物),住宅,その他工作,,昭和前,昭和8年頃,1933頃,石造、総延長48m,,40 － 0101,74,2013.03.29(平成25.03.29),2013.03.29(平成25.03.29),,20130329,,国土の歴史的景観に寄与しているもの,,福岡県,福岡県朝倉郡筑前町森山字耳取417-1,,,,,33.45238000000000,130.62220000000000,敷地南辺の西寄り、表門から東西に折れ曲がりにのびる。自然石の石垣上に布石を伏せ、江戸切り仕上げの積石を積み上げる。積石は、表門両側では五段積み、通り沿いでは三段積とし、総延長四七・八メートルを測る。旧家らしい風格ある屋敷構えをみせる。,https://bunka.nii.ac.jp/heritage/43967/_194351/43967_194351140916101123025_300.jpg
101,00009559,多田家住宅土塀,ただけじゅうたくどべい,1棟,,登録有形文化財(建造物),住宅,その他工作,,昭和前,昭和8年頃／昭和中期改修,1933頃／1946～1965改修,木造、瓦葺、総延長106m,,40 － 0102,74,2013.03.29(平成25.03.29),2013.03.29(平成25.03.29),,20130329,,国土の歴史的景観に寄与しているもの,,福岡県,福岡県朝倉郡筑前町森山字耳取417-1,,,,,33.45277000000000,130.62280000000000,主屋南東側の一郭や、敷地北東側の附属屋の間に折曲がりにのびる土塀で、総延長一〇六メートルを測る。木造、切妻造桟瓦葺で、屋根に左桟瓦を葺く。布石基礎上に建ち、壁は漆喰塗で腰を杉皮張や簓子下見板張とする。落ち着いた風情のある屋敷景観を形成する。,https://bunka.nii.ac.jp/heritage/43967/_194352/43967_194352140916101124105_300.jpg
101,00009847,向野堅一記念館（旧讃井病院）,こうのけんいちきねんかん（きゅうさぬいびょういん）,1棟,,登録有形文化財(建造物),生活関連,建築物,,大正,大正11,1922,木造2階建、瓦葺、建築面積227㎡、塔屋付,,40 － 0103,76,2013.12.24(平成25.12.24),2013.12.24(平成25.12.24),,20131224,,国土の歴史的景観に寄与しているもの,,福岡県,福岡県直方市大字直方594-3他,,,,,33.74403000000000,130.72800000000000,角地に建つＬ字形平面の木造二階建で、隅部を塔屋とする。正面に玄関ポーチを構え、左右張出し部に大オーダーを表し、頂部に台形のパラペットを飾る。内部は一階がもと診療室や薬局などで、二階に和室を配する。ゼツェッション意匠を基調とする、もと医院。,https://bunka.nii.ac.jp/heritage/43967/_195676/43967_195676140222030023045_300.jpg
101,00009848,直方谷尾美術館洋館（旧奥野医院）,のおがたたにおびじゅつかんようかん（きゅうおくのいいん）,1棟,,登録有形文化財(建造物),生活関連,建築物,,昭和前,昭和16頃／平成期改修,1941頃／1989～改修,木造2階建、鉄板葺、建築面積265㎡,,40 － 0104,76,2013.12.24(平成25.12.24),2013.12.24(平成25.12.24),,20131224,,国土の歴史的景観に寄与しているもの,,福岡県,福岡県直方市殿町534-1他,,直方市,市区町村,,33.74331000000000,130.72820000000000,正面中央の玄関ポーチにコンポジット式円柱を立ててコーニスを受け、玄関ホールにはコリント式円柱を配する。周囲の外壁はタイル貼で柱形を表し、縦長窓を連続させ、また側面に半円形平面の応接間を張出すなど、古典様式とモダニズムを融合した外観をもつ。,https://bunka.nii.ac.jp/heritage/43967/_195677/43967_195677140905092520802_300.jpg
101,00009849,直方谷尾美術館和館（旧奥野家住宅主屋）,のおがたたにおびじゅつかんわかん（きゅうおくのけじゅうたくしゅおく）,1棟,,登録有形文化財(建造物),生活関連,建築物,,昭和前,昭和16頃／平成期改修,1941頃／1989～改修,木造及び土蔵造2階建、瓦葺、建築面積259㎡,,40 － 0105,76,2013.12.24(平成25.12.24),2013.12.24(平成25.12.24),,20131224,,国土の歴史的景観に寄与しているもの,,福岡県,福岡県直方市殿町534-1他,,直方市,市区町村,,33.74324000000000,130.72850000000000,洋館後方に建つ和風住宅で、洋館接続部に玄関を構える。北東寄りの二階建部分には、もとの客間などがあり、南西隅に二階建土蔵の収蔵庫を附属する。落着いた佇まいの住宅で、洋風意匠の医院部分と好対照をなし、大正期の直方における医院建築の様相を伝える。,https://bunka.nii.ac.jp/heritage/43967/_195678/43967_195678140905092522722_300.jpg
101,00009850,直方谷尾美術館茶室鉄牛庵,のおがたたにおびじゅつかんちゃしつてつぎゅうあん,1棟,,登録有形文化財(建造物),生活関連,建築物,,昭和前,昭和16頃,1941頃,木造平屋建、瓦葺、建築面積42㎡,,40 － 0106,76,2013.12.24(平成25.12.24),2013.12.24(平成25.12.24),,20131224,,国土の歴史的景観に寄与しているもの,,福岡県,福岡県直方市殿町534-1他,,直方市,市区町村,,33.74328000000000,130.72860000000000,細長い敷地の東奥部に建つ。和館と渡廊下を介して繋ぎ、南側に庭園を控える。切妻造桟瓦葺で内外観とも数寄屋意匠とし、外壁は中塗仕上げとする。平面は東端に四畳半茶室をおき、手前に水屋、六畳の待合を直列させる。茶の湯を嗜んだ施主の好みを伝える。,https://bunka.nii.ac.jp/heritage/43967/_195679/43967_195679140916101836729_300.jpg
101,00009851,前田園本店店舗,まえだえんほんてんてんぽ,1棟,,登録有形文化財(建造物),産業3次,建築物,,昭和前,昭和2頃,1927頃,木造2階建、瓦葺、建築面積112㎡,,40 － 0107,76,2013.12.24(平成25.12.24),2013.12.24(平成25.12.24),,20131224,,国土の歴史的景観に寄与しているもの,,福岡県,福岡県直方市殿町590-1,,,,,33.74381000000000,130.72790000000000,通りに東面し、木造二階建、切妻造桟瓦葺である。正面二階は出桁造で壁を黒漆喰で仕上げ、腰部と大振りの窓枠を銅板張とし、瓦葺の庇を付ける。一階内部はケヤキの良材を用いた普請でミセなどを配し、二階は座敷とする。近代直方の商家の様相を伝える店舗。,https://bunka.nii.ac.jp/heritage/43967/_195680/43967_195680140905092524650_300.jpg
101,00009852,前田園本店倉庫,まえだえんほんてんそうこ,1棟,,登録有形文化財(建造物),産業3次,建築物,,昭和前,昭和2頃,1927頃,煉瓦造及び木造2階建、瓦葺、建築面積111㎡,,40 － 0108,76,2013.12.24(平成25.12.24),2013.12.24(平成25.12.24),,20131224,,国土の歴史的景観に寄与しているもの,,福岡県,福岡県直方市殿町590-1,,,,,33.74376000000000,130.72770000000000,店舗の後方に座敷などを介して東西棟で建ち、煉瓦造及び木造二階建、切妻造桟瓦葺である。東妻が出入口で西妻に鉄板張の扉を開き、周囲に窓を穿つ。外壁は鉄板張で内部をモルタル仕上とし、小屋はキングポストトラスを組む。茶などの保管用に建てられた倉庫。,https://bunka.nii.ac.jp/heritage/43967/_195681/43967_195681140905092526574_300.jpg
101,00009853,石原商店店舗,いしはらしょうてんてんぽ,1棟,,登録有形文化財(建造物),産業3次,建築物,,大正,大正15,1926,木造2階建、瓦葺、建築面積70㎡,,40 － 0109,76,2013.12.24(平成25.12.24),2013.12.24(平成25.12.24),,20131224,,国土の歴史的景観に寄与しているもの,,福岡県,福岡県直方市殿町590-3,,,,,33.74394000000000,130.72790000000000,前田園本店の北隣に並び建ち、木造二階建、切妻造桟瓦葺。二階正面に穿つ横長の大窓下に中二階用の小窓を並べて庇を付け、一階の軒庇とともに、三層構成の立面とする。内部のミセ上部を一部吹抜とし二階は座敷とする。前田園とともに良質な街路景観をつくる。,https://bunka.nii.ac.jp/heritage/43967/_195682/43967_195682140905092527550_300.jpg
101,00009854,アートスペース谷尾（旧十七銀行直方支店）,あーとすぺーすたにお（きゅうじゅうしちぎんこうのおがたしてん）,1棟,,登録有形文化財(建造物),産業3次,建築物,,大正,大正2頃,1913頃,木造及び煉瓦造2階建、鉄板葺、建築面積375㎡,,40 － 0110,76,2013.12.24(平成25.12.24),2013.12.24(平成25.12.24),,20131224,,国土の歴史的景観に寄与しているもの,,福岡県,福岡県直方市古町929-1他,,直方市,市区町村,,33.74602000000000,130.72780000000000,角地に建つ木造二階建、鉄板葺で、南東隅を塔屋風に張出す。外壁は煉瓦風タイル小口貼で、基礎やバンド、窓台などに花崗岩を用いてアクセントとし、玄関廻りや柱形などの細部はゼツェッションでまとめる。地域のランドマークとして親しまれる、もと銀行建築。,https://bunka.nii.ac.jp/heritage/43967/_195683/43967_195683140718091813426_300.jpg
101,00010236,門司ゴルフ倶楽部クラブハウス南棟,もじごるふくらぶくらぶはうすみなみとう,1棟,,登録有形文化財(建造物),産業3次,建築物,,昭和中,昭和35,1960,鉄筋コンクリート造2階建、鉄板葺、建築面積1257㎡,,40 － 0111,78,2014.10.07(平成26.10.07),2014.10.07(平成26.10.07),,20141007,,造形の規範となっているもの,,福岡県,福岡県北九州市門司区大字吉志字稗畑175-10,,社団法人門司ゴルフ倶楽部,非営利法人,,33.86740000000000,130.96420000000000,桁行五五メートル梁間二二メートルを測る鉄筋コンクリート造二階建のクラブハウス。開放的で水平線を強調した立面とし、内部は打放しコンクリートの躯体で大空間を確保し、丸太の小屋を組む。いわゆるレーモンドスタイルが遺憾なく発揮されたモダニズム建築。,https://bunka.nii.ac.jp/heritage/43967/_198069/43967_198069150317212811149_300.jpg
101,00010237,門司ゴルフ倶楽部クラブハウス北棟,もじごるふくらぶくらぶはうすきたとう,1棟,,登録有形文化財(建造物),産業3次,建築物,,昭和中,昭和35,1960,鉄筋コンクリート造平屋建一部地下1階建、鉄板葺、建築面積434㎡,,40 － 0112,78,2014.10.07(平成26.10.07),2014.10.07(平成26.10.07),,20141007,,造形の規範となっているもの,,福岡県,福岡県北九州市門司区大字吉志字稗畑175-10,,社団法人門司ゴルフ倶楽部,非営利法人,,33.86740000000000,130.96420000000000,南棟と接続して建ち、東西四〇メートル南北九・一メートルを測る平屋建。キャディー室などのサービス機能を集約して設備充実を図りつつ、プレイヤー用の浴室なども配置するが、プレイヤーとキャディーの動線が交錯しないよう合理的に計画された平面をもつ。,https://bunka.nii.ac.jp/heritage/43967/_198070/43967_198070150317212812556_300.jpg
101,00010238,門司ゴルフ倶楽部スタートハウス,もじごるふくらぶすたーとはうす,1棟,,登録有形文化財(建造物),産業3次,建築物,,昭和中,昭和35,1960,木造平屋建、鉄板葺、建築面積33㎡,,40 － 0113,78,2014.10.07(平成26.10.07),2014.10.07(平成26.10.07),,20141007,,造形の規範となっているもの,,福岡県,福岡県北九州市門司区大字吉志字稗畑175-10,,社団法人門司ゴルフ倶楽部,非営利法人,,33.86740000000000,130.96420000000000,木造平屋建で、桁行九・四メートル、梁間三・八メートルを測る。屋根や外壁はクラブハウスと同系色のオレンジ色に近い赤色塗装を施し、丸太の桁を現す。平面は三室とし、左右を待合、中央を管理室とする。腰高の水平連続窓を設け、開放感のある構成になる。,https://bunka.nii.ac.jp/heritage/43967/_198071/43967_198071150317212814034_300.jpg
101,00010375,九州鉄道記念館（旧九州鉄道本社）,きゅうしゅうてつどうきねんかん（きゅうきゅうしゅうてつどうほんしゃ）,1棟,,登録有形文化財(建造物),交通,建築物,,明治,明治24年／平成15年改修,1891年／2003年改修,煉瓦造2階建、金属板葺、建築面積805㎡,,40-0114,79,2014.12.19(平成26.12.19),2014.12.19(平成26.12.19),,20141219,,再現することが容易でないもの,,福岡県,福岡県北九州市門司区清滝2-909-3他,,九州旅客鉄道株式会社,営利法人,,33.94314000000000,130.96170000000000,東西長さ六三メートルに及ぶ煉瓦造建築で、南北面中央に切妻造の玄関部を張出す。外壁はフランス積で欠円アーチ窓を連続させ、妻面にペディメントを飾り、中段に廻るコーニスでは焼過煉瓦を矢筈に積み、意匠を凝らす。九州鉄道の黎明期を伝える大規模建築。,https://bunka.nii.ac.jp/heritage/43967/_199147/43967_199147150807110650775_300.jpg
101,00010523,松村家住宅主屋,まつむらけじゅうたくしゅおく,1棟,,登録有形文化財(建造物),住宅,建築物,,昭和前,昭和11,1936,木造2階建、瓦葺、建築面積163㎡,,40 － 0115,80,2015.03.26(平成27.03.26),2015.03.26(平成27.03.26),,20150326,,国土の歴史的景観に寄与しているもの,,福岡県,福岡県福岡市中央区大名2-127,,有限会社ショーソン,営利法人,,33.58835000000000,130.39460000000000,もと福岡城の中堀であった敷地に所在する。設計は住宅改良会で、接客と居住を明瞭に区分し、水回りは渡廊下を介した別棟とする。床上の居室を広めて採光を考慮し、特に二階には広い縁を設ける。外観も出窓を多く設けて庇を重ね、軽やかで豊かな表情を見せる。,https://bunka.nii.ac.jp/heritage/43967/_199463/43967_199463151005165750944_300.jpg
101,00010524,松村家住宅洋館,まつむらけじゅうたくようかん,1棟,,登録有形文化財(建造物),住宅,建築物,,昭和前,昭和11,1936,木造平屋建、瓦葺、建築面積17㎡,,40 － 0116,80,2015.03.26(平成27.03.26),2015.03.26(平成27.03.26),,20150326,,国土の歴史的景観に寄与しているもの,,福岡県,福岡県福岡市中央区大名2-127,,有限会社ショーソン,営利法人,,33.58827000000000,130.39470000000000,通りに接して主屋の南に建つ応接用の洋館。寄棟造桟瓦葺で、各面に開口をとり、もとは西にパーゴラを附属していた。外壁はモルタル塗の粗面仕上げで、道路側は塀を連続させて街路景観を整える。接客空間を独立した洋間とする、和洋併設住宅の好例である。,https://bunka.nii.ac.jp/heritage/43967/_199464/43967_199464151005165752936_300.jpg
101,00010525,松村家住宅土蔵,まつむらけじゅうたくどぞう,1棟,,登録有形文化財(建造物),住宅,建築物,,昭和前,昭和11,1936,土蔵造平屋建、瓦葺、建築面積12㎡,,40 － 0117,80,2015.03.26(平成27.03.26),2015.03.26(平成27.03.26),,20150326,,国土の歴史的景観に寄与しているもの,,福岡県,福岡県福岡市中央区大名2-127,,有限会社ショーソン,営利法人,,33.58840000000000,130.39460000000000,敷地の北西隅に位置し、南北棟で建つ二階建土蔵で、主屋の勝手口から坪庭を介した東面に出入口を設けて庇を付ける。小屋は登梁形式として内法を確保し、二階の収納の便を図る。床下換気口のグリル金物には星形の幾何学的装飾を飾り、近代的な趣を見せる。,https://bunka.nii.ac.jp/heritage/43967/_199465/43967_199465151005165754830_300.jpg
101,00010526,松村家住宅門及び塀,まつむらけじゅうたくもんおよびへい,1棟,,登録有形文化財(建造物),住宅,その他工作物,,昭和前,昭和11,1936,門 木造、瓦葺、間口2.0m、東方潜戸付　塀、コンクリートブロック造、瓦葺、総延長8.8m,,40 － 0118,80,2015.03.26(平成27.03.26),2015.03.26(平成27.03.26),,20150326,,国土の歴史的景観に寄与しているもの,,福岡県,福岡県福岡市中央区大名2-127,,,,,,,敷地の南辺を画する門と塀。門は棟門で西方に引違の格子戸と両開の板戸を持ち、東側に潜りの板戸を開く。門の左右に折曲がりで続く塀は煉瓦大のブロック積で、表面を洋館と同様にモルタル塗の粗面仕上げとする。通りの景観に寄与する、瀟洒な意匠の門塀である。,https://bunka.nii.ac.jp/heritage/43967/_199466/43967_199466151005165756680_300.jpg
101,00010527,ジョーキュウ醤油表座敷,じょーきゅうしょうゆおもてざしき,1棟,,登録有形文化財(建造物),産業2次,建築物,,明治,明治前期,1868～1882,木造2階建、瓦葺、建築面積44㎡,,40 － 0119,80,2015.03.26(平成27.03.26),2015.03.26(平成27.03.26),,20150326,,国土の歴史的景観に寄与しているもの,,福岡県,福岡県福岡市中央区大名1-330-1,,株式会社ジョーキュウ,営利法人,,33.58780000000000,130.39500000000000,敷地南西隅に位置する木造二階建、切妻造桟瓦葺の接客用座敷で、南北に下屋を設けて縁とする。上下階とも二室の座敷からなり、一階の南室を八畳主室として座敷飾を備え、二階北室は窓辺に高欄を設ける。醸造所の一隅を占める、良質な接客施設である。,https://bunka.nii.ac.jp/heritage/43967/_199467/43967_199467151005165757625_300.jpg
101,00010528,ジョーキュウ醤油裏座敷,じょーきゅうしょうゆうらざしき,1棟,,登録有形文化財(建造物),産業2次,建築物,,昭和前,昭和前期,1926～1945,木造2階建、瓦葺、建築面積38㎡,,40 － 0120,80,2015.03.26(平成27.03.26),2015.03.26(平成27.03.26),,20150326,,国土の歴史的景観に寄与しているもの,,福岡県,福岡県福岡市中央区大名1-330-1,,株式会社ジョーキュウ,営利法人,,33.58789000000000,130.39490000000000,敷地西辺、表座敷の北側に建つ。木造二階建で一階の三方に下屋の廊下を廻らし、上下階とも座敷二室を配する。一階の座敷飾は平書院の手前に略三角形の棚板を付けて付書院風に見せ、また床脇の地袋、天袋を台形平面とするなど昭和期らしい凝った意匠となる。,https://bunka.nii.ac.jp/heritage/43967/_199468/43967_199468151005165800080_300.jpg
101,00010529,ジョーキュウ醤油納戸蔵,じょーきゅうしょうゆなんどくら,1棟,,登録有形文化財(建造物),産業2次,建築物,,明治,明治中期,1883～1897,土蔵造2階建、瓦葺、建築面積23㎡,,40 － 0121,80,2015.03.26(平成27.03.26),2015.03.26(平成27.03.26),,20150326,,国土の歴史的景観に寄与しているもの,,福岡県,福岡県福岡市中央区大名1-330-1,,株式会社ジョーキュウ,営利法人,,33.58795000000000,130.39490000000000,敷地西辺で、裏座敷の北側に建ち、縁で接続する。土蔵造二階建、切妻造桟瓦葺で、登梁と和小屋を組合わせた小屋組を持つ。かつては米蔵と呼ばれ、裏座敷建築後に納戸として使用されるようになったと考えられる。醸造所の家政部分をしのばせる遺構である。,https://bunka.nii.ac.jp/heritage/43967/_199469/43967_199469151005165801906_300.jpg
101,00010530,ジョーキュウ醤油米蔵,じょーきゅうしょうゆこめぐら,1棟,,登録有形文化財(建造物),産業2次,建築物,,明治,明治4,1871,土蔵造2階建、瓦葺、建築面積19㎡,,40 － 0122,80,2015.03.26(平成27.03.26),2015.03.26(平成27.03.26),,20150326,,国土の歴史的景観に寄与しているもの,,福岡県,福岡県福岡市中央区大名1-330-3,,株式会社ジョーキュウ,営利法人,,33.58797000000000,130.39500000000000,納戸蔵の東、敷地の中央に建つ二階建土蔵。南北棟で、南の中庭に向けて銅板葺の庇を付けた出入口を設ける。内部の壁は板張、小屋組は登梁形式として、二階の南北に窓をあける。現在は醤油醸造に使用する道具類を納めており、醸造所の敷地景観に寄与している。,https://bunka.nii.ac.jp/heritage/43967/_199470/43967_199470151005165803821_300.jpg
101,00010531,ジョーキュウ醤油仕込蔵,じょーきゅうしょうゆしこみぐら,1棟,,登録有形文化財(建造物),産業2次,建築物,,江戸,文久2(1862),1862,土蔵造平屋建、瓦葺、建築面積123㎡,,40 － 0123,80,2015.03.26(平成27.03.26),2015.03.26(平成27.03.26),,20150326,,国土の歴史的景観に寄与しているもの,,福岡県,福岡県福岡市中央区大名1-330-3,,株式会社ジョーキュウ,営利法人,,33.58798000000000,130.39500000000000,敷地の中央、米蔵の東側に南北棟で建つ大型の土蔵で、切妻造桟瓦葺である。建ちの高い平屋建で、南半部には仕込み桶の上から作業ができるよう仮設的な床を張る。和小屋の小屋組の下に天井を張る。仕込蔵の特徴をよく備えた、醤油醸造所を象徴する建物である。,https://bunka.nii.ac.jp/heritage/43967/_199471/43967_199471151005165805655_300.jpg
101,00010532,ジョーキュウ醤油若宮神社,じょーきゅうしょうゆわかみやじんじゃ,1棟,,登録有形文化財(建造物),生活関連,建築物,,江戸,寛政4(1792),1792,木造平屋建、銅板葺、建築面積0.3㎡,,40 － 0124,80,2015.03.26(平成27.03.26),2015.03.26(平成27.03.26),,20150326,,国土の歴史的景観に寄与しているもの,,福岡県,福岡県福岡市中央区大名1-349-1,,株式会社ジョーキュウ,営利法人,,33.58811000000000,130.39520000000000,敷地東辺中央の切石積檀上に建つ、一間社見世棚造、銅板葺で、見世棚社殿には珍しい切妻造妻入とする。身舎は板壁とし、庇柱を木鼻付頭貫で固め、柱上に大斗と実肘木を載せて虹梁と桁を受け、虹梁上に蟇股を置く。簡素な小社ながら細部に時代的特徴をよく示す。,https://bunka.nii.ac.jp/heritage/43967/_199472/43967_199472151005165807467_300.jpg
101,00010533,ジョーキュウ醤油煙突,じょーきゅうしょうゆえんとつ,1基,,登録有形文化財(建造物),産業2次,その他工作物,,大正,大正4／平成17改修,1915／2005改修,煉瓦造、高さ9.5m、面積2.5㎡,,40 － 0125,80,2015.03.26(平成27.03.26),2015.03.26(平成27.03.26),,20150326,,造形の規範となっているもの,,福岡県,福岡県福岡市中央区大名1-330-4,,株式会社ジョーキュウ,営利法人,,33.58787000000000,130.39520000000000,敷地南東の火入れ場に残る煉瓦造煙突。底部は一辺六七センチメートルの八角形平面で基礎を二段に迫り出し、高さ九・五メートルである。躯体はイギリス積で、久留米の荒木窯業の施工と伝わる。震災で高さを減じているが醸造所を象徴する施設として価値がある。,https://bunka.nii.ac.jp/heritage/43967/_199473/43967_199473151005165809880_300.jpg
101,00010697,松岡家住宅主屋,まつおかけじゅうたくしゅおく,1棟,,登録有形文化財(建造物),産業2次,建築物,,大正,大正12年／昭和50年改修,1923／1975改修,木造平屋一部2階建、瓦葺、建築面積380㎡,,40－0126,81,2015.08.04(平成27.08.04),2015.08.04(平成27.08.04),,20150804,,国土の歴史的景観に寄与しているもの,,福岡県,福岡県小郡市干潟字中屋敷645-2,,,,,33.42323000000000,130.58330000000000,南面する主体部は建ちの高い入母屋造妻入で正面に入母屋玄関を構える。西端の土間の高い吹抜けでは幾重にも組上げた力感ある梁組を現すなど重厚な軸組になる。また東側に張出す十五畳の広間は銘木を用いて上質な造作としており、当地の大型民家の特徴を示す。,https://bunka.nii.ac.jp/heritage/43967/_201271/43967_201271151228153659086_300.jpg
101,00010698,松岡家住宅倉庫,まつおかけじゅうたくそうこ,1棟,,登録有形文化財(建造物),産業2次,建築物,,大正,大正12年頃,1923頃,木造平屋建、瓦葺、建築面積59㎡,,40－0127,81,2015.08.04(平成27.08.04),2015.08.04(平成27.08.04),,20150804,,国土の歴史的景観に寄与しているもの,,福岡県,福岡県小郡市干潟字中屋敷645-2,,,,,33.42338000000000,130.58330000000000,主屋後方に張出す配膳室に接続して東西棟で建つ。桁行一四メートル梁間四メートル、切妻造桟瓦葺で、東寄りに換気用の越屋根を設ける。外壁は真壁漆喰塗で腰に竪板を張り、内部東寄りで二室に仕切る。従業員の食堂などに使われた建物で酒造場の様相を伝える。,https://bunka.nii.ac.jp/heritage/43967/_201272/43967_201272151228153659895_300.jpg
101,00010699,松岡家住宅玄関門,まつおかけじゅうたくげんかんもん,1棟,,登録有形文化財(建造物),産業2次,その他工作物,,江戸,嘉永3年（1850）／大正12年頃移築,1850／1923頃移築,木造、瓦葺、間口2.2m,,40－0128,81,2015.08.04(平成27.08.04),2015.08.04(平成27.08.04),,20150804,,国土の歴史的景観に寄与しているもの,,福岡県,福岡県小郡市干潟字中屋敷645-2,,,,,33.42317000000000,130.58320000000000,主屋の入母屋玄関の前方に、西向きに構える門。間口二・二メートル、一間薬医門、切妻造桟瓦葺である。軸部はクスノキを主材とし、冠木上に矩形の梁を三筋渡して疎垂木の軒を受ける。左右にのびる煉瓦塀とともに、風格のある庭空間を創出する表門である。,https://bunka.nii.ac.jp/heritage/43967/_201273/43967_201273151228153700676_300.jpg
101,00010700,松岡家住宅門柱,まつおかけじゅうたくもんちゅう,1基,,登録有形文化財(建造物),産業2次,その他工作物,,昭和前,昭和2年頃,1927頃,石造門柱2基、間口4.5m,,40－0129,81,2015.08.04(平成27.08.04),2015.08.04(平成27.08.04),,20150804,,国土の歴史的景観に寄与しているもの,,福岡県,福岡県小郡市干潟字中屋敷645-2他,,,,,33.42314000000000,130.58310000000000,主屋南東隅西側の通路入口に位置し、花崗岩製の門柱一対を間口四・五メートルに立てる。石柱は一辺四五センチメートル、高さ三・五メートルの江戸切仕上げとし、柱天に帯状の飾りを付ける。酒造場への入口をなしていた門柱で、往時の敷地景観を伝える。,https://bunka.nii.ac.jp/heritage/43967/_201274/43967_201274151228153701539_300.jpg
101,00010701,松岡家住宅塀,まつおかけじゅうたくへい,1基,,登録有形文化財(建造物),産業2次,その他工作物,,昭和前,昭和2年頃,1927頃,煉瓦造、総延長89m,,40－0130,81,2015.08.04(平成27.08.04),2015.08.04(平成27.08.04),,20150804,,国土の歴史的景観に寄与しているもの,,福岡県,福岡県小郡市干潟字中屋敷645-2他,,,,,33.42311000000000,130.58310000000000,主屋の前庭を囲み、敷地南面に折曲がりにのびる煉瓦塀で総延長八九メートルを測る。江戸切仕上げの花崗岩積基礎の上に鉱滓煉瓦をイギリス積とし、頂部に軒蛇腹三段積と屋根二段積を施す。特に敷地南西隅は円弧状平面として技巧的に仕上げ集落景観に寄与する。,https://bunka.nii.ac.jp/heritage/43967/_201275/43967_201275151228153702375_300.jpg
101,00010702,旧出光家住宅主屋,きゅういでみつけじゅうたくしゅおく,1棟,,登録有形文化財(建造物),産業2次,建築物,,明治,明治26年／昭和中期改修,1893／1946～1965改修,木造2階建、瓦葺、建築面積202㎡,,40－0131,81,2015.08.04(平成27.08.04),2015.08.04(平成27.08.04),,20150804,,国土の歴史的景観に寄与しているもの,,福岡県,福岡県宗像市赤間4-888,,出光興産株式会社,営利法人,,33.80582000000000,130.59030000000000,旧唐津街道に面する町家で、左手の土間部は屋根を落棟とする。中央の通り土間の右手にミセ、中の間などを並べ、中の間は吹抜けとして上部に高欄を飾る。旧の土間は広く、藍甕が据えられていた。正面柱筋に摺上戸を残すなど、赤間宿の町家の形態をよく留める。,https://bunka.nii.ac.jp/heritage/43967/_201276/43967_201276151228153703258_300.jpg
101,00010703,勝屋酒造店舗兼主屋,かつやしゅぞうてんぽけんしゅおく,1棟,,登録有形文化財(建造物),産業2次,建築物,,明治,明治中期,1883～1897,木造平屋一部2階建、瓦葺、建築面積190㎡,,40－0132,81,2015.08.04(平成27.08.04),2015.08.04(平成27.08.04),,20150804,,国土の歴史的景観に寄与しているもの,,福岡県,福岡県宗像市赤間4-957,,勝屋酒造合名会社,営利法人,,33.80476000000000,130.58930000000000,旧唐津街道に面し、前面に下屋を通す。外壁は漆喰塗込めで両隅に隅石を表す。上下階の前面に格子をたて、下屋の軒を繰形付の腕木で持ち出す。右手に通り土間を配して左手を二列の居室とし、もとミセの事務室や座敷を配する。宿場の面影を伝える造酒屋である。,https://bunka.nii.ac.jp/heritage/43967/_201277/43967_201277151228153704852_300.jpg
101,00010704,勝屋酒造煙突,かつやしゅぞうえんとつ,1基,,登録有形文化財(建造物),産業2次,その他工作物,,明治,明治中期,1883～1897,煉瓦造、高さ13m,,40－0133,81,2015.08.04(平成27.08.04),2015.08.04(平成27.08.04),,20150804,,国土の歴史的景観に寄与しているもの,,福岡県,福岡県宗像市赤間4-957,,勝屋酒造合名会社,営利法人,,33.80478000000000,130.58920000000000,店舗兼主屋の後方西寄りに位置する煉瓦造の煙突である。基底部は一辺一・〇メートルの正六角形平面で、高さ一三メートルを測る。躯体はイギリス積を基本として頂部とその下方に蛇腹を廻らし、隅部に山形鋼を添えて補強する。酒造場らしいランドマークとなる。,https://bunka.nii.ac.jp/heritage/43967/_201278/43967_201278151228153707200_300.jpg
101,00010705,寒北斗酒造店舗兼主屋,かんほくとしゅぞうてんぽけんしゅおく,1棟,,登録有形文化財(建造物),産業2次,建築物,,江戸,江戸末期,1830～1868,木造2階建、瓦葺、建築面積404㎡,,40－0134,81,2015.08.04(平成27.08.04),2015.08.04(平成27.08.04),,20150804,,国土の歴史的景観に寄与しているもの,,福岡県,福岡県嘉麻市大隈町字入地1036-1他,,寒北斗酒造株式会社,営利法人,,33.54766000000000,130.74380000000000,秋月街道沿いの造酒屋。入母屋造妻入の外部を鼠漆喰で塗込め、重厚な外観を見せる。左手を広い土間、右手に事務所や中の間等を並べ、さらに右側面の前後に角座敷を張出して中庭を囲み、発展的平面を示す。上質な客間をもつ幕末の酒造所施設として価値がある。,https://bunka.nii.ac.jp/heritage/43967/_201279/43967_201279151228153708813_300.jpg
101,00010706,寒北斗酒造安政の蔵,かんほくとしゅぞうあんせいのくら,1棟,,登録有形文化財(建造物),産業2次,建築物,,江戸,安政4年（1857）／明治前期改修,1857／1868～1912改修,土蔵造2階建、瓦葺、建築面積199㎡,,40－0135,81,2015.08.04(平成27.08.04),2015.08.04(平成27.08.04),,20150804,,国土の歴史的景観に寄与しているもの,,福岡県,福岡県嘉麻市大隈町字入地1036-1他,,寒北斗酒造株式会社,営利法人,,33.54748000000000,130.74390000000000,主屋後方に建つ、桁行二二メートル梁間七メートルの長大な土蔵造二階建で、切妻造桟瓦葺である。平側に出入口を開けて下屋を設ける。一階は無柱の大空間を確保し、小屋組は、管柱上の小梁で受ける丑梁に登り梁を架けて組む。建築年代の明らかな幕末の酒蔵。,https://bunka.nii.ac.jp/heritage/43967/_201280/43967_201280151228153709607_300.jpg
101,00010707,寒北斗酒造仕込蔵,かんほくとしゅぞうしこみぐら,1棟,,登録有形文化財(建造物),産業2次,建築物,,昭和前,昭和9年,1934,土蔵造平屋建、瓦葺、建築面積272㎡,,40－0136,81,2015.08.04(平成27.08.04),2015.08.04(平成27.08.04),,20150804,,国土の歴史的景観に寄与しているもの,,福岡県,福岡県嘉麻市大隈町字入地1036-1他,,寒北斗酒造株式会社,営利法人,,33.54752000000000,130.74420000000000,敷地南東隅に建つ仕込蔵。桁行二〇メートル梁間一四メートルと大規模で、切妻造桟瓦葺である。外壁は漆喰塗で腰に竪板を張り、窓を千鳥に配して表情を創る。キングポストトラスを採用して無柱の大空間を実現し、近代的発展を示す酒蔵で、街路景観にも寄与する。,https://bunka.nii.ac.jp/heritage/43967/_201281/43967_201281151228153710119_300.jpg
101,00010899,伊佐家住宅主屋,いさけじゅうたくしゅおく,1棟,,登録有形文化財(建造物),住宅,建築物,,江戸,江戸末期／明治23増築,1830～1868／1890増築,木造2階建、瓦葺、建築面積150㎡,,40 ‐ 0137,82,2015.11.17(平成27.11.17),2015.11.17(平成27.11.17),,20151117,,国土の歴史的景観に寄与しているもの,,福岡県,福岡県福岡市早良区高取一丁目92,,,,,33.58150000000000,130.35270000000000,市街地の旧道に面する町家。正面外壁を塗込めて各部屋列に格子をたてる。内部は三列構成の右列を土間とし、左列の座敷は増築で屋根を落棟とする。中の間は吹抜けに漆塗の高欄を飾り、座敷では銘木を多用した座敷飾を備える。商家の発展過程を示す上質な町家。,https://bunka.nii.ac.jp/heritage/43967/_201734/43967_201734160322112346746_300.jpg
101,00010900,伊佐家住宅土蔵,いさけじゅうたくどぞう,1棟,,登録有形文化財(建造物),住宅,建築物,,明治,明治36,1903,土蔵造平屋建、瓦葺、建築面積36㎡,,40 ‐ 0138,82,2015.11.17(平成27.11.17),2015.11.17(平成27.11.17),,20151117,,国土の歴史的景観に寄与しているもの,,福岡県,福岡県福岡市早良区高取一丁目92,,,,,33.58165000000000,130.35260000000000,主屋北側に、中庭を介して南北棟で建つ。桁行七・五メートル梁間四・七メートル、土蔵造、切妻造桟瓦葺。東面が戸口で板戸片引きとし、庇を付ける。外壁漆喰塗で鉢巻を廻らし、上部の南面と東面に漆喰塗で縁取りした縦長窓を穿つ。屋敷構えを引立てる土蔵。,https://bunka.nii.ac.jp/heritage/43967/_201735/43967_201735160322112347595_300.jpg
101,00011586,旧吉原家住宅通用門及び煉瓦塀,きゅうよしはらけじゅうたくつうようもんおよびれんがべい,1棟,,登録有形文化財(建造物),住宅,その他工作物,,江戸,江戸末期／大正末期増築,1830～1868/1919～1926増築,通用門　木造、瓦葺、間口4.6m　煉瓦塀　煉瓦造、瓦葺、総延長31m,,40-0139,86,2017.05.02(平成29.05.02),2017.05.02(平成29.05.02),,20170502,,国土の歴史的景観に寄与しているもの,,福岡県,福岡県大川市大字小保字中ノ船津136-17他,,大川市,市区町村,,33.20670000000000,130.36990000000000,重要文化財旧吉原家住宅の敷地南面東隅の通用門とその東西に連続する煉瓦塀。西煉瓦塀は途中に附指定の御成門を挟む。通用門は切妻造桟瓦葺の棟門で片引戸二枚を建て込む珍しい形式である。煉瓦塀は灰褐色の鉱滓煉瓦積で桟瓦葺の屋根を載せ正面景観を整える。,https://bunka.nii.ac.jp/heritage/43967/_210515/43967_210515385780113178419_300.jpg
101,00011587,椛島家住宅主屋,かばしまけじゅうたくしゅおく,1棟,,登録有形文化財(建造物),住宅,建築物,,明治,明治30年頃／平成20年頃改修,1897頃/2008頃改修,木造平屋一部2階建、瓦葺、建築面積264㎡,,40-0140,86,2017.05.02(平成29.05.02),2017.05.02(平成29.05.02),,20170502,,国土の歴史的景観に寄与しているもの,,福岡県,福岡県糸島市二丈田中字大塚101,,,,,33.53641000000000,130.17000000000000,敷地中央に南面する二階建。正面に出格子や大小の八角形の格子窓を配して独特な外観をもち、東寄りを土間とする。床上部は食違いの五室の西側に角屋を二列張出し、前列を奥座敷、後列を仏間などとし、造作も質が高い。当地方の近代大型住宅の特徴をよく示す。,https://bunka.nii.ac.jp/heritage/43967/_210394/43967_210394881360382609551_300.jpg
101,00011588,椛島家住宅庫院,かばしまけじゅうたくこいん,1棟,,登録有形文化財(建造物),住宅,建築物,,明治,明治後期／平成27年改修,1898～1912/2015改修,木造平屋建、瓦葺、建築面積68㎡,,40-0141,86,2017.05.02(平成29.05.02),2017.05.02(平成29.05.02),,20170502,,国土の歴史的景観に寄与しているもの,,福岡県,福岡県糸島市二丈田中字大塚101,,,,,33.53621000000000,130.17000000000000,敷地南西隅に南北棟で建つ。木造平屋建、入母屋造桟瓦葺で、西、北面に下屋を廻らし、西面は吹放ちとする。外壁漆喰塗で腰を竪板張とし、西面南寄りに出入口を開く。広い庇が特徴的な外観など、旧家の納屋としての構造や意匠をよく保ち、敷地景観に寄与する。,https://bunka.nii.ac.jp/heritage/43967/_210395/43967_210395559142358343000_300.jpg
101,00011589,椛島家住宅蔵,かばしまけじゅうたくくら,1棟,,登録有形文化財(建造物),住宅,建築物,,大正,大正8年,1919,土蔵造2階建、瓦葺、建築面積23㎡、渡り廊下付,,40-0142,86,2017.05.02(平成29.05.02),2017.05.02(平成29.05.02),,20170502,,国土の歴史的景観に寄与しているもの,,福岡県,福岡県糸島市二丈田中字大塚101,,,,,33.53654000000000,130.16980000000000,主屋北西の仏間から渡り廊下を介して南北棟で建つ、土蔵造二階建、切妻造桟瓦葺である。花崗岩積の基礎上に建ち、外壁は腰を人造石洗出し仕上とし、隅部ではドイツ壁技法によりルスティカ風の隅石を表し、漆喰の鉢巻を廻らす。もと納戸蔵と伝える良質な土蔵。,https://bunka.nii.ac.jp/heritage/43967/_210396/43967_210396079546597216335_300.jpg
101,00011590,椛島家住宅社,かばしまけじゅうたくやしろ,1棟,,登録有形文化財(建造物),住宅,建築物,,明治,明治後期,1898～1912,木造平屋建、瓦葺、建築面積5.5㎡,,40-0143,86,2017.05.02(平成29.05.02),2017.05.02(平成29.05.02),,20170502,,国土の歴史的景観に寄与しているもの,,福岡県,福岡県糸島市二丈田中字大塚101,,,,,33.53649000000000,130.17000000000000,主屋北東方に南北棟で建つ。切妻造桟瓦葺、妻入で、内部を前後に二分し、奥を内陣、前寄りを外陣とする。外陣は正面を格子引違、側面を窓として開放的に作り、内陣は竪板壁。両妻面は、柱上の三斗で妻虹梁を受けて蟇股を載せる。敷地景観を形成する社である。,https://bunka.nii.ac.jp/heritage/43967/_210397/43967_210397491305640585985_300.jpg
101,00011591,椛島家住宅祠,かばしまけじゅうたくほこら,1棟,,登録有形文化財(建造物),住宅,建築物,,明治,明治後期,1898～1912,木造平屋建、鉄板葺、建築面積0.42㎡,,40-0144,86,2017.05.02(平成29.05.02),2017.05.02(平成29.05.02),,20170502,,国土の歴史的景観に寄与しているもの,,福岡県,福岡県糸島市二丈田中字大塚101,,,,,33.53652000000000,130.17000000000000,社の北東方で煉瓦積の基壇上に南北棟で建つ。桁行、梁間とも〇・六五メートル、切妻造鉄板葺、妻入である。井桁に組む土台に柱を立て、開口となる南面を格子戸両開きとし、他は竪板張とする。内部は縦長の玉石を祀る。社ととにも屋敷の鬼門を守る小祠である。,https://bunka.nii.ac.jp/heritage/43967/_210398/43967_210398982846506237860_300.jpg
101,00011592,椛島家住宅南門及び塀,かばしまけじゅうたくみなみもんおよびへい,1棟,,登録有形文化財(建造物),住宅,その他工作物,,明治,明治後期,1898～1912,南門　木造、瓦葺、間口2.9m　塀　木造、瓦葺、総延長23m,,40-0145,86,2017.05.02(平成29.05.02),2017.05.02(平成29.05.02),,20170502,,国土の歴史的景観に寄与しているもの,,福岡県,福岡県糸島市二丈田中字大塚101,,,,,33.53612000000000,130.17000000000000,主屋大戸口正面に構える南門と東西にのびる塀。南門は間口二・九メートルの薬医門、切妻造桟瓦葺。本柱を五平とし、冠木上に梁を三筋架け、軒桁、棟木とも舟肘木で受け、棟通り中央に蟇股を飾る。塀は腰板張で欄間を透かす。格式ある表構えを創る門塀である。,https://bunka.nii.ac.jp/heritage/43967/_210399/43967_210399409540115263762_300.jpg
101,00011593,椛島家住宅東門・北門及び塀,かばしまけじゅうたくひがしもん・きたもんおよびへい,1棟,,登録有形文化財(建造物),住宅,その他工作物,,明治,明治後期,1898～1912,東門　木造、瓦葺、間口1.8m　北門　木造、瓦葺、間口2.0m　塀　木造、瓦葺、総延長32m,,40-0146,86,2017.05.02(平成29.05.02),2017.05.02(平成29.05.02),,20170502,,国土の歴史的景観に寄与しているもの,,福岡県,福岡県糸島市二丈田中字大塚101,,,,,33.53639000000000,130.17010000000000,庫院北東隅から北にのびて敷地東辺を画す塀と、途中に開く東門、北端の北門。両門とも腕木門、切妻造桟瓦葺で板戸内開とする。塀は内外とも漆喰塗で、南寄りの前庭部は潜りと格子を設け、北寄りでは外側に簓子下見板を張る。庫院と調和が図られた意匠をもつ。,https://bunka.nii.ac.jp/heritage/43967/_210400/43967_210400310622086476319_300.jpg
101,00011594,椛島家住宅庭門及び塀,かばしまけじゅうたくにわもんおよびうちべいにわもん,1棟,,登録有形文化財(建造物),住宅,その他工作物,,明治,明治後期,1898～1912,庭門　木造、瓦葺、間口1.3m　塀　木造、瓦葺、総延長9.8m,,40-0147,86,2017.05.02(平成29.05.02),2017.05.02(平成29.05.02),,20170502,,国土の歴史的景観に寄与しているもの,,福岡県,福岡県糸島市二丈田中字大塚101,,,,,33.53627000000000,130.16990000000000,主屋正面から奥座敷前の主庭を囲むように廻り、主庭と表庭を画す門及び塀。門は腕木門、切妻造桟瓦葺で、欄間周囲を塗込めて主屋と意匠統一がなされる。塀は外側を竪板張として欄間を透かす。簡明かつ繊細な意匠をもち、庭内に落着いた風情を醸す。,https://bunka.nii.ac.jp/heritage/43967/_210401/43967_210401536509807445186_300.jpg
101,00012254,江頭家住宅主屋,えがしらけじゅうたくしゅおく,1棟,,登録有形文化財(建造物),産業3次,建築物,,江戸,江戸末期／昭和前期・同40年代増築,1830〜1868,木造2階建、瓦葺、建築面積286㎡,,40-148,89,2018.03.27(平成30.03.27),2018.03.27(平成30.03.27),,20180327,,造形の規範となっているもの,,福岡県,福岡県大川市大字榎津字向町746-2,,,,,33.20719000000000,130.37410000000000,間口八間、奥行八間で入母屋造妻入の直屋に切妻造の角屋を直交し居蔵造とする当地域の大規模町家特有の形式を持つ。通り土間に沿ってミセ、チョウバ、チャノマなど並べ、上手に座敷二室を配す。大戸や蔀戸も良く残り、座敷飾りには華やかな意匠をみせる。,https://bunka.nii.ac.jp/heritage/43967/_353055/43967_353055803680295577814_300.jpg
101,00012255,江頭家住宅門及び塀,えがしらけじゅうたくもんおよびへい,1棟,,登録有形文化財(建造物),産業3次,その他工作物,,江戸,江戸末期,1830〜1868,門　木造、瓦葺、間口1.9m、塀　木造、瓦葺、延長7.0m,,40-149,89,2018.03.27(平成30.03.27),2018.03.27(平成30.03.27),,20180327,,国土の歴史的景観に寄与しているもの,,福岡県,福岡県大川市大字榎津字向町746-2,,,,,33.20718000000000,130.37400000000000,主屋正面の北側に矩折で接続する。門は間口一・九メートルで、両開板扉を吊る。塀は木造で、外側を大壁とし、軒は蛇腹に仕上げ、切妻造の屋根を架け、正面妻面を塗り込める。主屋とともに耐火性を重視した構えで、街路からの歴史的景観を良好に形作る。,https://bunka.nii.ac.jp/heritage/43967/_353056/43967_353056543903955034192_300.jpg
101,00012455,門司港涼山亭（旧丸山山荘）主屋棟,もじこうりょうざんてい　（きゅうまるやまさんそう）しゅおくとう,1棟,,登録有形文化財(建造物),住宅,建築物,,大正,大正14年頃／昭和3年増築,1925,木造平屋及び2階建、瓦葺及びスレート葺、建築面積238㎡,,40-150,90,2018.05.10(平成30.05.10),2018.05.10(平成30.05.10),,20180510,,国土の歴史的景観に寄与しているもの,,福岡県,福岡県北九州市門司区丸山二丁目1363-15他,,,,,33.94141000000000,130.96970000000000,門司港後背の山あいに建つ実業家の旧別宅。坂道の湾曲部に面した敷地の中央部に庭を設け、周囲に各建物を配する。主屋棟は庭側の座敷三室と道路側の水回りからなり、道路に沿って屋根が輻輳する複雑な外観を呈する。戦前の門司港の隆盛を今に伝えている。,https://bunka.nii.ac.jp/heritage/43967/_354600/43967_354600332898395664636_300.jpg
101,00012456,門司港涼山亭（旧丸山山荘）客間棟,もじこうりょうざんてい　（きゅうまるやまさんそう）きゃくまとう,1棟,,登録有形文化財(建造物),住宅,建築物,,昭和前,昭和9年頃,1934,木造平屋建、瓦葺、建築面積62㎡,,40-151,90,2018.05.10(平成30.05.10),2018.05.10(平成30.05.10),,20180510,,国土の歴史的景観に寄与しているもの,,福岡県,福岡県北九州市門司区丸山二丁目1363-15他,,,,,33.94141000000000,130.96970000000000,敷地の谷側隅に建つ。渡廊下で主屋棟と接続し、道路沿いの一体的な屋敷構えを構成する。入母屋造桟瓦葺で座敷二室と茶室からなり、奥の座敷は遠方の眺望を確保するため道路側に張出して縁をつくる。都市近郊で営まれた接客施設の様相を伝えている。,https://bunka.nii.ac.jp/heritage/43967/_354602/43967_354602630696327775722_300.jpg
101,00012457,門司港涼山亭（旧丸山山荘）離れノ間棟,もじこうりょうざんてい　（きゅうまるやまさんそう）はなれまとう,1棟,,登録有形文化財(建造物),住宅,建築物,,昭和前,昭和3年頃,1928,木造平屋建、瓦葺、建築面積30㎡,,40-152,90,2018.05.10(平成30.05.10),2018.05.10(平成30.05.10),,20180510,,国土の歴史的景観に寄与しているもの,,福岡県,福岡県北九州市門司区丸山二丁目1363-15他,,,,,33.94141000000000,130.96970000000000,敷地の山側隅の高台に建つ。谷側入母屋造、山側寄棟造で、座敷と控えの二室からなる。敷地側に開口部を設け、庭を介して敷地を見渡す眺望を確保する。道路側は鉱滓煉瓦塀で閉じる。主屋棟、客間棟と同じく、都市近郊で営まれた接客施設の様相を伝えている,https://bunka.nii.ac.jp/heritage/43967/_354604/43967_354604256436375942315_300.jpg
101,00012458,折尾愛真学園記念館（旧折尾警察署庁舎）,おりおあいしんがくえんきねんかん（きゅうおりおけいさつしょちょうしゃ）,1棟,,登録有形文化財(建造物),官公庁舎,建築物,,明治,明治42年／昭和16年・同61年移築,1910,木造2階建、瓦葺、建築面積138㎡,,40-153,90,2018.05.10(平成30.05.10),2018.05.10(平成30.05.10),,20180510,,造形の規範となっているもの,,福岡県,福岡県北九州市八幡西区堀川町823-1,,学校法人折尾愛真学園,学校法人,,33.86391000000000,130.71220000000000,キャンパスの南西隅に東面して建つ。寄棟造桟瓦葺の総二階建で、外壁下見板張とし、南側面に階段室、正面中央に切妻屋根の玄関ポーチを出す。上下階とも大部屋中心の明瞭な構成で、装飾も簡明である。明治時代に各地で建てられた洋風公共施設の好例を示す。,https://bunka.nii.ac.jp/heritage/43967/_354606/43967_354606792577712432541_300.jpg
101,00012459,名島橋,なじまばし,1基,,登録有形文化財(建造物),交通,土木構造物,,昭和前,昭和8年,1933,鉄筋コンクリート造七連アーチ橋、橋長204m、幅員25m、親柱及び高欄付,,40-154,90,2018.05.10(平成30.05.10),2018.05.10(平成30.05.10),,20180510,,国土の歴史的景観に寄与しているもの,,福岡県,福岡県福岡市東区名島二丁目～箱崎七丁目,,国（国土交通省）,国,,33.64052000000000,130.42820000000000,多々良川にかかる国道３号の鉄筋コンクリート造橋梁。扁平なアーチを七つ連続させた長大ながら均整のとれた外観で半円形の付柱とバルコニーや親柱頂部の半球など古典的な意匠を要所に配する。幹線道路の全国的な展開と近代福岡の発展を象徴する大規模橋梁。,https://bunka.nii.ac.jp/heritage/43967/_354607/43967_354607393551223576831_300.jpg
101,00012658,倉員家住宅主屋,くらかずけじゅうたくしゅおく,1棟,,登録有形文化財(建造物),住宅,建築物,,明治,明治18年／昭和42年頃改修,1885,木造2階一部平屋建、瓦葺、建築面積300㎡,,40 － 0155,91,2018.11.02(平成30.11.02),2018.11.02(平成30.11.02),,20181102,,国土の歴史的景観に寄与しているもの,,福岡県,福岡県八女市上陽町北川内字坂口山1016,,,,,,,旧北川内村中心部にある地主の居宅。主屋は敷地中央に南面して建つ。入母屋造桟瓦葺の二階建で、正面東半を張出して矩折れに屋根をかけ、四周に下屋を廻す。内部は西に土間、東に2列3室を配し、表に座敷を並べる。良材を多用した上質なつくりの和風住宅。,https://bunka.nii.ac.jp/heritage/43967/_367952/43967_367952187875046899673_300.jpg
101,00012659,倉員家住宅離れ,くらかずけじゅうたくはなれ,1棟,,登録有形文化財(建造物),住宅,建築物,,明治,明治42年／昭和63年改修,1909,木造平屋建、瓦葺、建築面積97㎡,,40 － 0156,91,2018.11.02(平成30.11.02),2018.11.02(平成30.11.02),,20181102,,国土の歴史的景観に寄与しているもの,,福岡県,福岡県八女市上陽町北川内字坂口山1016,,,,,,,敷地北面に南面して建つ。土蔵造平屋建、入母屋造桟瓦葺で、正面西半を角屋で主屋と接続する。床組を敷地背面の石垣上から張出してつくり、広い床下空間を確保する。内部は三室を並べ、東端に座敷を設ける。上層農家の暮らしの一端を伝える附属建物である。,https://bunka.nii.ac.jp/heritage/43967/_367953/43967_367953402873420391345_300.jpg
101,00012660,倉員家住宅土蔵,くらかずけじゅうたくどぞう,1棟,,登録有形文化財(建造物),住宅,建築物,,明治,明治24年,1891,土蔵造2階建、瓦葺、建築面積51㎡,,40 － 0157,91,2018.11.02(平成30.11.02),2018.11.02(平成30.11.02),,20181102,,国土の歴史的景観に寄与しているもの,,福岡県,福岡県八女市上陽町北川内字坂口山1016,,,,,,,敷地南面の石垣上に北面して建つ。土蔵造二階建、東西棟の切妻造で、正面東寄りに庇付の戸口を設け、石段を築く。外壁は漆喰塗で腰壁が縦板張、内部は一階が土間、二階が板敷で、和小屋を組む。主屋前庭を囲んで建つ附属建物で、伝統的な農家の構成を示す。,https://bunka.nii.ac.jp/heritage/43967/_367954/43967_367954888438651830138_300.jpg
101,00012661,倉員家住宅納屋,くらかずけじゅうたくなや,1棟,,登録有形文化財(建造物),住宅,建築物,,明治,明治9年,1876,木造2階建、瓦葺、建築面積51㎡,,40 － 0158,91,2018.11.02(平成30.11.02),2018.11.02(平成30.11.02),,20181102,,国土の歴史的景観に寄与しているもの,,福岡県,福岡県八女市上陽町北川内字坂口山1016,,,,,,,敷地南面の土蔵前方に北面して建つ。切妻造桟瓦葺の二階建で、正面に下屋を通し、下屋上に縦格子窓を設ける。外壁は漆喰塗で腰壁が縦板張、内部は一面土間で前面を開放とし、二階に物置を設ける。土蔵と同じく伝統的な農家の構成を示す附属建物である。,https://bunka.nii.ac.jp/heritage/43967/_367955/43967_367955910210300916235_300.jpg
101,00013003,料亭満佐主屋棟,りょうていまさしゅおくとう,1棟,,登録有形文化財(建造物),産業3次,建築物,,昭和中,昭和29年,1954,木造2階建、瓦葺、建築面積236㎡,,40 － 159,93,2019.09.10(令和1.09.10),2019.09.10(令和1.09.10),,20190910,,造形の規範となっているもの,,福岡県,福岡県福岡市博多区中洲一丁目103他,,,,,33.59066944000000,130.40830833000000,中洲の一角にあり、主屋棟は那珂川沿いに西面して建つ。木造二階建、入母屋造及び切妻造桟瓦葺妻入で、正面北端に玄関を出す。外壁は聚楽大壁。一階に客室3室、二階に広間を設け、中廊下を通し、各室を異なる趣向の意匠とする。上質な新興数寄屋の料亭建築。,https://bunka.nii.ac.jp/heritage/43967/_368116/43967_368116302424515210165_300.jpg
101,00013004,料亭満佐離れ棟,りょうていまさはなれとう,1棟,,登録有形文化財(建造物),産業3次,建築物,,昭和中,昭和29年／昭和30年代増築,1954,木造平屋建、瓦葺、建築面積49㎡,,40 － 160,93,2019.09.10(令和1.09.10),2019.09.10(令和1.09.10),,20190910,,造形の規範となっているもの,,福岡県,福岡県福岡市博多区中洲一丁目103他,,,,,33.59058889000000,130.40843333000000,主屋棟の南東方に建つ木造平屋建、切妻造桟瓦葺銅板腰葺で、離れ、茶室、便所等からなる。離れは西面に床を設け、南東二面に縁を廻して月見台とする。茶室は東面に袋床を設け、名栗仕上の中柱や下地窓付の袖壁を備える。主屋から独立した風流な趣の離れ座敷。,https://bunka.nii.ac.jp/heritage/43967/_368117/43967_368117721457121437142_300.jpg
101,00013005,料亭満佐厨房棟,りょうていまさちゅうぼうとう,1棟,,登録有形文化財(建造物),産業3次,建築物,,昭和中,昭和29年,1954,木造2階建、瓦葺、建築面積140㎡,,40 － 161,93,2019.09.10(令和1.09.10),2019.09.10(令和1.09.10),,20190910,,造形の規範となっているもの,,福岡県,福岡県福岡市博多区中洲一丁目103他,,,,,33.59075000000000,130.40843056000000,主屋棟背面に接続する切妻造、寄棟造及び入母屋造桟瓦葺の二階建で、一階中廊下の北に厨房や帳場、南に居室、二階に応接間等を設ける。居室や応接間は大壁で、横桟のみの建具や埋込み照明に細い竿縁を吹寄せで配する天井など、吉田五十八流の手法がみられる。,https://bunka.nii.ac.jp/heritage/43967/_368118/43967_368118989104232938114_300.jpg
101,00013006,料亭満佐新館棟,りょうていまさしんかんとう,1棟,,登録有形文化財(建造物),産業3次,建築物,,昭和中,昭和36年,1961,木造平屋建、瓦葺、建築面積121㎡,,40 － 162,93,2019.09.10(令和1.09.10),2019.09.10(令和1.09.10),,20190910,,造形の規範となっているもの,,福岡県,福岡県福岡市博多区中洲一丁目103他,,,,,33.59062500000000,130.40850833000000,主屋棟の東側に渡廊下で接続する木造平屋建、切妻造桟瓦葺。南に一二畳の座敷と次の間、北に小座敷や便所を配する。座敷は西面に踏込床、床、床脇を備え、室境は壁引込み式の欄間付襖とする。横桟のみの障子や埋込み照明の平天井など新興数寄屋の好例を示す。,https://bunka.nii.ac.jp/heritage/43967/_368119/43967_368119075436900548009_300.jpg
101,00013007,料亭満佐表門及び塀,りょうていまさおもてもんおよびへい,1棟,,登録有形文化財(建造物),産業3次,その他工作物,,昭和中,昭和29年,1954,表門　木造、瓦葺、間口2.2m　塀　鉄筋コンクリート造、瓦葺、総延長107m、通用門付,,40 － 163,93,2019.09.10(令和1.09.10),2019.09.10(令和1.09.10),,20190910,,国土の歴史的景観に寄与しているもの,,福岡県,福岡県福岡市博多区中洲一丁目103他,,,,,33.59064722000000,130.40837222000000,敷地の東西北三面を区切る塀と門。表門は西面塀北寄りに間口四・五メートルの門口を開き、外側に庇、内側に片流れ下屋を付す。塀は鉄筋コンクリート造の桟瓦葺、西面塀を腰縦板張とし、東面塀北端に通用門を設ける。老舗料亭の風格ある店構えを形成している。,https://bunka.nii.ac.jp/heritage/43967/_368120/43967_368120083883613195414_300.jpg
101,00013008,日本福音ルーテル久留米教会礼拝堂,にほんふくいんるーてるくるめきょうかいれいはいどう,1棟,,登録有形文化財(建造物),宗教,建築物,,大正,大正7年／昭和25年・同29年改修,1918,煉瓦造平屋一部2階建、銅板葺、建築面積165㎡,,40 － 164,93,2019.09.10(令和1.09.10),2019.09.10(令和1.09.10),,20190910,,造形の規範となっているもの,,福岡県,福岡県久留米市日吉町16-3,,宗教法人日本福音ルーテル教会,宗教法人,,33.31519167000000,130.51346944000000,市中心部の教会で、街路南側の敷地西南隅に北面して建つ。煉瓦造、東西棟の切妻造で、東北隅の鐘楼北面に玄関を設ける。内部はシザーズ・トラスをかけ、柱のない礼拝空間をつくる。合理的な平面構成や丁寧な仕上がヴォーリズ初期の設計活動の特徴をよく示す。,https://bunka.nii.ac.jp/heritage/43967/_368081/43967_368081323655422641802_300.jpg
101,00013009,日本福音ルーテル久留米教会煉瓦塀,にほんふくいんるーてるくるめきょうかいれんがべい,1基,,登録有形文化財(建造物),宗教,その他工作物,,昭和前,昭和2年頃,1927,石造及び煉瓦造、総延長21m,,40 － 165,93,2019.09.10(令和1.09.10),2019.09.10(令和1.09.10),,20190910,,国土の歴史的景観に寄与しているもの,,福岡県,福岡県久留米市日吉町16-3,,宗教法人日本福音ルーテル教会,宗教法人,,33.31532778000000,130.51357778000000,敷地北面の街路沿いに建つ。煉瓦造、基礎切石積で、敷地中央部を後退して正門を設ける。モルタル笠木付の煉瓦長手積角柱を等間隔に並べ、柱間の塀をモルタル塗とし、壁面に７連アーチ、上端に笠木を表す。礼拝堂と調和し、整然とした表構えを形成している。,https://bunka.nii.ac.jp/heritage/43967/_368082/43967_368082220298527266411_300.jpg
101,00013199,小烏神社本殿,こがらすじんじゃほんでん,1棟,,登録有形文化財(建造物),宗教,建築物,,昭和前,昭和4年,1929,木造平屋建、銅板葺、建築面積20㎡,,40 － 0166,94,2019.12.05(令和1.12.05),2019.12.05(令和1.12.05),,20191205,,造形の規範となっているもの,,福岡県,福岡県福岡市中央区警固三丁目194,,宗教法人小烏神社,非営利法人,,33.57983056000000,130.39141389000000,天神近郊住宅地の丘陵にある神社。本殿は境内後方の高台に建つ。三間社流造銅板葺で、四方に高欄付切目縁を廻し、向拝廻りに浜床を広くとる。妻飾は虹梁に豕扠首、組物は身舎四隅及び向拝を出三斗とする。全体に装飾を抑えた、端正な意匠の本殿。,https://bunka.nii.ac.jp/heritage/43967/_368423/43967_368423982852205439581_300.jpg
101,00013200,小烏神社拝殿及び渡殿,こがらすじんじゃはいでんおよびわたりでん,1棟,,登録有形文化財(建造物),宗教,建築物,,昭和前,昭和4年,1929,木造平屋建、銅板葺、建築面積35㎡,,40 － 0167,94,2019.12.05(令和1.12.05),2019.12.05(令和1.12.05),,20191205,,造形の規範となっているもの,,福岡県,福岡県福岡市中央区警固三丁目194,,宗教法人小烏神社,非営利法人,,33.57979167000000,130.39151389000000,本殿正面に接続し、南面して建つ。拝殿は入母屋造銅板葺平入、渡殿は銅板葺とする。拝殿は身舎・向拝ともに二軒、軸部を吹放ち開放として、四周に縁を廻す。床は板張り、天井は格天井とし、向拝蟇股を藤の彫刻で飾る。簡素な中にも質の高い建物である。,https://bunka.nii.ac.jp/heritage/43967/_368424/43967_368424640824262046223_300.jpg
101,00013201,小烏神社神饌所,こがらすじんじゃしんせんしょ,1棟,,登録有形文化財(建造物),宗教,建築物,,昭和前,昭和4年,1929,木造平屋建、瓦葺、建築面積19㎡,,40 － 0168,94,2019.12.05(令和1.12.05),2019.12.05(令和1.12.05),,20191205,,造形の規範となっているもの,,福岡県,福岡県福岡市中央区警固三丁目194,,宗教法人小烏神社,非営利法人,,33.57984444000000,130.39153889000000,拝殿脇に渡廊下を介して接続する。桁行三間、梁間二間、切妻造桟瓦葺、内部は入口回りを土間、その他を板敷の一室とする。西角に物入を作り、南西面に板戸の出入口を設ける。妻は二重虹梁で、虹梁端部に鯖の尾を付す等、小規模ながら凝ったつくりとする。,https://bunka.nii.ac.jp/heritage/43967/_368425/43967_368425148687786684056_300.jpg
101,00013202,小烏神社天満宮,こがらすじんじゃてんまんぐう,1棟,,登録有形文化財(建造物),宗教,建築物,,昭和前,昭和4年,1929,木造平屋建、銅板葺、建築面積3.4㎡,,40 － 0169,94,2019.12.05(令和1.12.05),2019.12.05(令和1.12.05),,20191205,,造形の規範となっているもの,,福岡県,福岡県福岡市中央区警固三丁目194,,宗教法人小烏神社,非営利法人,,33.57979722000000,130.39128611000000,本殿の西、境内の隅に位置する。一間社流造、銅板葺、浜床を付ける。柱は円柱で、三斗組とし、軒は二軒繁垂木。妻を虹梁大瓶束とする。向拝と身舎は海老虹梁で繋ぎ、三方に切目縁を設け、身舎両袖を脇障子で仕切る。檜の良材を用いた造作の丁寧な小社である。,https://bunka.nii.ac.jp/heritage/43967/_368426/43967_368426111248432448783_300.jpg
101,00013203,小烏神社手水舎,こがらすじんじゃてみずしゃ,1棟,,登録有形文化財(建造物),宗教,建築物,,昭和前,昭和4年,1929,木造、銅板葺、面積6.7㎡,,40 － 0170,94,2019.12.05(令和1.12.05),2019.12.05(令和1.12.05),,20191205,,造形の規範となっているもの,,福岡県,福岡県福岡市中央区警固三丁目194,,宗教法人小烏神社,非営利法人,,33.57969722000000,130.39175278000000,拝殿に通じる参道脇に位置する。桁行一間、梁間一間、切妻造銅板葺、角柱四本を内転びに立て、中央に昭和四年銘の手水鉢を置き、四方を吹放しとする。柱上に舟肘木を置き桁と虹梁を受け、虹梁上に板蟇股をおいて棟木を受ける。本殿などと意匠を統一する。,https://bunka.nii.ac.jp/heritage/43967/_368427/43967_368427129257860486162_300.jpg
101,00013204,小烏神社瑞垣,こがらすじんじゃみずがき,1棟,,登録有形文化財(建造物),宗教,その他工作物,,昭和前,昭和4年,1929,木造、金属板葺、延長33m,,40 － 0171,94,2019.12.05(令和1.12.05),2019.12.05(令和1.12.05),,20191205,,造形の規範となっているもの,,福岡県,福岡県福岡市中央区警固三丁目194,,宗教法人小烏神社,非営利法人,,33.57984444000000,130.39138056000000,渡殿に接続し、本殿を中心に一辺三〇尺の透塀で囲む。角柱を地、腰、内法の各長押で固め、腕木で出桁を受け、疎垂木、鉄板葺とする。腰長押、内法長押間に連子窓を嵌める。簡素ながら装飾をもち、本殿の配置に沿った計画的な平面構成をとる。,https://bunka.nii.ac.jp/heritage/43967/_368428/43967_368428854830558070260_300.jpg
101,00013205,小烏神社奉献塔,こがらすじんじゃほうけんとう,1基,,登録有形文化財(建造物),宗教,その他工作物,,昭和前,昭和4年,1929,石造、高さ6.0m,,40 － 0172,94,2019.12.05(令和1.12.05),2019.12.05(令和1.12.05),,20191205,,国土の歴史的景観に寄与しているもの,,福岡県,福岡県福岡市中央区警固三丁目194,,宗教法人小烏神社,非営利法人,,33.57976667000000,130.39130278000000,拝殿脇に立つ高さ６メートルの石塔。二段積の台座の上に立ち、塔上は笠木付の柱頭を飾り、頂部に銅製の八咫烏を載せる。正面となる南に「奉献」の浮彫り、背面に昭和四年の銘と寄進者の名を刻み、境内景観に寄与する。,https://bunka.nii.ac.jp/heritage/43967/_368429/43967_368429428948260500645_300.jpg
101,00013466,教圓寺鐘楼,きょうえんじしょうろう,1棟,,登録有形文化財(建造物),宗教,建築物,,江戸,文久3年(1863)／昭和55年改修,1863,木造3階建、瓦葺、建築面積41㎡,,40 － 0173,96,2020.08.17(令和2.08.17),2020.08.17(令和2.08.17),,20200817,,再現することが容易でないもの,,福岡県,福岡県豊前市大字宇島215,,宗教法人教圓寺,宗教法人,,33.62244444000000,131.14098611000000,周防灘に面する宇島に位置し、旧中津街道沿いの境内南西隅に建つ。正面三間、側面二間、三階建袴腰付、宝形造桟瓦葺。二層の組物は出組で二軒繁垂木、四周に連子窓あるいは火頭窓を入れ、縁を出三斗で支え、内部に梵鐘を吊る。類稀な三層の鐘楼。,https://bunka.nii.ac.jp/heritage/43967/_368562/43967_368562697245620532661_300.jpg
101,00013467,福岡県い業会館本館,ふくおかけんいぎょうかいかんほんかん,1棟,,登録有形文化財(建造物),産業3次,建築物,,昭和前,昭和11年／昭和中期、平成26年改修,1936,木造2階建、瓦葺、建築面積130㎡,,40 － 0174,96,2020.08.17(令和2.08.17),2020.08.17(令和2.08.17),,20200817,,国土の歴史的景観に寄与しているもの,,福岡県,福岡県三潴郡大木町大字八町牟田3-1,,福岡県い製品商工業協同組合,その他,,33.20716111000000,130.43334167000000,県内のい業関係５団体の事務所。木造二階建寄棟造で玄関ポーチを突出させる。外観は下見板張に付柱のスティックスタイルでまとめる。内部は一階が事務室、二階が会議室等だが、各室で天井意匠を変える等熟れた意匠を持つ。町内では希少な洋風建築として貴重。,https://bunka.nii.ac.jp/heritage/43967/_368563/43967_368563879576738530882_300.jpg
101,00013468,福岡県い業会館旧宿直棟,ふくおかけんいぎょうかいかんきゅうしゅくちょくとう,1棟,,登録有形文化財(建造物),産業3次,建築物,,昭和前,昭和11年／昭和18年、平成29年改修,1936,木造平屋建、瓦葺、建築面積57㎡,,40 － 0175,96,2020.08.17(令和2.08.17),2020.08.17(令和2.08.17),,20200817,,国土の歴史的景観に寄与しているもの,,福岡県,福岡県三潴郡大木町大字八町牟田3-1,,福岡県い製品商工業協同組合,その他,,33.20713611000000,130.43318056000000,本館と、本館西の勝手口から接続する。事務所の宿直等に使用した付属施設。木造平屋建入母屋造で漆喰仕上に腰竪板張と、本館と対照的な和風意匠を持つ。内部は八畳、六畳の二室を並べ、奥に台所を付す。本館とともに地域産業の近代化を物語る建物として貴重。,https://bunka.nii.ac.jp/heritage/43967/_368564/43967_368564175036433064364_300.jpg
101,00013660,世界平和パゴダ,せかいへいわぱごだ,1棟,,登録有形文化財(建造物),宗教,建築物,,昭和中,昭和33年,1958,鉄筋コンクリート造平屋建、建築面積197㎡,,40 － 0176,97,2021.02.04(令和3.02.04),2021.02.04(令和3.02.04),,20210204,,再現することが容易でないもの,,福岡県,福岡県北九州市門司区大字門司字与郷松3249-2,,宗教法人世界平和パゴダ,宗教法人,,33.95469167000000,130.97075833000000,門司港を見下ろす和布刈公園に建つ。戦没者慰霊、日緬親善交流、世界平和を祈念して建築されたミャンマー様式の仏塔。鉄筋コンクリート造、半径七・四メートルの円形平面で三面に出入口を突出させる。外壁は石張で上部は金色タイルで飾る。類稀な遺構。,https://bunka.nii.ac.jp/heritage/43967/_505027/43967_505027736869666101053_300.jpg
101,00013661,吉村家住宅主屋,よしむらけじゅうたくおもや,1棟,,登録有形文化財(建造物),住宅,建築物,,大正,大正14年,1925,木造平屋一部2階建、瓦葺、建築面積131㎡,,40 － 0177,97,2021.02.04(令和3.02.04),2021.02.04(令和3.02.04),,20210204,,国土の歴史的景観に寄与しているもの,,福岡県,福岡県福岡市中央区谷二丁目280,,,,,33.57478056000000,130.38096667000000,福岡城のもと武家地に所在。入母屋造桟瓦葺で四周に庇を廻し二重屋根にみせる。入母屋造の玄関から取次をはさんで主室の一〇畳座敷を配し東に四畳半、西に雁行して七畳半、台所をそれぞれ突出させる。屋根の取合いが複雑な、武家住宅の様相を現在に伝える。,https://bunka.nii.ac.jp/heritage/43967/_504607/43967_504607028053952522664_300.jpg
101,00013662,吉村家住宅旧納屋,よしむらけじゅうたくきゅうなや,1棟,,登録有形文化財(建造物),住宅,建築物,,明治,明治中期／昭和20年頃・同25年頃改修,1883～1897,木造平屋建、瓦葺、建築面積30㎡,,40 － 0178,97,2021.02.04(令和3.02.04),2021.02.04(令和3.02.04),,20210204,,国土の歴史的景観に寄与しているもの,,福岡県,福岡県福岡市中央区谷二丁目280,,,,,33.57458889000000,130.38098333000000,敷地の南西隅に建つ。文政の建築と伝える旧主屋の付属建物との伝聞があり、敷地内で最も古い。平屋建切妻造桟瓦葺で真壁造竪板張とする。小作米の収納等に利用されたと思われるが、戦後に北に六畳、南に四畳半の二室に整備した。敷地の一角を形成する。,https://bunka.nii.ac.jp/heritage/43967/_504608/43967_504608978087073178224_300.jpg
101,00013663,吉村家住宅便所・風呂棟,よしむらけじゅうたくべんじょ・ふろとう,1棟,,登録有形文化財(建造物),住宅,建築物,,大正,大正14年頃,1925,木造平屋建、瓦葺、建築面積12㎡,,40 － 0179,97,2021.02.04(令和3.02.04),2021.02.04(令和3.02.04),,20210204,,国土の歴史的景観に寄与しているもの,,福岡県,福岡県福岡市中央区谷二丁目280,,,,,33.57465278000000,130.38105000000000,敷地の南方に井戸屋形と並んで建つ。東西棟の平屋建入母屋造桟瓦葺。東半を便所、西半を脱衣所、浴室とし、西面を焚口として下屋を設ける。便所の開戸羽目板には老松や並び矢の透かしをいれるなど、小規模ながら洒脱な意匠をみせる。敷地の一角を形成。,https://bunka.nii.ac.jp/heritage/43967/_504609/43967_504609024869846624080_300.jpg
101,00013664,吉村家住宅井戸屋形,よしむらけじゅうたくいどやかた,1棟,,登録有形文化財(建造物),住宅,その他工作物,,大正,大正14年頃,1925,木造平屋建、瓦葺、建築面積4.7㎡,,40 － 0180,97,2021.02.04(令和3.02.04),2021.02.04(令和3.02.04),,20210204,,国土の歴史的景観に寄与しているもの,,福岡県,福岡県福岡市中央区谷二丁目280,,,,,33.57461667000000,130.38106111000000,便所・風呂棟の南に独立して建つ。平屋建で、四本の柱を内転びに立て、切妻造桟瓦葺の屋根を支持する。軸部材はすべて杉の丸太材である。井戸はコンクリート製の丸井戸とする。主屋や庭木と一体となって福岡城下の旧武家地に良好な景観を形成する。,https://bunka.nii.ac.jp/heritage/43967/_504610/43967_504610764698203640689_300.jpg
101,00013665,古賀家住宅主屋,こがけじゅうたくおもや,1棟,,登録有形文化財(建造物),住宅,建築物,,昭和中,昭和28年,1953,木造平屋建、瓦葺、建築面積184㎡,,40 － 0181,97,2021.02.04(令和3.02.04),2021.02.04(令和3.02.04),,20210204,,国土の歴史的景観に寄与しているもの,,福岡県,福岡県大牟田市谷町1-12他,,,,,33.03207500000000,130.44885000000000,大牟田市の中心街に位置する。玄関の南脇に応接棟がつき東に洋間棟、座敷棟、離れ棟をそれぞれ別棟で雁行して配する。いずれも入母屋造桟瓦葺。座敷、離れは和風で統一する一方、応接間は洋風で設えるなど、比較的大規模な和洋を併置した戦後の住宅の好例。,https://bunka.nii.ac.jp/heritage/43967/_505028/43967_505028180977980539840_300.jpg
101,00013666,久留米大学本館,くるめだいがくほんかん,1棟,,登録有形文化財(建造物),学校,建築物,,昭和前,昭和4年／昭和58年改修,1929,鉄筋コンクリート造3階建、陸屋根、建築面積1297㎡、西面・南面スロープ及び中庭階段付,,40 － 0182,97,2021.02.04(令和3.02.04),2021.02.04(令和3.02.04),,20210204,,造形の規範となっているもの,,福岡県,福岡県久留米市旭町67,,学校法人久留米大学,学校法人,,33.32870833000000,130.51114167000000,久留米城の東に位置。設計は松田昌平で施工は松田組。コの字形平面で、正面二階の中央に車寄玄関を設けロンバルティア帯で飾る。車寄上部を三連アーチ窓とし、両翼は三層を通した二連のアーチ枠を並べて窓を穿つ。ロマネスクを基調とした格調高い大学本館。,https://bunka.nii.ac.jp/heritage/43967/_504896/43967_504896137249741437163_300.jpg
101,00013667,吉原家住宅主屋及び角座敷,よしはらけじゅうたくおもやおよびつのざしき,1棟,,登録有形文化財(建造物),産業2次,建築物,,江戸,主屋　江戸後期、角座敷　天保9年(1838)／昭和中期以前・同63年・平成6年改修,1751～1830,木造2階建、瓦葺、建築面積333㎡,,40 － 0183,97,2021.02.04(令和3.02.04),2021.02.04(令和3.02.04),,20210204,,国土の歴史的景観に寄与しているもの,,福岡県,福岡県大川市大字小保字中ノ船津107-2-2他,,,,,33.20572778000000,130.37113889000000,大川市小保の旧街道沿いに東面して建つ。主屋は二階建切妻造桟瓦葺妻入で、四周に庇を廻し正面に下屋を付す。漆喰を軒先まで塗込め、内部は北を土間、南を床上部とする。南に平屋建切妻造の角座敷を接続し玄関を付す。小保の町並を代表する大型町家である。,https://bunka.nii.ac.jp/heritage/43967/_504611/43967_504611998839183261759_300.jpg
101,00013668,吉原家住宅煉瓦塀,よしはらけじゅうたくれんがべい,1棟,,登録有形文化財(建造物),産業2次,その他工作物,,昭和前,昭和前期,1926～1945,煉瓦造、延長6.3m,,40 － 0184,97,2021.02.04(令和3.02.04),2021.02.04(令和3.02.04),,20210204,,国土の歴史的景観に寄与しているもの,,福岡県,福岡県大川市大字小保字中ノ船津107-2-2他,,,,,33.20575833000000,130.37121111000000,主屋の東南角から通りに沿って南に延びる煉瓦造の塀。延長六メートルで、高さ二メートルの規模である。煉瓦は平目地として、頂部は軒蛇腹で飾り、煉瓦で屋根を造る。主屋の東南の腰壁にも煉瓦が積まれて一連の景観を形成している。,https://bunka.nii.ac.jp/heritage/43967/_504612/43967_504612865267245565137_300.jpg
101,00013766,杣人の家,そまびとのいえ,1棟,,登録有形文化財(建造物),住宅,建築物,,明治,明治後期／昭和35年増築改修、同61年改修,1898～1912,木造2階建、瓦葺、建築面積219㎡,,40 － 185,98,2021.02.26(令和3.02.26),2021.02.26(令和3.02.26),,20210226,,国土の歴史的景観に寄与しているもの,,福岡県,福岡県八女市矢部村北矢部字松尾9932,,八女市,市区町村,,33.14759722000000,130.84008611000000,八女市の山間部の敷地に南面して建つ。木造二階建入母屋造平入桟瓦葺。四周に下屋を廻し、北東に平屋建の座敷棟を突出させる。西に土間、東に三列六室を並べて上部は全て大引天井とし、二階は広い一室の板間とする。軸組に欅等の良材を用いた明治後期の民家。,https://bunka.nii.ac.jp/heritage/43967/_505329/43967_505329539481268385569_300.jpg
