台帳ID,管理対象ID,名称,ふりがな,員数,棟名,文化財種類,種別1,種別2,国,時代,年代,西暦,構造及び形式等,その他参考となるべき事項,登録番号,登録回,登録告示年月日,登録年月日,追加年月日,重文指定年月日,国宝指定年月日,登録基準1,登録基準2,都道府県,所在地,保管施設の名称,所有者名,所有者種別,管理団体又は責任者,緯度,経度,解説文,画像URL
101,00000049,静岡市役所本館,しずおかしやくしょほんかん,1棟,,登録有形文化財(建造物),官公庁舎,建築物,,昭和前,昭和9,1934,鉄筋コンクリート造4階建ドーム付、建築面積1995㎡,,22 － 0001,1,1996.12.26(平成8.12.26),1996.12.20(平成8.12.20),,19961220,,造形の規範となっているもの,,静岡県,静岡県静岡市葵区追手町5-1,,静岡市,,,34.97556000000000,138.38270000000000,"鉄筋コンクリート造４階建ての上に２層の塔屋を重ね,望楼を置き,塔頂にドームをのせている。外壁は象牙色のタイル貼りで，各所にテラコッタが用いられている。ポーチからホールにかけての部分や望楼部分などに，特に優れたデザイン上の工夫が見られる。",https://bunka.nii.ac.jp/heritage/43967/_101039/43967_101039111225010321135_300.jpg
101,00000136,明治宇津ノ谷隧道,めいじうつのやずいどう,1基,,登録有形文化財(建造物),交通,土木構造物,,明治,明治37,1904,煉瓦造，全長203m,,22 － 0002,2,1997.05.29(平成9.05.29),1997.05.07(平成9.05.07),,19970507,,国土の歴史的景観に寄与しているもの,,静岡県,静岡県静岡市駿河区宇津ノ谷～藤枝市岡部町岡部,,静岡市 藤枝市,,,34.93407000000000,138.30340000000000,明治９年に開通したトンネルが，火災で崩落したものを，その一部を利用する形で修築したもの。旧東海道に沿ったルートで，総延長203メートルに及ぶ。坑口から坑内にわたって全面的に煉瓦造であることが特徴であり，明治隧道の名称で親しまれている。,https://bunka.nii.ac.jp/heritage/43967/_101126/43967_101126111225010418580_300.jpg
101,00000249,真珠院鐘楼,しんじゅいんしょうろう,1棟,,登録有形文化財(建造物),宗教,建築物,,昭和前,昭和4,1929,鉄筋コンクリート造，建築面積26㎡,,22 － 0004,4,1997.07.30(平成9.07.30),1997.07.15(平成9.07.15),,19970715,,国土の歴史的景観に寄与しているもの,,静岡県,静岡県静岡市清水区梅ヶ谷608,,宗教法人真珠院,,,35.04490000000000,138.45080000000000,鉄筋コンクリート造の鐘楼。基壇上に袴腰や縁を取り付け、柱や長押㎡垂木等にペイント塗装を施す。袴腰の部分に鐘楼建造の由来を刻した石版をはめ込む。設計及び施工は市内の桜井康弘。寺院景観を構成する要素として訪れる人に親しまれている。,https://bunka.nii.ac.jp/heritage/43967/_101239/43967_101239111225010528474_300.jpg
101,00000291,清水銀行由比支店本町特別出張所,しみずぎんこうゆいしてんほんまちとくべつしゅっちょうじょ,1棟,,登録有形文化財(建造物),産業3次,建築物,,大正,大正14,1925,鉄筋コンクリート2階建，建築面積75㎡,,22 － 0005,5,1997.09.16(平成9.09.16),1997.09.03(平成9.09.03),,19970903,,造形の規範となっているもの,,静岡県,静岡県静岡市清水区由比41,,株式会社清水銀行,,,35.10689000000000,138.56650000000000,庚子銀行の本店社屋として建てられ，後に合併を経て現在に至る。立面は４本のイオニア式柱頭を持つ柱を立て，古典様式の基本に則る。内部は吹抜けの広い空間を持つ。小規模ながら洗練された様式を持つ，大正期の地方における銀行建築の好例である。,https://bunka.nii.ac.jp/heritage/43967/_101281/43967_101281111225010552016_300.jpg
101,00000347,隆泉苑,りゅうせんえん,1棟,,登録有形文化財(建造物),住宅,建築物,,昭和前,昭和6,1931,木造平屋建，瓦葺，建築面積324㎡,,22 － 0006,6,1997.12.03(平成9.12.03),1997.11.05(平成9.11.05),,19971105,,造形の規範となっているもの,,静岡県,静岡県三島市中田町1-43,,公益財団法人佐野美術館,,,35.11588000000000,138.91580000000000,佐野美術館の創始者佐野隆一が両親に贈った旧邸宅を，昭和５２年に美術館に寄贈したもの。総平屋建で，書院の間，数寄屋の間，応接の間等複数の棟から構成される。いずれも吟味された材料を用いて上質かつ繊細に仕上げた作品で，近代和風住宅の好例である。,https://bunka.nii.ac.jp/heritage/43967/_101337/43967_101337111225010627515_300.jpg
101,00000410,旧マッケンジー住宅,きゅうまっけんじーじゅうたく,1棟,,登録有形文化財(建造物),住宅,建築物,,昭和前,昭和15,1940,木造地上2階地下1階建塔屋付，瓦葺，建築面積283㎡,,22 － 0007,7,1998.01.08(平成10.01.08),1997.12.12(平成9.12.12),,19971212,,造形の規範となっているもの,,静岡県,静岡県静岡市駿河区高松2852,,静岡市,,,34.94562000000000,138.41940000000000,日本茶の輸出に貢献し，各種社会事業にも尽くしたマッケンジー夫妻の旧宅。伊豆半島を望む駿河湾岸の広大な敷地に建つ。W.M.ヴォーリスの設計で，木造２階建，望楼付のスパニッシュスタイルになる。赤瓦屋根とモルタル塗りの白壁の対比がひときわ目立つ。,https://bunka.nii.ac.jp/heritage/43967/_101400/43967_101400111225010709232_300.jpg
101,00000411,隆泉苑表門,りゅうせんえんおもてもん,1棟,,登録有形文化財(建造物),住宅,その他工作,,昭和前,昭和6,1931,木造四脚門袖塀付，瓦葺,,22 － 0008,7,1998.01.08(平成10.01.08),1997.12.12(平成9.12.12),,19971212,,造形の規範となっているもの,,静岡県,静岡県三島市中田町1-43,,公益財団法人佐野美術館,,,35.11570000000000,138.91620000000000,間口の広い両袖塀付の四脚門で，切妻造，桟瓦葺になる。表門の意匠は，左右の袖壁と一体的で，上端を開放的に仕上げ土壁の腰下を縦板貼とする。全体に簡潔な造作としながら，ケヤキの一枚板を用いた門扉は見応えがあり，訪れる人々を魅了している。,https://bunka.nii.ac.jp/heritage/43967/_101401/43967_101401111225010709729_300.jpg
101,00000535,静岡銀行本店（旧静岡三十五銀行本店）,しずおかぎんこうほんてん（きゅうしずおかさんじゅうごぎんこうほんてん）,1棟,,登録有形文化財(建造物),産業3次,建築物,,昭和前,昭和6,1931,鉄筋コンクリート造３階建，建築面積826㎡,,22 － 0010,9,1998.06.09(平成10.06.09),1998.04.21(平成10.04.21),,19980421,,造形の規範となっているもの,,静岡県,静岡県静岡市葵区呉服町1-10,,株式会社静岡銀行,,,34.97576000000000,138.37900000000000,静岡の中心街に建つ銀行社屋。石造風に見せるＲＣ造で，街路に面する２面はいずれも４本のドリス式のオーダーを持ち，交差点からの斜めの外観全体もシンメトリーをなしている。中村與資平の設計で，中規模ではあるが重厚な銀行社屋として親しまれている。,https://bunka.nii.ac.jp/heritage/43967/_101525/43967_101525111225010830407_300.jpg
101,00000684,旅館いな葉,りょかんいなば,1棟,,登録有形文化財(建造物),産業3次,建築物,,大正,大正末頃,1912-1925頃,木造地上３階地下１階塔屋付，瓦葺，建築面積451㎡,,22 － 0012,11,1998.09.25(平成10.09.25),1998.09.02(平成10.09.02),,19980902,,国土の歴史的景観に寄与しているもの,,静岡県,静岡県伊東市東松原町478,,,,,34.97176687000000,139.09741057000000,伊東の中心部を流れる松川河畔に建つ木造３階建の旅館建築で，隣接する「東海館」とともに伊東温泉のシンボルになっている。望楼のある西端部は昭和４年頃，３階は昭和１２年頃の増築とされる。室内の細部意匠にも見所をもつ旅館建築の好個例である。,https://bunka.nii.ac.jp/heritage/43967/_101674/43967_101674463073010872948_300.jpg
101,00000731,常盤家住宅主屋,ときわけじゅうたくしゅおく,1棟,,登録有形文化財(建造物),住宅,建築物,,江戸,江戸末期,1830-1867,木造平屋建，瓦葺，建築面積249㎡,,22 － 0014,12,1998.09.25(平成10.09.25),1998.09.02(平成10.09.02),,19980902,,国土の歴史的景観に寄与しているもの,,静岡県,静岡県富士市岩淵455,,,,富士市（旧富士川町）,35.15306000000000,138.61870000000000,江戸時代を通し富士川の渡船役を務めた旧家で，主屋は，安政元年の地震後の再建という。間口８間，奥行５間半，切妻造の建屋の四方に庇を付ける。平面は，片側が土間で居室部は整形六間取を基本とする。岩淵宿で「小休本陣」として知られた上質の建物である。,https://bunka.nii.ac.jp/heritage/43967/_101721/43967_101721111225011106393_300.jpg
101,00000774,伊藤家住宅主屋,いとうけじゅうたくしゅおく,1棟,,登録有形文化財(建造物),住宅,建築物,,昭和前,昭和14,1939,木造平屋建，瓦葺，建築面積106㎡,,22 － 0015,13,1998.09.25(平成10.09.25),1998.09.02(平成10.09.02),,19980902,,国土の歴史的景観に寄与しているもの,,静岡県,静岡県静岡市清水区上清水町273-4,,,,,35.01029000000000,138.48090000000000,木造平屋建で，屋根は東側が切妻，西側を寄棟とする変則的な構成になり，正面に入母屋屋根の玄関が付設する。内部は，建具や欄間は神代杉を用いた丁寧な造りとなり，座敷はじめ各室とも全体に保存がよい。清水市郊外の戦前の和風住宅の一つとして知られる。,https://bunka.nii.ac.jp/heritage/43967/_101764/43967_101764111225011135860_300.jpg
101,00000775,新井旅館青州楼,あらいりょかんせいしゅうろう,1棟,,登録有形文化財(建造物),産業3次,建築物,,明治,明治14,1881,木造３階建，瓦葺，建築面積276㎡,,22 － 0016,13,1998.09.25(平成10.09.25),1998.09.02(平成10.09.02),,19980902,,国土の歴史的景観に寄与しているもの,,静岡県,静岡県伊豆市修善寺970,,有限会社　新井旅館,,,34.97039000000000,138.92700000000000,修禅寺近く，桂川沿いに位置する修善寺温泉を代表する旅館。明治５年，酒造蔵元から養気館「新井」として創業し，昭和１０年代までに主要施設を整えたとされる。青州楼は，唐破風付きの城郭風建築で，六角塔屋をもち，「新井旅館」のシンボルとなっている。,https://bunka.nii.ac.jp/heritage/43967/_101765/43967_101765372766839950703_300.jpg
101,00000776,新井旅館雪の棟,あらいりょかんゆきのとう,1棟,,登録有形文化財(建造物),産業3次,建築物,,明治,明治32,1899,木造２階建，瓦葺，建築面積258㎡,,22 － 0017,13,1998.09.25(平成10.09.25),1998.09.02(平成10.09.02),,19980902,,造形の規範となっているもの,,静岡県,静岡県伊豆市修善寺字温泉場970他,,有限会社　新井旅館,,,34.97028000000000,138.92660000000000,２代当主が造成した池泉庭園と同時期の増築棟。敷地のほぼ中央，「華の池」から導かれた二つの流れに挟まれた場所に建つ。客室部は木造２階建，真壁造りで，南東に浴室棟を張りだす。浴室棟はムクリ付の入母屋の屋根に煙だしの小屋根を載せた特徴的な建物。,https://bunka.nii.ac.jp/heritage/43967/_101766/43967_101766048670198891082_300.jpg
101,00000777,新井旅館渡りの橋,あらいりょかんわたりのはし,1棟,,登録有形文化財(建造物),産業3次,その他工作物,,明治,明治32,1899,木造平屋建，瓦葺，建築面積258㎡,,22 － 0018,13,1998.09.25(平成10.09.25),1998.09.02(平成10.09.02),,19980902,,再現することが容易でないもの,,静岡県,静岡県伊豆市修善寺970,,有限会社　新井旅館,,,34.97034000000000,138.92660000000000,新井旅館の本館ともいうべき｢月の棟｣と｢雪の棟｣とを連絡する。屋根付きの太鼓橋で，床は，小幅板を目透かしに貼って水流を見せる趣向をとり，滑り止めの横木を打つ。宿泊客が来館記念の写真を撮る格好の場所となっている。,https://bunka.nii.ac.jp/heritage/43967/_101767/43967_101767863631750639838_300.jpg
101,00000778,新井旅館霞の棟,あらいりょかんかすみのとう,1棟,,登録有形文化財(建造物),産業3次,建築物,,明治,明治41,1908,木造３階建，瓦葺，建築面積170㎡,,22 － 0019,13,1998.09.25(平成10.09.25),1998.09.02(平成10.09.02),,19980902,,再現することが容易でないもの,,静岡県,静岡県伊豆市修善寺970,,有限会社　新井旅館,,,34.97012000000000,138.92670000000000,「雪の棟」の南方に位置し，南に桂川を臨む。１階は半地下の宴会場，２階３階客室構成の建物で，瓦葺入母屋屋根の妻を塗込め，真壁造りの外観とする。客室は，赤松の芯去り材の極上物で造られ，随所に優れた木工技術と用材の妙を見ることができる。,https://bunka.nii.ac.jp/heritage/43967/_101768/43967_101768835209384347321_300.jpg
101,00000779,新井旅館桐の棟,あらいりょかんきりのとう,1棟,,登録有形文化財(建造物),産業3次,建築物,,大正,大正5,1916,木造２階建，瓦葺，建築面積178㎡,,22 － 0020,13,1998.09.25(平成10.09.25),1998.09.02(平成10.09.02),,19980902,,国土の歴史的景観に寄与しているもの,,静岡県,静岡県伊豆市修善寺字小坂980他,,有限会社　新井旅館,,,34.97044000000000,138.92630000000000,「雪の棟」の北西，「華の池」に接して建ち，池中の「乙姫島」に対峙する。木造２階建の客室棟で，瓦葺の入母屋屋根に緩やかなムクリをつける。南面は，２階軒庇を瓦葺，１階庇を銅板葺とし，真壁造りによる端正な立面を水面に映す。,https://bunka.nii.ac.jp/heritage/43967/_101769/43967_101769370964608253730_300.jpg
101,00000780,新井旅館月の棟,あらいりょかんつきのとう,1棟,,登録有形文化財(建造物),産業3次,建築物,,大正,大正8,1919,木造一部鉄筋コンクリート造地上３階地下１階建，瓦葺，建築面積599㎡,,22 － 0021,13,1998.09.25(平成10.09.25),1998.09.02(平成10.09.02),,19980902,,造形の規範となっているもの,,静岡県,静岡県伊豆市修善寺字温泉場970他,,有限会社　新井旅館,,,34.97044000000000,138.92670000000000,新井旅館の本館ともいうべき棟で，玄関ロビー，フロント，厨房，館主の住居部を含む。木造３階建，真壁造りで，東面に正面玄関を設ける。玄関車寄は中央を一段高く突き上げた造りで，平等院鳳凰堂を模したと伝える。,https://bunka.nii.ac.jp/heritage/43967/_101770/43967_101770619706166991275_300.jpg
101,00000781,新井旅館甘泉楼,あらいりょかんかんせんろう,1棟,,登録有形文化財(建造物),産業3次,建築物,,大正,大正13,1924,木造２階建，銅板葺，建築面積411㎡,,22 － 0022,13,1998.09.25(平成10.09.25),1998.09.02(平成10.09.02),,19980902,,国土の歴史的景観に寄与しているもの,,静岡県,静岡県伊豆市修善寺字温泉場968-3,,株式会社桂川,営利法人,,34.97062000000000,138.92700000000000,修禅寺寄りの敷地のメイン建物で，「月の棟」とは地下通路で結ばれる。１階を大浴場（現在は温泉プール），２階を１２０畳舞台付大広間とし，南面と北面の柱１本置きに舟肘木を付け，外部に硝子障子を建て回す。瓦棒銅板葺の大屋根が他の棟と対照をなす。,https://bunka.nii.ac.jp/heritage/43967/_101771/43967_101771111225011141930_300.jpg
101,00000782,新井旅館紅葉,あらいりょかんもみじ,1棟,,登録有形文化財(建造物),産業3次,建築物,,昭和前,昭和2,1927,木造平屋建，瓦葺，建築面積82㎡,,22 － 0023,13,1998.09.25(平成10.09.25),1998.09.02(平成10.09.02),,19980902,,造形の規範となっているもの,,静岡県,静岡県伊豆市修善寺小坂995,,有限会社　新井旅館,,,34.97084000000000,138.92670000000000,"南と東の２面に広縁をもつ８畳６畳続きの上質の客室棟で，「甘泉楼」の北西に建ち,「甘泉楼」とは渡廊下で結ばれる｡外部意匠は，屋根瓦に京都産のものを用い，庇回りを銅板葺，外壁をベンガラ色とするなど京風の趣をみせる。",https://bunka.nii.ac.jp/heritage/43967/_101772/43967_101772684655262962189_300.jpg
101,00000783,新井旅館山陽荘,あらいりょかんさんようそう,1棟,,登録有形文化財(建造物),産業3次,建築物,,昭和前,昭和3,1928,木造２階建，瓦葺，建築面積118㎡,,22 － 0024,13,1998.09.25(平成10.09.25),1998.09.02(平成10.09.02),,19980902,,造形の規範となっているもの,,静岡県,静岡県伊豆市修善寺字小坂995,,有限会社　新井旅館,,,34.97098000000000,138.92680000000000,「紅葉」の北，敷地の最奥部に位置する。横山大観の滞在用に建てられた棟で，１階２階共１２畳半１０畳続きの間をもち，北と南の２面に縁廊下を付す。真壁造りとし，勾配の緩い寄棟屋根を架けたのびやかな構成をとる。｢大観ギャラリー｣として開放されている。,https://bunka.nii.ac.jp/heritage/43967/_101773/43967_101773620176481727269_300.jpg
101,00000784,新井旅館天平風呂,あらいりょかんてんぴょうぶろ,1棟,,登録有形文化財(建造物),産業3次,建築物,,昭和前,昭和9,1934,木造平屋建，瓦葺，建築面積113㎡,,22 － 0025,13,1998.09.25(平成10.09.25),1998.09.02(平成10.09.02),,19980902,,再現することが容易でないもの,,静岡県,静岡県伊豆市修善寺字温泉場970他,,有限会社　新井旅館,,,34.97027000000000,138.92700000000000,"「青州楼」の南,「あやめの棟」との間に建つ４間×４間,本瓦葺，総檜の浴場建築。３代当主と親交深った安田靫彦が，ビザンチン様式の計画案を天平様式に変え，自ら設計にあたったとされる。浴場内から池の鯉を眺める趣向もユニークである。",https://bunka.nii.ac.jp/heritage/43967/_101774/43967_101774987094733815531_300.jpg
101,00000785,新井旅館あやめの棟,あらいりょかんあやめのとう,1棟,,登録有形文化財(建造物),産業3次,建築物,,昭和前,昭和7,1932,木造一部鉄筋コンクリート造地上２階地下１階建，瓦葺，建築面積111㎡,,22 － 0026,13,1998.09.25(平成10.09.25),1998.09.02(平成10.09.02),,19980902,,造形の規範となっているもの,,静岡県,静岡県伊豆市修善寺970,,有限会社　新井旅館,,,34.97020000000000,138.92700000000000,｢天平風呂｣の南に隣接して建つ。木造２階建で，１階・２階は１０畳間を主室とする２客室づつの構成をとり，地階に「あやめ風呂」を設ける。「あやめ風呂」は，「天平風呂」と同様に池に面し，池中が見える仕組みになっている。,https://bunka.nii.ac.jp/heritage/43967/_101775/43967_101775954763237518071_300.jpg
101,00000786,新井旅館花の棟,あらいりょかんはなのとう,1棟,,登録有形文化財(建造物),産業3次,建築物,,昭和前,昭和9,1934,木造２階建，瓦葺，建築面積248㎡,,22 － 0027,13,1998.09.25(平成10.09.25),1998.09.02(平成10.09.02),,19980902,,造形の規範となっているもの,,静岡県,静岡県伊豆市修善寺字久保1026-1他,,有限会社　新井旅館,,,34.97009000000000,138.92630000000000,"「雪の棟」の南西に位置し，「華の池」を挟んで「桐の棟」に向き合う｡南は桂川を眼下に見,対岸の竹林を借景とする｡木造２階建,１階・２階共４客室の客室棟で，庇を銅板葺とするなど数寄屋風の趣をもつ。安田靫彦の監修になるとされる。",https://bunka.nii.ac.jp/heritage/43967/_101776/43967_101776720901697671552_300.jpg
101,00000787,新井旅館吉野の棟,あらいりょかんよしののとう,1棟,,登録有形文化財(建造物),産業3次,建築物,,昭和前,昭和10,1935,木造２階建，瓦葺，建築面積231㎡,,22 － 0028,13,1998.09.25(平成10.09.25),1998.09.02(平成10.09.02),,19980902,,造形の規範となっているもの,,静岡県,静岡県伊豆市修善寺1026-1・2、1027,,有限会社　新井旅館,,,34.97006000000000,138.92600000000000,"「花の棟」の西,敷地の西南端に建つ離れ風の客室棟で,「花の棟」と連絡はしているものの，別個の玄関をもつ。各客室の間取りもゆったりとり，天城杉の良材を用いるなど当時新井旅館が最も力を注いだ建築とされる。",https://bunka.nii.ac.jp/heritage/43967/_101777/43967_101777335325585352408_300.jpg
101,00000788,新井旅館観音堂,あらいりょかんかんのんどう,1棟,,登録有形文化財(建造物),産業3次,建築物,,昭和前,昭和11,1936,鉄筋コンクリート造平屋建，瓦葺，建築面積17㎡,,22 － 0029,13,1998.09.25(平成10.09.25),1998.09.02(平成10.09.02),,19980902,,造形の規範となっているもの,,静岡県,静岡県伊豆市修善寺978-1,,相原　昌一郎,,,34.97042000000000,138.92580000000000,新井旅館当主相原家の持仏堂で，敷地の西北隅に南面して建つ。鉄筋コンクリートで円柱・斗・舟肘木を造り，本瓦葺の宝形屋根を架ける。新潟県出雲崎の良寛堂（大正１１年）と形式を同一としていることから，安田靫彦の関与が推測される。,https://bunka.nii.ac.jp/heritage/43967/_101778/43967_101778216533484999673_300.jpg
101,00000789,新井旅館水蔵,あらいりょかんみずぐら,1棟,,登録有形文化財(建造物),産業3次,建築物,,昭和前,昭和18,1943,鉄筋コンクリート造平屋建，建築面積20㎡,,22 － 0030,13,1998.09.25(平成10.09.25),1998.09.02(平成10.09.02),,19980902,,再現することが容易でないもの,,静岡県,静岡県伊豆市修善寺978-1,,有限会社　新井旅館,,,34.97047000000000,138.92590000000000,相原家所有になる重要文物類の収蔵庫で，「観音堂」の東に隣接して建つ。半地下形式の鉄筋コンクリート造陸屋根の建物で，周囲に７０ｃｍ幅の石積みの堀を回す。万一の場合，堀に水を引き入れて収蔵品を守ろうというユニークなものである。,https://bunka.nii.ac.jp/heritage/43967/_101779/43967_101779751394843379620_300.jpg
101,00000828,東海道名主の館（小池家住宅）,とうかいどうなぬしのやかた（こいけけじゅうたく）,1棟,,登録有形文化財(建造物),住宅,建築物,,明治,明治後期,1868-1911,木造平屋建，瓦葺，建築面積131㎡,,22 － 0031,14,1998.10.26(平成10.10.26),1998.10.09(平成10.10.09),,19981009,,国土の歴史的景観に寄与しているもの,,静岡県,静岡県静岡市清水区寺尾464,,静岡市,,,35.09161000000000,138.54850000000000,小池家は，江戸時代は代々寺尾村の名主を務めた旧家で，現在の主屋は，由比町の初代助役を務めた先々代が建てたといわれる。切妻造，瓦葺の平屋建住居で，西側を土間とし東側の居室部は田の字型の伝統的な平面を保つ。名主の家として保存公開されている。,https://bunka.nii.ac.jp/heritage/43967/_101818/43967_101818111225011216882_300.jpg
101,00000829,大旅籠柏屋,おおはたごかしわや,1棟,,登録有形文化財(建造物),産業3次,建築物,,江戸,天保7頃,1836頃,木造２階建，瓦葺，建築面積270㎡,,22 － 0032,14,1998.10.26(平成10.10.26),1998.10.09(平成10.10.09),,19981009,,国土の歴史的景観に寄与しているもの,,静岡県,静岡県藤枝市岡部町岡部817,,藤枝市,,,34.86744000000000,138.25770000000000,旧東海道岡部宿を代表する旅籠屋の一つで，宿の北寄りに建つ桁行九間，梁間八間半の大型の町家である。明治中期頃に廃業した後，間取りの変更や棟を上げて桟瓦葺に変えるなど改造があるが，全体として保存はよい。近年保存修理され，公開活用されている。,https://bunka.nii.ac.jp/heritage/43967/_101819/43967_101819111225011217382_300.jpg
101,00000964,天竜浜名湖鉄道機関車転車台,てんりゅうはまなこてつどうきかんしゃてんしゃだい,1基,,登録有形文化財(建造物),交通,その他工作,,昭和前,昭和15,1940,鉄製転車台，直径約18.4m,,22 － 0033,15,1998.12.25(平成10.12.25),1998.12.11(平成10.12.11),,19981211,,国土の歴史的景観に寄与しているもの,,静岡県,静岡県浜松市天竜区二俣町阿蔵230-2,,天竜浜名湖鉄道株式会社,,,34.85842000000000,137.82260000000000,扇形車庫の手前に位置する。全体の直径は約１８．４ｍ，下路式の当時では標準的な転車台で，中央に門型の鉄柱を建て，運転室とともに３６０度回転する。天竜運転区の核となる施設で，扇形車庫とともに天竜浜名湖鉄道のシンボルとなっている。,https://bunka.nii.ac.jp/heritage/43967/_101954/43967_101954111225011342289_300.jpg
101,00000965,天竜浜名湖鉄道機関車扇形車庫,てんりゅうはまなこてつどうきかんしゃせんけいしゃこ,1棟,,登録有形文化財(建造物),交通,建築物,,昭和前,昭和15,1940,木造平屋建，鉄板葺，建築面積686㎡,,22 － 0034,15,1998.12.25(平成10.12.25),1998.12.11(平成10.12.11),,19981211,,再現することが容易でないもの,,静岡県,静岡県浜松市天竜区二俣町阿蔵230-2,,天竜浜名湖鉄道株式会社,,,34.85830000000000,137.82280000000000,転車台とセットとなる。当初は６線分であったが，転車台から見て右側の２線分が切り縮められているが，他は主として車両の留置に用いられている。総木造で，庫内に下る柱を少なくするために力強い架構をもつ。現在では数少ない現役扇形庫の好例である。,https://bunka.nii.ac.jp/heritage/43967/_101955/43967_101955111225011342781_300.jpg
101,00000966,天竜浜名湖鉄道運転区事務室,てんりゅうはまなこてつどううんてんくじむしつ,1棟,,登録有形文化財(建造物),交通,建築物,,昭和前,昭和15,1940,木造２階建，瓦葺，建築面積388㎡,,22 － 0035,15,1998.12.25(平成10.12.25),1998.12.11(平成10.12.11),,19981211,,国土の歴史的景観に寄与しているもの,,静岡県,静岡県浜松市天竜区二俣町阿蔵230-2,,天竜浜名湖鉄道株式会社,,,34.85836000000000,137.82220000000000,東海道本線のバイパス線として昭和15年に全通した旧国鉄二俣線の二俣機関区の事務室として建てられた。大きな窓を配した立ちの高い立面が特徴的な建物で，構内を見渡せる位置に建ち，１階には運転司令室などを配し，２階は会議室とする。,https://bunka.nii.ac.jp/heritage/43967/_101956/43967_101956111225011343290_300.jpg
101,00000967,天竜浜名湖鉄道運転区浴場,てんりゅうはまなこてつどううんてんくよくじょう,1棟,,登録有形文化財(建造物),交通,建築物,,昭和前,昭和15,1940,木造平屋建，瓦葺，建築面積96㎡,,22 － 0036,15,1998.12.25(平成10.12.25),1998.12.11(平成10.12.11),,19981211,,国土の歴史的景観に寄与しているもの,,静岡県,静岡県浜松市天竜区二俣町阿蔵230-2,,天竜浜名湖鉄道株式会社,,,34.85828000000000,137.82210000000000,事務室の裏側に平行して建ち，洗濯所，脱衣場，浴室の３室からなる。浴室には中央に大浴槽，隅に小浴槽を持ち，周囲を湯が巡るようになっている。蒸気機関車の乗務員区である機関区には必須の設備であり，機関区の機能を知るのに欠かせない建築である。,https://bunka.nii.ac.jp/heritage/43967/_101957/43967_101957111225011343797_300.jpg
101,00000968,天竜浜名湖鉄道運転区休憩所,てんりゅうはまなこてつどううんてんくきゅうけいしょ,1棟,,登録有形文化財(建造物),交通,建築物,,昭和前,昭和15,1940,木造平屋建，瓦葺，建築面積71㎡,,22 － 0037,15,1998.12.25(平成10.12.25),1998.12.11(平成10.12.11),,19981211,,国土の歴史的景観に寄与しているもの,,静岡県,静岡県浜松市天竜区二俣町阿蔵230-2,,天竜浜名湖鉄道株式会社,,,34.85833000000000,137.82200000000000,事務室等の背面に，浴場と並んで建ち，浴場と同様に，事務室棟との間に屋根を渡してつないでいる。内部に休憩室，湯沸所，青写真室，便所を配している。機関区の活況を今に伝える施設として貴重である。,https://bunka.nii.ac.jp/heritage/43967/_101958/43967_101958111225011344052_300.jpg
101,00001073,大村家住宅,おおむらけじゅうたく,1棟,,登録有形文化財(建造物),住宅,建築物,,江戸,江戸時代後期,1751-1829,木造平屋建，茅葺，建築面積189㎡,,22 － 0038,16,1999.03.12(平成11.03.12),1999.02.17(平成11.02.17),,19990217,,国土の歴史的景観に寄与しているもの,,静岡県,静岡県静岡市葵区平野1052,,,,,35.14553000000000,138.36760000000000,祖先が武田家の家臣であったとつたえる旧家で，住宅は安倍川の北に広がる緩斜面に建つ。養蚕のために屋根をかぶと造とした大規模な民家建築で，常盤新平の小説の舞台となる等，広く親しまれている。県内で数少ないかぶと造の民家としても貴重。,https://bunka.nii.ac.jp/heritage/43967/_102063/43967_102063111225011437933_300.jpg
101,00001112,清水寺本堂,きよみずでらほんどう,1棟,,登録有形文化財(建造物),宗教,建築物,,昭和前,昭和6,1931,鉄筋コンクリート造平屋建，建築面積186㎡,,22 － 0040,17,1999.07.19(平成11.07.19),1999.06.07(平成11.06.07),,19990607,,造形の規範となっているもの,,静岡県,静岡県静岡市葵区音羽町27-8,,清水寺,,,34.97925000000000,138.39650000000000,清水山公園に隣接した境内地に建つ鉄筋コンクリート造の本堂。正面７間に円柱を配し、中央３間は二手先として向拝風に切り上げた軒を支える。設計は神戸高等工業学校長古宇田実で、東京の島藤が請負った。切妻屋根を持つ特異な形態の本堂として知られる。,https://bunka.nii.ac.jp/heritage/43967/_102102/43967_102102111225011455993_300.jpg
101,00001356,依田家住宅表門,よだけじゅうたくおもてもん,1棟,,登録有形文化財(建造物),住宅,建築物,,江戸,江戸後期,1751-1829,木造平屋建、瓦葺、建築面積24㎡,,22 － 0050,20,1999.10.28(平成11.10.28),1999.10.14(平成11.10.14),,19991014,,国土の歴史的景観に寄与しているもの,,静岡県,静岡県賀茂郡松崎町大沢153,,松崎町,市区町村,,34.75795949000000,138.82989738000000,賀茂川右岸の旧街道に面して建つ切妻造，瓦葺の長屋門。間口が切り縮められているが，両開きの板戸と片開きの潜り戸を設けた通り口と，その東側半間分の１室が残る。名主を務めるとともに回船業を営んでいた旧家の表構えを伝える。,https://bunka.nii.ac.jp/heritage/43967/_102346/43967_102346384906721803413_300.jpg
101,00001357,依田家住宅中門,よだけじゅうたくちゅうもん,1棟,,登録有形文化財(建造物),住宅,その他工作物,,明治,明治中期,1868-1911,木造、瓦葺、長さ2.5m、板塀14.5m附属,,22 － 0051,20,1999.10.28(平成11.10.28),1999.10.14(平成11.10.14),,19991014,,国土の歴史的景観に寄与しているもの,,静岡県,静岡県賀茂郡松崎町大沢153,,松崎町,市区町村,,34.75803397000000,138.82986651000000,表門の北方約６メートルに位置して建つ瓦葺，切妻屋根の棟門。親柱間に両開きの板扉を構え，親柱の斜め後方に控柱を備える。左右に竪板張りの板塀が接続して主屋の前面を画しており，屋敷構えを構成する主要な要素となっている。,https://bunka.nii.ac.jp/heritage/43967/_102347/43967_102347534751079333349_300.jpg
101,00001358,依田家住宅塀,よだけじゅうたくへい,1棟,,登録有形文化財(建造物),住宅,その他工作物,,明治,明治中期,1868-1911,木造、瓦葺、延長22.5m,,22 － 0052,20,1999.10.28(平成11.10.28),1999.10.14(平成11.10.14),,19991014,,国土の歴史的景観に寄与しているもの,,静岡県,静岡県賀茂郡松崎町大沢153,,松崎町,市区町村,,34.75807358000000,138.82965312000000,主屋の南面から西面にかけて矩折りに曲がる真壁造の土塀。総延長１８間で，内側には２間毎に控え柱を立て，屋根は桟瓦葺とする。白漆喰塗りで，外側は腰下見板張とする。東南方に接続する板塀とともに棟の高さを変えながら塀が雁行型に連なる姿に特色がある。,https://bunka.nii.ac.jp/heritage/43967/_102348/43967_102348071141091795671_300.jpg
101,00001359,依田家住宅カマヤ,よだけじゅうたくかまや,1棟,,登録有形文化財(建造物),住宅,建築物,,江戸,江戸後期,1751-1829,土蔵造平屋建、瓦葺、建築面積33㎡,,22 － 0053,20,1999.10.28(平成11.10.28),1999.10.14(平成11.10.14),,19991014,,再現することが容易でないもの,,静岡県,静岡県賀茂郡松崎町大沢153,,松崎町,市区町村,,34.75821617000000,138.83001599000000,主屋の東方に位置する平屋建て，土蔵造の建築。屋根は，切妻造，桟瓦葺で，南妻を正面とする。腰壁の一部を下見板張とし，妻壁はなまこ壁で，煙出窓を設ける。主屋と別棟の釜屋を構えた古い時期の屋敷構えを伝えるものとして数少ない例。,https://bunka.nii.ac.jp/heritage/43967/_102349/43967_102349251345632564181_300.jpg
101,00001412,眠雲閣落合樓玄関棟,みんうんかくおちあいろうげんかんとう,1棟,,登録有形文化財(建造物),産業3次,建築物,,昭和前,昭和8,1933,木造平屋建、瓦葺、建築面積80㎡,,22 － 0057,21,1999.12.02(平成11.12.02),1999.11.18(平成11.11.18),,19991118,,造形の規範となっているもの,,静岡県,静岡県伊豆市湯ヶ島1887-1,,株式会社落合楼村上,,,34.88971000000000,138.92750000000000,湯ヶ島温泉街は伊豆半島のほぼ中央に位置する。眠雲閣は明治７年の創業で，本谷川と猫越川が合流して狩野川の起点となる景勝地に建っている。入母屋造・平屋建・桟瓦葺の玄関棟は，昭和初期の施設建設時の最初に建てられ，彫刻欄間等に品格が感じられる。,https://bunka.nii.ac.jp/heritage/43967/_102402/43967_102402111225011805692_300.jpg
101,00001413,眠雲閣落合樓本館,みんうんかくおちあいろうほんかん,1棟,,登録有形文化財(建造物),産業3次,建築物,,昭和前,昭和8～10,1933-1935,木造2階建、銅板葺、建築面積356㎡,,22 － 0058,21,1999.12.02(平成11.12.02),1999.11.18(平成11.11.18),,19991118,,造形の規範となっているもの,,静岡県,静岡県伊豆市湯ヶ島1887-1,,株式会社落合楼村上,,,34.88942000000000,138.92780000000000,敷地南東部に建つ本館は，木造２階建・入母屋造・銅板瓦棒葺の形式である。東と南の客室から渓流を望めるよう，鍵形の平面となっている。柱や長押等は良質の桧で統一し，各室の床・棚などに銘木奇木を用い，全体に優れた室内意匠を構成している。,https://bunka.nii.ac.jp/heritage/43967/_102403/43967_102403111225011807143_300.jpg
101,00001414,眠雲閣落合樓眠雲亭,みんうんかくおちあいろうみんうんてい,1棟,,登録有形文化財(建造物),産業3次,建築物,,昭和前,昭和8～12,1933-1937,木造2階建、瓦葺、建築面積215㎡,,22 － 0059,21,1999.12.02(平成11.12.02),1999.11.18(平成11.11.18),,19991118,,造形の規範となっているもの,,静岡県,静岡県伊豆市湯ヶ島1887-1,,株式会社落合楼村上,,,34.88932000000000,138.92740000000000,創業時は「眠雲樓」と称したが，明治１４年に逗留した山岡鉄舟が「落合樓」と命名し，現在の名称となった。敷地南端最奥に建つ木造２階建の眠雲亭は質の高い数寄屋風の意匠で，瀟洒な雰囲気をもっている。各室には源氏物語に因んだ桐板透彫欄間を用いている。,https://bunka.nii.ac.jp/heritage/43967/_102404/43967_102404111225011807651_300.jpg
101,00001415,眠雲閣落合樓紫檀宴会場,みんうんかくおちあいろうしたんえんかいじょう,1棟,,登録有形文化財(建造物),産業3次,建築物,,昭和前,昭和8～12,1933-1937,木造2階建、瓦葺、建築面積378㎡,,22 － 0060,21,1999.12.02(平成11.12.02),1999.11.18(平成11.11.18),,19991118,,造形の規範となっているもの,,静岡県,静岡県伊豆市湯ヶ島1887-1,,株式会社落合楼村上,,,34.88945000000000,138.92730000000000,眠雲亭の北側，持越街道に沿って建つ紫檀宴会場は，木造２階建・入母屋造・桟瓦葺の大建築である。一階が３０畳余の宴会場３室，２階が１０８畳の大宴会場で，特に大宴会場は出節の紫檀の柱・框で構成した床構えや，洗練された棚・付書院等に見所がある。,https://bunka.nii.ac.jp/heritage/43967/_102405/43967_102405111225011808164_300.jpg
101,00001416,眠雲閣落合樓配膳室階段棟,みんうんかくおちあいろうはいぜんしつかいだんとう,1棟,,登録有形文化財(建造物),産業3次,建築物,,昭和前,昭和8～12,1933-1937,木造2階建、瓦葺、建築面積73㎡,,22 － 0061,21,1999.12.02(平成11.12.02),1999.11.18(平成11.11.18),,19991118,,造形の規範となっているもの,,静岡県,静岡県伊豆市湯ヶ島1887-1,,株式会社落合楼村上,,,34.88940000000000,138.92740000000000,眠雲亭と紫檀宴会場を接続する木造２階建・入母屋造・桟瓦葺の建物で，北半が階段室，南半が配膳室になる。附属的な建築ながら，材料も良質で，高い建築技術が伺える。ちなみに，近在の大滝に住む棟梁青木清平が，玄関棟・本館など一連の建設を手がけている。,https://bunka.nii.ac.jp/heritage/43967/_102406/43967_102406111225011808669_300.jpg
101,00001517,光長寺御宝蔵,こうちょうじごほうぞう,1棟,,登録有形文化財(建造物),宗教,建築物,,昭和前,昭和4,1929,鉄筋コンクリート造平屋建、銅板葺、建築面積41㎡,,22 － 0062,22,2000.03.02(平成12.03.02),2000.02.15(平成12.02.15),,20000215,,再現することが容易でないもの,,静岡県,静岡県沼津市岡宮1055,,宗教法人光長寺,,,35.12821000000000,138.87490000000000,法華宗大本山光長寺境内の東北隅に建つ鉄筋コンクリート造の六角堂。銅板葺の屋根は尖塔状に反り上がり，モルタルで造られた虹梁・木鼻・蟇股・大瓶束が向拝柱，外壁を飾る。モルタルの外装材としての可能性を示した作品。設計は金田恭介，施工は内田金五郎。,https://bunka.nii.ac.jp/heritage/43967/_102507/43967_102507111225011906737_300.jpg
101,00001518,清水港テルファー,しみずこうてるふぁー,1基,,登録有形文化財(建造物),交通,その他工作,,昭和前,昭和3,1928,鉄骨造、幅9m、高さ11m、延長110m,,22 － 0063,22,2000.03.02(平成12.03.02),2000.02.15(平成12.02.15),,20000215,,国土の歴史的景観に寄与しているもの,,静岡県,静岡県静岡市清水区新港町7-7,,静岡県清水港管理局,,,35.01115000000000,138.49310000000000,国鉄清水港線清水港駅に木材積込用に建設された鉄道施設。全体として延長１１０ｍのコの字をしている。１１ｍの高さに９ｍ幅で架設されたⅠ型鋼の下縁に沿って，運転手室付きの電動捲揚装置が走行する。水運と陸運間の交通結節点としての港湾の近代化を物語る施設。,https://bunka.nii.ac.jp/heritage/43967/_102508/43967_102508111225011907244_300.jpg
101,00001617,大中寺恩香殿,だいちゅうじおんこうでん,1棟,,登録有形文化財(建造物),宗教,建築物,,明治,明治42,1909,木造平屋建、銅板葺、建築面積90㎡,,22 － 0064,23,2000.05.17(平成12.05.17),2000.04.28(平成12.04.28),,20000428,,国土の歴史的景観に寄与しているもの,,静岡県,静岡県沼津市中沢田457,,宗教法人大中寺,,,35.12288000000000,138.85430000000000,大中寺は沼津市郊外に位置する梅園で名高い臨済宗寺院であり，恩香殿は沼津御用邸に滞在中の皇族の観梅などの際の休息所として建築された。広間と前室の三方に広縁を廻し，広間背後に茶室を設ける。敷地の高低差を活かし庭園と一体的な景観を構成する。,https://bunka.nii.ac.jp/heritage/43967/_102607/43967_102607009890967368096_300.jpg
101,00001618,大中寺通玄橋,だいちゅうじつうげんばし,1基,,登録有形文化財(建造物),宗教,建築物,,明治,明治42,1909,木造平屋建、瓦葺、橋長6m,,22 － 0065,23,2000.05.17(平成12.05.17),2000.04.28(平成12.04.28),,20000428,,国土の歴史的景観に寄与しているもの,,静岡県,静岡県沼津市中沢田457,,宗教法人大中寺,,,35.12276000000000,138.85430000000000,庫裏から恩香殿の南妻側に通じる太鼓橋風の渡り廊下で，切妻造の屋根を架ける。高欄や垂れ壁などのデザインに特色がある。庫裏の建て替えに伴ってわずかに位置を変更しているが，恩香殿と同時期の建築であり一体の歴史的景観を構成している。,https://bunka.nii.ac.jp/heritage/43967/_102608/43967_102608111225012012554_300.jpg
101,00001619,安田屋旅館松棟,やすだやりょかんまつとう,1棟,,登録有形文化財(建造物),産業3次,建築物,,大正,大正7,1918,木造2階建、瓦葺、建築面積147㎡,,22 － 0066,23,2000.05.17(平成12.05.17),2000.04.28(平成12.04.28),,20000428,,国土の歴史的景観に寄与しているもの,,静岡県,静岡県沼津市内浦三津19,,,,,35.02034000000000,138.89730000000000,月棟に隣接して建つ木造総二階建の和風建築で，入母屋の棟を雁行型に並べた形式で，月棟と一体の景観を見せる。広い螺旋階段などに特色があり，障子や欄間などの細部も優れる。二階の主室は太宰治が逗留して「斜陽」を執筆した所として知られる。,https://bunka.nii.ac.jp/heritage/43967/_102609/43967_102609111225012014286_300.jpg
101,00001620,安田屋旅館月棟,やすだやりょかんつきとう,1棟,,登録有形文化財(建造物),産業3次,建築物,,昭和前,昭和6,1931,木造2階建、瓦葺、建築面積184㎡,,22 － 0067,23,2000.05.17(平成12.05.17),2000.04.28(平成12.04.28),,20000428,,国土の歴史的景観に寄与しているもの,,静岡県,静岡県沼津市内浦三津19,,,,,35.02025000000000,138.89720000000000,安田屋は内浦湾岸に位置する明治創業の老舗旅館で，西北方に淡島と富士山を望む景勝の地に位置することから尾崎行雄により対岳荘と名付けられた。月棟は木造総二階建の上質な和風建築であり，窓廻り等に改造あるが建築当時の趣を良く伝えている。,https://bunka.nii.ac.jp/heritage/43967/_102610/43967_102610111225012014540_300.jpg
101,00001710,清水寺鐘楼,きよみずでらしょうろう,1棟,,登録有形文化財(建造物),宗教,建築物,,大正,大正8,1919,木造平屋建、瓦葺、建築面積27㎡,,22 － 0068,24,2000.05.25(平成12.05.25),2000.04.28(平成12.04.28),,20000428,,造形の規範となっているもの,,静岡県,静岡県静岡市葵区音羽町27-8,,清水寺,,,34.97958000000000,138.39620000000000,方一間、四方吹き放しの鐘台で、屋根は入母屋造、本瓦葺とする。本柱と間柱上に尾垂木付の組物を置いて華やかな軒廻りとする。青銅鋳物製の隅支柱に蓮をモチーフとする意匠を施し、蟇股や木鼻の意匠にも特色がある。設計は東京美術学校の古宇田實。,https://bunka.nii.ac.jp/heritage/43967/_102700/43967_102700111225012118377_300.jpg
101,00001774,旧五十嵐歯科医院,きゅういがらししかいいん,1棟,,登録有形文化財(建造物),文化福祉,建築物,,大正,大正3頃／昭和16増築,1924頃／1986増築,木造2階建、瓦葺、建築面積199㎡,,22 － 0070,25,2000.10.11(平成12.10.11),2000.09.26(平成12.09.26),,20000926,,国土の歴史的景観に寄与しているもの,,静岡県,静岡県静岡市清水区蒲原3-23-3,,清水区,,,35.11981000000000,138.60320000000000,旧東海道筋に建つ木造２階建の洋風建築。在来の町屋の間取りを残しつつ，外観と内装一部が改造された。寄棟造瓦葺で硝子窓の開口部を広くとり，その他壁面を下見板張とし，玄関及び増築された西棟正面に軒板飾を付ける。地元の大工吉田源吉の設計と伝わる。,https://bunka.nii.ac.jp/heritage/43967/_102764/43967_102764111225012158832_300.jpg
101,00001775,大井上康学術文献資料館（旧大井上理農学研究所事務所及び実験所）,おおいのうえやすしがくじゅつぶんけんしりょうかん（きゅうおおいのうえりのうがくけんきゅうしょじむしょおよびじっけんしょ）,1棟,,登録有形文化財(建造物),産業1次,建築物,,大正,大正8,1919,木造平屋建、鉄板葺、建築面積103㎡,,22 － 0069,25,2000.10.11(平成12.10.11),2000.09.26(平成12.09.26),,20000926,,造形の規範となっているもの,,静岡県,静岡県伊豆市上白岩2000,,,,,34.95882000000000,138.97580000000000,理学者大井上康が，葡萄研究所として自ら設計した木造，鉄板瓦棒葺，平屋建の洋風建築。正面に，方杖に支えられた玄関ポーチと上げ下げ窓を配し，外装を主として下見板張とする瀟洒な建物。品種改良の末，ここで初めて「巨峰」が栽培されたと云われる。,https://bunka.nii.ac.jp/heritage/43967/_102765/43967_102765111225012200646_300.jpg
101,00001911,懐古堂ムラカミ屋,かいこどうむらかみや,1棟,,登録有形文化財(建造物),産業3次,建築物,,大正,大正15,1926,木造2階建、鉄板葺、建築面積136㎡,,22 － 0071,26,2000.11.06(平成12.11.06),2000.10.18(平成12.10.18),,20001018,,造形の規範となっているもの,,静岡県,静岡県三島市大社町18-5,,,,,35.11972000000000,138.91950000000000,関東大震災後，三嶋大社前の商店街に建てられた看板建築。木造２階建，鉄板葺で，ショーウィンドーを入口両側に，２階窓を水平に構え，正面左右対称とする。ファサード一面を銅板で仕上げ，軒蛇腹と窓下で張り方に変化をつける。現在ギャラリーとして活用。,https://bunka.nii.ac.jp/heritage/43967/_102901/43967_102901111225012338572_300.jpg
101,00002043,遍界山不去来庵本堂（渡邉家持仏堂）,へんかいさんふきょらいあんほんどう（わたなべけじぶつどう）,1棟,,登録有形文化財(建造物),住宅,建築物,,大正,大正4,1915,土蔵造平屋建、瓦葺、建築面積63㎡,,22 － 0072,27,2000.12.20(平成12.12.20),2000.12.04(平成12.12.04),,20001204,,再現することが容易でないもの,,静岡県,静岡県静岡市葵区両替町1-1,,,,,34.97529000000000,138.37880000000000,駿府城下の両替町の一画に建つ豪商の持仏堂。間口３間半，奥行５間，宝形屋根の土蔵造御堂で，欅材などの良材をふんだんに用い，華麗な天井画のほか，正面扉の金剛力士像など森田鶴堂作の漆喰鏝絵が随所に見られる。棟梁は地元の中村恒吉と小杉清蔵。,https://bunka.nii.ac.jp/heritage/43967/_103033/43967_103033111225012500218_300.jpg
101,00002143,静岡県庁本館,しずおかけんちょうほんかん,1棟,,登録有形文化財(建造物),官公庁舎,建築物,,昭和前,昭和12,1937,鉄筋コンクリート造4階一部5階建、瓦葺、建築面積3994㎡,,22 － 0073,28,2001.05.15(平成13.05.15),2001.04.24(平成13.04.24),,20010424,,造形の規範となっているもの,,静岡県,静岡県静岡市葵区追手町9-6,,静岡県,,,34.97692000000000,138.38290000000000,昭和９年の懸賞設計当選案（泰井武案）に基づき，大村巳代治ら県営繕の実施設計により竣工。日の字型平面をとる官庁建築で，正面中央の宝形屋根やパラペット立ち上がり部を本瓦葺風にみせるなど当時流行した日本趣味の造型が採り入れられている。,https://bunka.nii.ac.jp/heritage/43967/_103133/43967_103133111225012604580_300.jpg
101,00002255,志田家住宅主屋,しだけじゅうたくしゅおく,1棟,,登録有形文化財(建造物),住宅,建築物,,江戸,江戸末期,1830-1867,木造2階建、瓦葺、建築面積194㎡,,22 － 0074,29,2001.09.14(平成13.09.14),2001.08.28(平成13.08.28),,20010828,,国土の歴史的景観に寄与しているもの,,静岡県,静岡県静岡市清水区蒲原3-19-28,,,,,35.11949407000000,138.60293852000000,旧東海道に北面し，短冊状の敷地に建つ町屋建築。志田家は，醸造業を営み地主を兼ねた旧家。木造２階建，切妻造，平入で，土間の戸口に大戸の痕跡，道路に面した開口部に蔀戸を残し，蒲原宿の往時の佇まいを今に伝えている。,https://bunka.nii.ac.jp/heritage/43967/_103245/43967_103245346814174243185_300.jpg
101,00002256,大井川鐵道車両用転車台,おおいがわてつどうしゃりょうようてんしゃだい,1基,,登録有形文化財(建造物),交通,その他工作,,明治,明治30／昭和55移築,1897／1980移築,鉄製転車台、直径15m,,22 － 0075,29,2001.09.14(平成13.09.14),2001.08.28(平成13.08.28),,20010828,,再現することが容易でないもの,,静岡県,静岡県榛原郡川根本町千頭1220-1,,大井川鐵道株式会社,,,35.10695000000000,138.13670000000000,大井川鉄道の千頭駅構内南端にある。国鉄赤谷線の東赤谷駅から移転された，ロンドン Ransomes & Rapier社製の転車台。半径約８５フィートの円弧を切り取った形をした鉄製上路式で，直径５０フィートの規模を有し，台の両端に車輪を付け，人力で動かす。,https://bunka.nii.ac.jp/heritage/43967/_103246/43967_103246111225012718278_300.jpg
101,00002395,静岡県立磐田農業高等学校記念館,しずおかけんりついわたのうぎょうこうとうがっこうきねんかん,1棟,,登録有形文化財(建造物),学校,建築物,,明治,明治42／昭和60移築,1909／1985移築,木造平屋建、瓦葺、建築面積217㎡,,22 － 0076,30,2001.10.29(平成13.10.29),2001.10.12(平成13.10.12),,20011012,,造形の規範となっているもの,,静岡県,静岡県磐田市中泉168,,静岡県,,,34.71601000000000,137.85310000000000,県立農学校が見付町から中泉地区に移転してきた時に講堂として建設。桁行１７．５ｍ，梁間１２ｍ，寄棟造，桟瓦葺で，外壁は下見板張とし，上げ下げの単窓を連ね，正面妻側に後年改装のアーチ型の玄関ポーチを張り出す。明治後期公立学校建築遺構のひとつ。,https://bunka.nii.ac.jp/heritage/43967/_103385/43967_103385111225012846747_300.jpg
101,00002546,清水寺庫裏,きよみずでらくり,1棟,,登録有形文化財(建造物),宗教,建築物,,昭和前,昭和6,1931,木造平屋一部2階建、瓦葺、建築面積249㎡,,22 － 0077,31,2001.12.04(平成13.12.04),2001.11.20(平成13.11.20),,20011120,,造形の規範となっているもの,,静岡県,静岡県静岡市葵区音羽町27-8,,清水寺,,,34.97909000000000,138.39660000000000,鉄筋コンクリート造本堂の南東方に建つ。入母屋造玄関をもつ木造平屋建，入母屋造，妻入の庫裏と木造２階建，寄棟造の奥書院から成る。庫裏の北側には西から８畳規模の応接室，８畳，１０畳の表書院を並べる。本堂と同じ古宇田實の設計による近代和風建築。,https://bunka.nii.ac.jp/heritage/43967/_103536/43967_103536111225013009933_300.jpg
101,00002626,観魚洞隧道,かんぎょどうずいどう,1基,,登録有形文化財(建造物),交通,土木構造物,,明治,明治43,1910,石造、延長113m、幅員4.1m,,22 － 0078,32,2002.03.12(平成14.03.12),2002.02.14(平成14.02.14),,20020214,,国土の歴史的景観に寄与しているもの,,静岡県,静岡県熱海市熱海,,熱海市,,,35.08708000000000,139.08020000000000,熱海・伊東間を結ぶ旧幹線道路上にあり，相模湾に臨む魚見崎を貫く隧道。瘤出仕上石材を用いた総切石積の内部覆工と，馬蹄形坑口を有し，笠石，帯石，ピラスターを備え，持送付扁額をもつ坑門を両端に築く。急峻な崖からなる海岸景観によく馴染んでいる。,https://bunka.nii.ac.jp/heritage/43967/_103616/43967_103616111225013104967_300.jpg
101,00002627,凱旋紀念門,がいせんきねんもん,1基,,登録有形文化財(建造物),その他,その他工作,,明治,明治39,1906,煉瓦造、幅3.2m、高さ3.6m,,22 － 0079,32,2002.03.12(平成14.03.12),2002.02.14(平成14.02.14),,20020214,,再現することが容易でないもの,,静岡県,静岡県浜松市北区引佐町渋川,,六所神社,,,34.92408000000000,137.68610000000000,日露戦争を記念して，神社参道の途中に築かれた。石造柱脚の上に，柱頭を鋸歯飾とした煉瓦造柱が立ち上がり，煉瓦造欠円アーチを挟み込む。大型の扁額を嵌め込んだフランス積壁面の上部に，江戸切仕上石材の重厚な笠石を載せる。県内初期の煉瓦造構造物。,https://bunka.nii.ac.jp/heritage/43967/_103617/43967_103617111225013105478_300.jpg
101,00002764,木和田川砂防一号堰堤,きわだがわさぼういちごうえんてい,1基,,登録有形文化財(建造物),治山治水,土木構造物,,大正,大正1頃,1912頃,石造堰堤、堤長14m、堤高4.8m、下流両側護岸10m付,,22 － 0080,33,2002.07.16(平成14.07.16),2002.06.25(平成14.06.25),,20020625,,国土の歴史的景観に寄与しているもの,,静岡県,静岡県藤枝市岡部町岡部字木和田地先,,静岡県,,,34.92967000000000,138.30480000000000,二級河川瀬戸川に流れ込む岡部川の支川木和田川に築かれた石造空積砂防堰堤。明治４３年の豪雨による谷筋の崩壊を契機に建設された堰堤群の最下流部に位置し，推測約２２ｍの堤長の内，現在１４ｍ部分が露出している。その立面形状から兜堰堤と呼ばれている。,https://bunka.nii.ac.jp/heritage/43967/_103754/43967_103754111225013230285_300.jpg
101,00002765,木和田川砂防二号堰堤,きわだがわさぼうにごうえんてい,1基,,登録有形文化財(建造物),治山治水,土木構造物,,大正,大正1頃,1912頃,石造堰堤、堤長27m、堤高5.8m、水叩き部及び下流両側護岸9m付,,22 － 0081,33,2002.07.16(平成14.07.16),2002.06.25(平成14.06.25),,20020625,,国土の歴史的景観に寄与しているもの,,静岡県,静岡県藤枝市岡部町岡部字木和田地先,,静岡県,,,34.93027000000000,138.30600000000000,一号堰堤の北東約１３０ｍ上流側に位置する。堤高５．８ｍ，法面勾配１割２分の石積堰堤部と，９ｍ長の下流側水叩き部及び護岸部分からなる空積石造建造物が，蔦の細道に通じる散歩道の開放的な自然景観の重要な構成要素となる。工事主任は県技手の大竹弘太。,https://bunka.nii.ac.jp/heritage/43967/_103755/43967_103755111225013231536_300.jpg
101,00002766,木和田川砂防三号堰堤,きわだがわさぼうさんごうえんてい,1基,,登録有形文化財(建造物),治山治水,土木構造物,,大正,大正1頃,1912頃,石造堰堤、堤長18m、堤高5.1m,,22 － 0082,33,2002.07.16(平成14.07.16),2002.06.25(平成14.06.25),,20020625,,国土の歴史的景観に寄与しているもの,,静岡県,静岡県藤枝市岡部町岡部字木和田地先,,静岡県,,,34.93068000000000,138.30940000000000,二号堰堤の東方約３４０ｍ上流側に位置する。他堰堤と同様，明治期に築かれた緩勾配巨石空積砂防堰堤の構造形式を踏襲しつつ，台形越流部という近代的技術が加味された，砂防技術発達史上，過渡期的構造物。地盤安定効果により周囲の自然景観形成の礎をなす。,https://bunka.nii.ac.jp/heritage/43967/_103756/43967_103756111225013232046_300.jpg
101,00002767,木和田川砂防四号堰堤,きわだがわさぼうよんごうえんてい,1基,,登録有形文化財(建造物),治山治水,土木構造物,,大正,大正1頃,1912頃,石造堰堤、堤長25m、堤高7.9m,,22 － 0083,33,2002.07.16(平成14.07.16),2002.06.25(平成14.06.25),,20020625,,国土の歴史的景観に寄与しているもの,,静岡県,静岡県藤枝市岡部町岡部字木和田地先,,静岡県,,,34.92764000000000,138.31220000000000,北西約５９０ｍ下流側に位置する三号堰堤と同様に，川の湾曲部に建設される。露出した岩盤形状を利用して，高さ２．８ｍの地点に設けられた２ｍ幅の水平面により縦断面に変化を付け，法面勾配１割，堤高７．９ｍ，堤長２５ｍの大規模な造りを実現している。,https://bunka.nii.ac.jp/heritage/43967/_103757/43967_103757111225013232565_300.jpg
101,00002768,木和田川砂防五号堰堤,きわだがわさぼうごごうえんてい,1基,,登録有形文化財(建造物),治山治水,土木構造物,,大正,大正1頃,1912頃,石造堰堤、堤長15m、堤高4.9m、水叩き部及び下流両側護岸10m付,,22 － 0084,33,2002.07.16(平成14.07.16),2002.06.25(平成14.06.25),,20020625,,国土の歴史的景観に寄与しているもの,,静岡県,静岡県藤枝市岡部町岡部字木和田地先,,静岡県,,,34.92740000000000,138.31240000000000,四号堰堤の南東約７５ｍ上流側に位置する。明治４４年に内務省が定め，県が事業主体となり国庫補助を受けて整備が図られた砂防指定地の上流域に位置する。山腹工事を中心として進められた砂防事業において，床固工としての機能を果たす小規模な石造構造物。,https://bunka.nii.ac.jp/heritage/43967/_103758/43967_103758111225013233087_300.jpg
101,00002769,木和田川砂防六号堰堤,きわだがわさぼうろくごうえんてい,1基,,登録有形文化財(建造物),治山治水,土木構造物,,大正,大正1頃,1912頃,石造堰堤、堤長22m、堤高3.5m、水叩き部及び下流両側護岸8m付,,22 － 0085,33,2002.07.16(平成14.07.16),2002.06.25(平成14.06.25),,20020625,,国土の歴史的景観に寄与しているもの,,静岡県,静岡県藤枝市岡部町岡部字木和田地先,,静岡県,,,34.92724000000000,138.31260000000000,五号堰堤の南方約６０ｍ上流側に位置する。堤長２２ｍ，堤高３．５ｍの石造空積堰堤で，２．４ｍ幅の天端を通路として利用するために，越流部をなだらかな形とするのが特徴的。下流側に１０ｍ長の水叩部及び護岸が残り，全体として当初の姿をよく留めている。,https://bunka.nii.ac.jp/heritage/43967/_103759/43967_103759111225013233619_300.jpg
101,00002770,木和田川砂防七号堰堤,きわだがわさぼうななごうえんてい,1基,,登録有形文化財(建造物),治山治水,土木構造物,,大正,大正1頃,1912頃,石造堰堤、堤長23m、堤高3.6m、水叩き部及び下流側流路25m付,,22 － 0086,33,2002.07.16(平成14.07.16),2002.06.25(平成14.06.25),,20020625,,国土の歴史的景観に寄与しているもの,,静岡県,静岡県藤枝市岡部町岡部字木和田地先,,静岡県,,,34.92711000000000,138.31280000000000,六号堰堤の南方約３０ｍ上流側に位置する。特に左翼部が露出した堤長２３ｍ，堤高３．６ｍの石積堰堤の前面に，側壁を乱積で築いた２５ｍ長，６ｍ幅の流路が取付き，河道安定を図る。回復された緑が石造建造物と一体となり，渓谷の自然景観に馴染んでいる。,https://bunka.nii.ac.jp/heritage/43967/_103760/43967_103760111225013234851_300.jpg
101,00002771,木和田川砂防八号堰堤,きわだがわさぼうはちごうえんてい,1基,,登録有形文化財(建造物),治山治水,土木構造物,,大正,大正1頃,1912頃,石造堰堤、堤長14m、堤高4.0m,,22 － 0087,33,2002.07.16(平成14.07.16),2002.06.25(平成14.06.25),,20020625,,国土の歴史的景観に寄与しているもの,,静岡県,静岡県藤枝市岡部町岡部字木和田地先,,静岡県,,,34.92702000000000,138.31310000000000,七号堰堤の南方約４５ｍ上流側，平成１１年度に竣工した遊歩道の終点近くに位置し，合流する二本の川筋からの土砂を受ける。堤長１４ｍ，堤高４．０ｍ部分が露出した石積堰堤。自然の脅威を克服した人為の証として，散策路からの重要な景観要素となっている。,https://bunka.nii.ac.jp/heritage/43967/_103761/43967_103761111225013235086_300.jpg
101,00002924,木和田川一号流路工,きわだがわいちごうりゅうろこう,1基,,登録有形文化財(建造物),治山治水,土木構造物,,大正,大正1頃,1912頃,石造、延長70m,,22 － 0088,34,2002.09.03(平成14.09.03),2002.08.21(平成14.08.21),,20020821,,国土の歴史的景観に寄与しているもの,,静岡県,静岡県藤枝市岡部町岡部字木和田地先,,静岡県,,,34.92681000000000,138.31350000000000,木和田川に築かれた堰堤群の最上流部に位置する八号堰堤の水叩部に注ぎ込む流路工。底部と壁面を空石積とした上幅６．５ｍ，敷幅４ｍの線状構造物で，延長７０ｍの頂部と中間点に，それぞれ石造堰堤を設ける。残存状況がよく，自然景観に良く馴染んでいる。,https://bunka.nii.ac.jp/heritage/43967/_103914/43967_103914111225013405972_300.jpg
101,00002925,木和田川二号流路工,きわだがわにごうりゅうろこう,1基,,登録有形文化財(建造物),治山治水,土木構造物,,大正,大正1頃,1912頃,石造、延長15m,,22 － 0089,34,2002.09.03(平成14.09.03),2002.08.21(平成14.08.21),,20020821,,国土の歴史的景観に寄与しているもの,,静岡県,静岡県藤枝市岡部町岡部字木和田地先,,静岡県,,,34.92690000000000,138.31350000000000,八号堰堤の上流側に位置する延長１５ｍの石造流路工。明治４３年の豪雨の後に築かれた砂防施設のひとつ。上幅４．２ｍ，敷幅２．８ｍの台形断面の構造物で，谷筋の形状に合わせて，緩勾配・緩曲線平面で築かれ，周囲の緑化を促している。,https://bunka.nii.ac.jp/heritage/43967/_103915/43967_103915111225013406489_300.jpg
101,00003102,旧二俣町役場,きゅうふたまたちょうやくば,1棟,,登録有形文化財(建造物),官公庁舎,建築物,,昭和前,昭和11,1936,木造2階建、瓦葺、建築面積237㎡,,22 － 0090,35,2003.02.26(平成15.02.26),2003.01.31(平成15.01.31),,20030131,,国土の歴史的景観に寄与しているもの,,静岡県,静岡県浜松市天竜区二俣町二俣1112,,浜松市,,,34.86601000000000,137.81410000000000,木造２階建，寄棟造，桟瓦葺の役所庁舎。外観は四隅の柱型と１階の壁面をスクラッチタイル張とし，縦長の上下窓を並べ，正面にやや縦長の車寄せを付ける。地元の大工本島亥三郎の作品で，長年市民に親しまれてきた建築である。,https://bunka.nii.ac.jp/heritage/43967/_104092/43967_104092111225013552469_300.jpg
101,00004358,平井家住宅主屋,ひらいけじゅうたくしゅおく,1棟,,登録有形文化財(建造物),住宅,建築物,,大正,大正8,1919,木造2階建、瓦葺、建築面積128㎡,,22 － 0091,44,2004.11.29(平成16.11.29),2004.11.08(平成16.11.08),,20041108,,国土の歴史的景観に寄与しているもの,,静岡県,静岡県熱海市網代106,,,,,35.04680000000000,139.09010000000000,網元として栄えた家の住宅。間口６間半奥行６間，木造２階建，寄棟造，桟瓦葺で，１階の通り側に踏み込み土間を取る以外は良材を用い意匠を凝らした座敷等で構成される。外壁は１階石張，２階大壁漆喰塗とし，開口部に銅板張防火戸を建て重厚な外観をつくる。,https://bunka.nii.ac.jp/heritage/43967/_105348/43967_105348111225014932265_300.jpg
101,00004359,平井家住宅脇門,ひらいけじゅうたくわきもん,1棟,,登録有形文化財(建造物),住宅,その他工作,,大正,大正8,1919,石造、間口1.8m,,22 － 0092,44,2004.11.29(平成16.11.29),2004.11.08(平成16.11.08),,20041108,,国土の歴史的景観に寄与しているもの,,静岡県,静岡県熱海市網代106,,,,,35.04670000000000,139.09010000000000,主屋東妻面の北方に続いて通りと裏庭を仕切る脇門。間口約１間，石造で，門口に方立を立て，成の高いまぐさを架けて両開板戸を吊り込む。まぐさには眉を欠き，石はやや丸みを付けた丁寧な仕上げで，主屋腰部と同じ黒味勝ちの安山岩を用い一体の意匠に整える。,https://bunka.nii.ac.jp/heritage/43967/_105349/43967_105349111225014932840_300.jpg
101,00004360,潮生館本館,ちょうせいかんほんかん,1棟,,登録有形文化財(建造物),産業3次,建築物,,昭和前,昭和14,1939,木造2階建、瓦葺、建築面積198㎡,,22 － 0093,44,2004.11.29(平成16.11.29),2004.11.08(平成16.11.08),,20041108,,造形の規範となっているもの,,静岡県,静岡県藤枝市志太600-2-2,,,,,34.86808000000000,138.23240000000000,志太温泉の礎となった旅館の本館。２階建，入母屋造，桟瓦葺で，南正面西端に入母屋造の玄関を突出する。１階は板間の広いホールや帳場等とし，２階は南・西Ｌ字型に廊下を取り，これに沿って客室を配す。各室とも曲木・変木を使った風趣に富んだ意匠になる。,https://bunka.nii.ac.jp/heritage/43967/_105350/43967_105350228580997516677_300.jpg
101,00004361,潮生館香梅荘,ちょうせいかんこうばいそう,1棟,,登録有形文化財(建造物),産業3次,建築物,,昭和前,昭和8,1933,木造平屋建、瓦葺、建築面積73㎡,,22 － 0094,44,2004.11.29(平成16.11.29),2004.11.08(平成16.11.08),,20041108,,造形の規範となっているもの,,静岡県,静岡県藤枝市志太600-2,,,,,34.86809000000000,138.23190000000000,本館の北西方，池辺に建つ。平屋建，入母屋造，桟瓦葺の主体部に北東の玄関，北西の小座敷を付属する。主体部は８畳床棚付の主室と６畳の次の間，小座敷は床棚付の６畳，玄関は３畳の寄付を備える。内外とも薄紅色漆喰壁とし，梅花模様を配して意匠を凝らす。,https://bunka.nii.ac.jp/heritage/43967/_105351/43967_105351964705797162081_300.jpg
101,00004551,眠雲閣落合樓住居棟及び廊下,みんうんかくおちあいろうじゅうきょとうおよびろうか,1棟,,登録有形文化財(建造物),住宅,建築物,,昭和前,昭和10頃,1935頃,木造地上2階地下1階建、瓦葺、建築面積128㎡、廊下　木造平屋建、鉄板葺、建築面積20㎡,,22 － 0097,45,2005.02.28(平成17.02.28),2005.02.09(平成17.02.09),,20050209,,造形の規範となっているもの,,静岡県,静岡県伊豆市湯ヶ島1887-1,,株式会社落合楼村上,,,34.88980000000000,138.92770000000000,玄関棟から東に向かう廊下と連絡する旅館主の居宅。地階に浴室を置く３層構成で，１階は玄関，洋室，８畳と１０畳の和室，２階は８畳和室と洋室２室から成る。凝った意匠の建具組子や吟味された材料など，随所に昭和初期の建築技術と施主の好みが表れている。,https://bunka.nii.ac.jp/heritage/43967/_105541/43967_105541111225015232042_300.jpg
101,00004552,眠雲閣落合樓応接棟,みんうんかくおちあいろうおうせつとう,1棟,,登録有形文化財(建造物),産業3次,建築物,,昭和前,昭和10頃,1935頃,木造2階建、瓦葺、建築面積18㎡,,22 － 0098,45,2005.02.28(平成17.02.28),2005.02.09(平成17.02.09),,20050209,,造形の規範となっているもの,,静岡県,静岡県伊豆市湯ヶ島1887-1,,株式会社落合楼村上,,,34.88953000000000,138.92770000000000,住居棟の南方に位置する。入母屋造，赤色桟瓦葺の木造２階建で，桁行１６．５尺梁間１２尺規模の１室洋館。外壁はモルタル塗洗い出し仕上げで，柱型柱頭部と入母屋破風の妻面に漆喰レリーフを施す。小規模ながら，昭和初期における温泉旅館付属施設の好事例。,https://bunka.nii.ac.jp/heritage/43967/_105542/43967_105542111225015233905_300.jpg
101,00004973,竹山家住宅主屋,たけやまけじゅうたくしゅおく,1棟,,登録有形文化財(建造物),住宅,建築物,,昭和前,昭和12,1937,木造2階建、瓦葺一部銅板葺、建築面積88㎡,,22 － 0099,47,2005.12.05(平成17.12.05),2005.11.10(平成17.11.10),,20051110,,造形の規範となっているもの,,静岡県,静岡県浜松市東区天王町759-1,,,,,34.73619000000000,137.77390000000000,市中心部から北東に位置する。当初離れとして建設される。木造２階建，桟瓦葺一部銅板葺で，錣葺風とする。外装は押縁下見板張，内部は銘木を随所に配した洗練されたつくりで，全体的に，抑制のきいた端正なつくりとする。設計は竹山謙三郎。,https://bunka.nii.ac.jp/heritage/43967/_105963/43967_105963111225020256347_300.jpg
101,00004974,豊門会館（旧和田豊治家住宅）和館,ほうもんかいかん（きゅうわだとよじけじゅうたく）わかん,1棟,,登録有形文化財(建造物),住宅,建築物,,明治,明治42／大正14移築,1909／1925移築,木造2階一部平屋建、瓦葺、建築面積344㎡,,22 － 0100,47,2005.12.05(平成17.12.05),2005.11.10(平成17.11.10),,20051110,,造形の規範となっているもの,,静岡県,静岡県駿東郡小山町藤曲144-8,,小山町,,,35.36257000000000,138.98670000000000,町中心部から北側に位置する豊門公園の東端に建つ。木造２階部分の西側に，平屋を南北に構える大規模住宅。開放的なつくりの庭側は，たちの高い豪壮な構えを見せる。拝に懸魚を付けた入母屋の妻には，半円アーチ形の妻飾を付ける。,https://bunka.nii.ac.jp/heritage/43967/_105964/43967_105964111225020257991_300.jpg
101,00004975,豊門会館（旧和田豊治家住宅）洋館,ほうもんかいかん（きゅうわだとよじけじゅうたく）ようかん,1棟,,登録有形文化財(建造物),住宅,建築物,,明治,明治42／大正14移築,1909／1925移築,木造平屋建、スレート葺、建築面積40㎡,,22 － 0101,47,2005.12.05(平成17.12.05),2005.11.10(平成17.11.10),,20051110,,造形の規範となっているもの,,静岡県,静岡県駿東郡小山町藤曲144-8,,小山町,,,35.36243000000000,138.98670000000000,和館南側に位置する。寄棟造で和館との接続部に玄関を設け，南面には出窓を張り出す。外装モルタル塗で，鎧戸付縦長窓を正面に付け，窓上下に木板を帯状に廻し外観を引き締める。大正期以降，都市部で流行した，洋館を和館に付属させる住宅形式の初期の例。,https://bunka.nii.ac.jp/heritage/43967/_105965/43967_105965111225020259597_300.jpg
101,00004976,豊門公園西洋館（旧豊門青年学校）,ほうもんかいかんせいようかん（きゅうほうもんせいねんがっこう）,1棟,,登録有形文化財(建造物),学校,建築物,,昭和前,昭和初期,1926-1988,木造2階建、スレート葺、建築面積235㎡、塔屋付,,22 － 0102,47,2005.12.05(平成17.12.05),2005.11.10(平成17.11.10),,20051110,,造形の規範となっているもの,,静岡県,静岡県駿東郡小山町藤曲144-8,,小山町,,,35.36287000000000,138.98610000000000,豊門公園の北側に南面して建つ。木造２階建，スレート葺で，寄棟造，外装下見板張とし，欄間付縦長窓を四周に配す。正面中央に設けられた車寄付塔屋の左右で２階壁面を前後させ，西半は帯状の小壁を巡らして外観を引き締める等，変化に富んだ瀟洒な洋風建築。,https://bunka.nii.ac.jp/heritage/43967/_105966/43967_105966111225020301539_300.jpg
101,00004977,豊門公園正門,ほうもんこうえんせいもん,1対,,登録有形文化財(建造物),生活関連,その他工作,,大正,大正14,1925,鉄筋コンクリート造、間口5.2m、左右袖塀付,,22 － 0103,47,2005.12.05(平成17.12.05),2005.11.10(平成17.11.10),,20051110,,国土の歴史的景観に寄与しているもの,,静岡県,静岡県駿東郡小山町藤曲144-8,,小山町,,,35.36229000000000,138.98550000000000,敷地の西端に位置する。添柱付の高さ１．７ｍのＲＣ造柱を左右に配し，その外側に曲線平面の袖壁を付ける。笠石に江戸切り仕上の大型の花崗岩を用い，モルタル洗出仕上の柱身には，石積風の目地を等間隔に入れる。重厚な外観で園路の入口を飾る。,https://bunka.nii.ac.jp/heritage/43967/_105967/43967_105967111225020303288_300.jpg
101,00004978,豊門公園噴水泉,ほうもんこうえんふんすいせん,1所,,登録有形文化財(建造物),生活関連,その他工作,,昭和前,昭和初期,1926-1988,鉄筋コンクリート造、面積39㎡,,22 － 0104,47,2005.12.05(平成17.12.05),2005.11.10(平成17.11.10),,20051110,,国土の歴史的景観に寄与しているもの,,静岡県,静岡県駿東郡小山町藤曲144-8,,小山町,,,35.36249000000000,138.98620000000000,公園中央部に位置する。半径５ｍ規模の半円形平面をしたＲＣ造水槽の円弧を，西洋館と向かい合わせ，直線部分両端には，モルタル洗出仕上で石積風に目地を入れた角柱を配する。豊門会館と西洋館の各正面軸線のほぼ交点に位置する，公園空間構成上の要。,https://bunka.nii.ac.jp/heritage/43967/_105968/43967_105968111225020304206_300.jpg
101,00004979,豊門公園和田君遺悳碑,ほうもんこうえんわだくんいとくひ,1基,,登録有形文化財(建造物),生活関連,その他工作,,大正,大正14,1925,石造、面積2.3㎡,,22 － 0105,47,2005.12.05(平成17.12.05),2005.11.10(平成17.11.10),,20051110,,造形の規範となっているもの,,静岡県,静岡県駿東郡小山町藤曲144-8,,小山町,,,35.36245000000000,138.98720000000000,豊門公園の南東部に位置する，高さ３ｍの花崗岩の石造物。角を丸めた１．５ｍ四方の台座に碑文を陰刻した円柱を載せ，さらにその上部に宝珠を頂く三層の屋根形を載せる。建築的モチーフを取り入れた，朝倉文夫案による独特な意匠とする。,https://bunka.nii.ac.jp/heritage/43967/_105969/43967_105969111225020305884_300.jpg
101,00004980,森村橋,もりむらばし,1基,,登録有形文化財(建造物),交通,土木構造物,,明治,明治39,1906,鋼製単トラス橋、橋長39m、幅員4.8m,,22 － 0106,47,2005.12.05(平成17.12.05),2005.11.10(平成17.11.10),,20051110,,国土の歴史的景観に寄与しているもの,,静岡県,静岡県駿東郡小山町小山133-6地先,,小山町,,,35.35812000000000,138.98500000000000,町を南北に貫流する鮎沢川に架かり，富士紡績小山工場と駅を結ぶ旧軌道用の橋梁。下路式，単径間の鋼製曲弦プラットトラス橋で，スパン３９ｍとし，ピン結合，下弦材にはアイバーを用いる。邦人が設計・製作した鋼製トラス橋としては，わが国初期の遺構。,https://bunka.nii.ac.jp/heritage/43967/_105970/43967_105970111225020307378_300.jpg
101,00005276,神山復生病院事務所棟,こうやまふくせいびょういんじむしょとう,1棟,,登録有形文化財(建造物),文化福祉,建築物,,明治,明治中期／昭和中期増築,1868-1911／1926-1988増築,木造2階建、鉄板葺、建築面積72㎡、地下室付,,22 － 0107,49,2006.03.23(平成18.03.23),2006.03.02(平成18.03.02),,20060302,,国土の歴史的景観に寄与しているもの,,静岡県,静岡県御殿場市神山1910-8,,一般財団法人神山復生会,,,35.23858000000000,138.92300000000000,病院敷地のほぼ中央に南面して建つ。切石積の基礎にのる木造２階建で，地下１階を設け，屋根は鉄板葺とし，正側面に下屋庇を付ける。正面中央入口には切妻造の玄関ポーチを突出し，外壁は下見板張とする。開院当初の歴史的な景観を今に伝える。,https://bunka.nii.ac.jp/heritage/43967/_106264/43967_106264111225021018848_300.jpg
101,00005461,中川家住宅（旧高井治兵衛別荘）主屋,なかがわけじゅうたく（きゅうたかいじへえべっそう）しゅおく,1棟,,登録有形文化財(建造物),住宅,建築物,,昭和前,昭和2,1927,木造平屋一部2階建、瓦葺、建築面積244㎡,,22 － 0108,50,2006.04.12(平成18.04.12),2006.03.27(平成18.03.27),,20060327,,国土の歴史的景観に寄与しているもの,,静岡県,静岡県伊豆の国市奈古谷字神明原708-1,,,,,35.07827000000000,138.96810000000000,敷地の北西寄りに北面して建つ。桁行１３．２ｍ，梁間１２．７ｍ，切妻造，フランス瓦葺の木造平屋一部２階建で，南西に平屋の厨房を附属し，庭側に応接室等を設ける。室内意匠も丁寧なつくりで，ハーフティンバーの外観は当時の洋風別荘建築の姿をよく留める。,https://bunka.nii.ac.jp/heritage/43967/_106449/43967_106449111225021438657_300.jpg
101,00005462,中川家住宅（旧高井治兵衛別荘）物置,なかがわけじゅうたく（きゅうたかいじへえべっそう）ものおき,1棟,,登録有形文化財(建造物),住宅,建築物,,昭和前,昭和2,1927,木造平屋建、鉄板葺、建築面積24㎡,,22 － 0109,50,2006.04.12(平成18.04.12),2006.03.27(平成18.03.27),,20060327,,国土の歴史的景観に寄与しているもの,,静岡県,静岡県伊豆の国市奈古谷字神明原708-1,,,,,35.07817000000000,138.96780000000000,主屋の南西に建つ。桁行４．４ｍ，梁間４．２ｍ，切妻造，鉄板葺の木造平屋建の物置で，主屋側に小規模な部屋を付属する。東端にコンクリート造隅柱を立て，一部を吹放ちの作業場とする。外壁は下見板張り，腰をモルタル仕上げとする。,https://bunka.nii.ac.jp/heritage/43967/_106450/43967_106450111225021439619_300.jpg
101,00005463,中川家住宅（旧高井治兵衛別荘）ポンプ室,なかがわけじゅうたく（きゅうたかいじへえべっそう）ぽんぷしつ,1棟,,登録有形文化財(建造物),住宅,建築物,,昭和前,昭和2,1927,木造平屋建、鉄板葺、建築面積5.2㎡,,22 － 0110,50,2006.04.12(平成18.04.12),2006.03.27(平成18.03.27),,20060327,,国土の歴史的景観に寄与しているもの,,静岡県,静岡県伊豆の国市奈古谷字神明原708-1,,,,,35.07835000000000,138.96790000000000,敷地に西辺する道路と主屋北西にある内玄関との間に建つ桁行２．３ｍ，梁間２．２ｍの切妻造，鉄板葺，木造平屋建のポンプ室で，外壁は白塗りの竪板張り，腰をモルタル仕上げとする。南東隅に外部から使う洗い場を設け，両妻側に点検のための開き戸付ける。,https://bunka.nii.ac.jp/heritage/43967/_106451/43967_106451111225021441780_300.jpg
101,00005464,中川家住宅（旧高井治兵衛別荘）四阿,なかがわけじゅうたく（きゅうたかいじへえべっそう）あずまや,1棟,,登録有形文化財(建造物),住宅,その他工作,,昭和前,昭和2,1927,木造、鉄板葺、面積11㎡,,22 － 0111,50,2006.04.12(平成18.04.12),2006.03.27(平成18.03.27),,20060327,,国土の歴史的景観に寄与しているもの,,静岡県,静岡県伊豆の国市奈古谷字神明原708-1,,,,,35.07808000000000,138.96850000000000,主屋の南から東半に広がる庭の南東隅の一段高い場所に設けられた吹き放ちの四阿。８本の円柱を１．５ｍ間隔に立てた正八角形平面とし，鉄板葺の屋根を架け，軒裏を網代組の化粧とするなど和洋を組み合わせたつくりとする。別荘の庭園景観の構成要素のひとつ。,https://bunka.nii.ac.jp/heritage/43967/_106452/43967_106452111225021442858_300.jpg
101,00005465,旧岩渕火の見櫓,きゅういわぶちひのみやぐら,1基,,登録有形文化財(建造物),生活関連,その他工作,,昭和中,昭和26／平成17移築,1951／2005移築,鉄骨造、高さ19m,,22 － 0112,50,2006.04.12(平成18.04.12),2006.03.27(平成18.03.27),,20060327,,再現することが容易でないもの,,静岡県,静岡県富士市南松野字根方281-8,,,,,35.17450000000000,138.60250000000000,富士川町岩渕の消防団車庫の付属施設として建設。４．４ｍ四方のＲＣ造の基礎上に山形鋼で組まれ，高さは１８．５ｍ。踊り場を長方形，見張り台を円形とし，屋根を八角形で，くびれをもつ帽子状とし，頂部に避雷針を付ける。意匠，規模ともに秀でる。,https://bunka.nii.ac.jp/heritage/43967/_106453/43967_106453111225021444368_300.jpg
101,00005701,旧三島測候所庁舎,きゅうみしまそっこうじょちょうしゃ,1棟,,登録有形文化財(建造物),官公庁舎,建築物,,昭和前,昭和5,1930,鉄筋コンクリート造平屋一部2階建、建築面積267㎡,,22 － 0121,54,2007.05.29(平成19.05.29),2007.05.15(平成19.05.15),,20070515,,造形の規範となっているもの,,静岡県,静岡県三島市東本町2-5-24,,三島市,,,35.11414000000000,138.92540000000000,三嶋大社より約１ｋｍ南方に位置する。西面し，中央部を高くした立面を見せるＲＣ造で，縦長窓を四周に配す。モダニズム風のつくりを基調とし，正面２階窓台を半円状に張り出し，玄関櫛形欄間にグリルとステインドグラスを嵌め込むなど外観に変化を付ける。,https://bunka.nii.ac.jp/heritage/43967/_106689/43967_106689111225022014927_300.jpg
101,00005839,梅御殿,うめごてん,1棟,,登録有形文化財(建造物),住宅,建築物,,明治,明治中期,1868-1911,木造2階建、銅板葺、建築面積150㎡,,22 － 0114,52,,2006.10.18(平成18.10.18),,20061018,,造形の規範となっているもの,,静岡県,静岡県三島市一番町15-6,,三島市,,,35.12364000000000,138.91210000000000,旧小松宮三島別邸の一部。池に臨む主座敷の床柱に梅が用いられている。敷地の高低差を利用したスキップフロアー状の建物で，西方の下階に玄関を設け，東方の上階に６畳と９畳３室を並べ，東南矩折れに１０畳座敷を配する。数寄屋意匠による宮家住宅の一事例。,https://bunka.nii.ac.jp/heritage/43967/_106825/43967_106825111225022352640_300.jpg
101,00005840,丸平商店店舗,まるへいしょうてんてんぽ,1棟,,登録有形文化財(建造物),産業3次,建築物,,明治,明治初期,1868-1911,木造2階建、瓦葺、建築面積99㎡,,22 － 0115,52,,2006.10.18(平成18.10.18),,20061018,,国土の歴史的景観に寄与しているもの,,静岡県,静岡県三島市中央町4-16,,,,,35.12011000000000,138.91820000000000,三嶋大社の西方，門前の道路に南面して建つ。間口４間半，正面と背面に下屋を出して奥行最大８間半とする。塗屋造２階建の店舗建築で，東方を通り土間，西方を床上部とする。料理店に改装されてはいるが，明治来の老舗の表構えを今に伝えていて貴重である。,https://bunka.nii.ac.jp/heritage/43967/_106826/43967_106826111225022354212_300.jpg
101,00005841,丸平商店土蔵,まるへいしょうてんどぞう,1棟,,登録有形文化財(建造物),産業3次,建築物,,明治,明治初期,1868-1911,土蔵造及び石造2階建、瓦葺、建築面積60㎡,,22 － 0116,52,,2006.10.18(平成18.10.18),,20061018,,再現することが容易でないもの,,静岡県,静岡県三島市中央町4-16,,,,,35.12021000000000,138.91810000000000,店舗の北方，敷地北西部に位置し，南北棟で建つ。桁行６間，梁間２間半規模の細長い平面をもつ２階建の蔵で，南妻面に下屋を差し掛けて蔵前とし，２階に庇付きの窓を開く。１階を木骨石造，２階を海鼠壁土蔵とする混構造のつくりに特徴がある。,https://bunka.nii.ac.jp/heritage/43967/_106827/43967_106827111225022356494_300.jpg
101,00005883,三嶋暦師の館（旧河合家住宅主屋）,みしまごよみしのやかた（きゅうかわいけじゅうたくしゅおく）,1棟,,登録有形文化財(建造物),住宅,建築物,,江戸,江戸末期,1830-1867,木造平屋建、瓦葺、建築面積218㎡,,22 － 0113,52,,2006.10.18(平成18.10.18),,20061018,,造形の規範となっているもの,,静岡県,静岡県三島市大宮町2-5-16,,三島市,,,35.12287000000000,138.92150000000000,三嶋大社東方の屋敷地に北面して建つ。桁行９間半，梁間４間半，切妻造，桟瓦葺で，北面中央に起り破風の式台玄関を構える。東方を土間，西方を２列６室とし，北西隅に８畳座敷を配する。関所建物の移築と伝えるが，江戸末期有力社家の住宅遺構としても貴重。,https://bunka.nii.ac.jp/heritage/43967/_106868/43967_106868111225022506195_300.jpg
101,00005974,鈴木家住宅店舗兼主屋,すずきけじゅうたくてんぽけんしゅおく,1棟,,登録有形文化財(建造物),産業3次,建築物,,江戸,江戸末期／昭和期改造,1830-1867／1926-1988改造,木造2階建、瓦葺、建築面積127㎡,,22 － 0118,53,,2006.11.29(平成18.11.29),,20061129,,国土の歴史的景観に寄与しているもの,,静岡県,静岡県静岡市清水区蒲原3-25-4,,,,,35.12023000000000,138.60560000000000,旧東海道に面して建つ。間口４間，奥行９間，木造２階建で，中央に通り土間を設け，両側に各４室並べた町家の形態とする。屋根は切妻造で，２階軒を出桁造とする。元は隣家の旧和泉屋と一体で，かつては旅籠を営み，旧街道沿いの景観を伝える建物である。,https://bunka.nii.ac.jp/heritage/43967/_106959/43967_106959111225022745233_300.jpg
101,00006022,旧和泉屋（お休み処）,きゅういずみや（おやすみどころ）,1棟,,登録有形文化財(建造物),産業3次,建築物,,江戸,江戸末期／昭和期改造,1830-1867／1926-1988改造,木造2階建、瓦葺、建築面積57㎡,,22 － 0117,53,,2006.11.29(平成18.11.29),,20061129,,国土の歴史的景観に寄与しているもの,,静岡県,静岡県静岡市清水区蒲原3-25-3,,静岡市,,,35.12025000000000,138.60560000000000,旧東海道に面して建つ。間口２間，奥行８間半，木造２階建で，東側に通り土間を設け，西側に３室を並べた町家の形態とする。屋根は切妻造で，２階軒を出桁造とする。元は隣家の鈴木家と一体で，かつては旅籠を営み，旧街道沿いの景観を伝える建物である。,https://bunka.nii.ac.jp/heritage/43967/_107007/43967_107007111225022914196_300.jpg
101,00006023,吉田家住宅主屋,よしだけじゅうたくしゅおく,1棟,,登録有形文化財(建造物),住宅,建築物,,明治,明治20頃／明治42頃・大正期増築,1887頃／1909頃・1912-1925増築,木造平屋建、瓦葺、建築面積200㎡,,22 － 0119,53,,2006.11.29(平成18.11.29),,20061129,,国土の歴史的景観に寄与しているもの,,静岡県,静岡県静岡市清水区蒲原2-6-21,,,,,35.12001000000000,138.60640000000000,旧東海道に面して建つ。間口３間，奥行７間半，塗屋造つし２階建，切妻造とし，東側に通り土間を設け，西側に３室を並べた町家の形態とする。正面に奥行１間の下屋を設け，腰壁を海鼠壁で飾る。主屋西側に増築した座敷部分も塗屋造とし，特徴のある外観を形成。,https://bunka.nii.ac.jp/heritage/43967/_107008/43967_107008111225022915866_300.jpg
101,00006434,徳兵衛酒店店舗兼主屋,とくべえさけてんてんぽけんしゅおく,1棟,,登録有形文化財(建造物),産業3次,建築物,,大正,大正12,1923,木造平屋一部2階建、瓦葺、建築面積174㎡,,22 － 0123,56,2007.10.22(平成19.10.22),2007.10.02(平成19.10.02),,20071002,,国土の歴史的景観に寄与しているもの,,静岡県,静岡県島田市家山685-1,,,,,34.94373000000000,138.07600000000000,道路東側の敷地の少し入った位置に西面して建つ。間口８間の木造平屋一部２階建。切妻造桟瓦葺で、三方に下屋を廻す。身舎正面は出桁造。南側をミセとし、トコや違棚を構えるオクノマなどを北側に配する。洋小屋組や座敷飾り等に近代的な構造・意匠が見られる。,https://bunka.nii.ac.jp/heritage/43967/_107417/43967_107417111225024025733_300.jpg
101,00006435,徳兵衛酒店土蔵,とくべえさけてんどぞう,1棟,,登録有形文化財(建造物),産業3次,建築物,,大正,大正4,1915,土蔵造2階建、瓦葺、建築面積32㎡,,22 － 0124,56,2007.10.22(平成19.10.22),2007.10.02(平成19.10.02),,20071002,,国土の歴史的景観に寄与しているもの,,静岡県,静岡県島田市家山685-1,,,,,34.94364000000000,138.07610000000000,主屋東南の敷地奥に位置し、東西棟で北面する。桁行３間半、梁間２間の土蔵造２階建で、正面に下屋を設ける。切妻造桟瓦葺で、外壁を漆喰仕上げとし、両妻面に窓を穿ち、腰を海鼠壁とする。正面入口に引戸をたてる。大きな下屋が独特の外観をつくり出している。,https://bunka.nii.ac.jp/heritage/43967/_107418/43967_107418111225024026567_300.jpg
101,00006844,大箸家住宅主屋,おおはしけじゅうたくしゅおく,1棟,,登録有形文化財(建造物),住宅,建築物,,江戸,江戸末期／明治前期改修,1830-1867／1868-1911改修,木造2階建、瓦葺、建築面積269㎡,,22 － 0125,58,2008.03.19(平成20.03.19),2008.03.07(平成20.03.07),,20080307,,造形の規範となっているもの,,静岡県,静岡県磐田市壱貫地字道上429-1,,,,,34.82611000000000,137.83460000000000,天竜川東側の敷地中央に南面して建つ。建築面積２６９㎡、木造２階建、寄棟造桟瓦葺。正面中央に式台玄関を設け、内部の東側はもと土間で、西側の床上部は鍵座敷とし、奥座敷にトコ、天袋、平書院を設ける。もと酒造業を営んでいた庄屋の風格を示す大型の住宅。,https://bunka.nii.ac.jp/heritage/43967/_107826/43967_107826111225025114377_300.jpg
101,00006845,大箸家住宅北土蔵,おおはしけじゅうたくきたどぞう,1棟,,登録有形文化財(建造物),住宅,建築物,,明治,明治前期,1868-1911,土蔵造2階建、瓦葺、建築面積47㎡,,22 － 0126,58,2008.03.19(平成20.03.19),2008.03.07(平成20.03.07),,20080307,,国土の歴史的景観に寄与しているもの,,静岡県,静岡県磐田市壱貫地字道上429-1,,,,,34.82592000000000,137.83490000000000,主屋の南東寄り、南土蔵と納屋の間に西面して建つ。桁行７．３ｍ梁間４．５ｍ、土蔵造２階建、切妻造桟瓦葺で、西側に１間通りの蔵前を設ける。水害対策のため伊豆石を積んだ基壇に建ち、腰を海鼠壁とする。古文書などを収蔵した蔵で、屋敷構えに趣を添える。,https://bunka.nii.ac.jp/heritage/43967/_107827/43967_107827111225025116033_300.jpg
101,00006846,大箸家住宅南土蔵,おおはしけじゅうたくみなみどぞう,1棟,,登録有形文化財(建造物),住宅,建築物,,明治,明治前期,1868-1911,土蔵造平屋建、瓦葺、建築面積47㎡,,22 － 0127,58,2008.03.19(平成20.03.19),2008.03.07(平成20.03.07),,20080307,,国土の歴史的景観に寄与しているもの,,静岡県,静岡県磐田市壱貫地字道上429-1,,,,,34.82585000000000,137.83480000000000,敷地入口の東側、北土蔵の前に北面して建つ。 桁行７．３ｍ梁間４．５ｍ、土蔵造２階建、切妻造桟瓦葺で、北側に１間通りに蔵前を付ける。伊豆石を積んだ基壇上に立ち、腰壁を海鼠壁とする。酒造関連の備品を収蔵した蔵で、歴史的な街路景観を形成する。,https://bunka.nii.ac.jp/heritage/43967/_107828/43967_107828111225025117644_300.jpg
101,00006847,大箸家住宅納屋,おおはしけじゅうたくなや,1棟,,登録有形文化財(建造物),住宅,建築物,,昭和前,昭和前期,1926-1988,木造平屋一部2階建、瓦葺、建築面積78㎡,,22 － 0128,58,2008.03.19(平成20.03.19),2008.03.07(平成20.03.07),,20080307,,国土の歴史的景観に寄与しているもの,,静岡県,静岡県磐田市壱貫地字道上429-1,,,,,34.82605000000000,137.83490000000000,主屋の東側、北土蔵の北方に西面して建つ。木造平屋一部２階建、切妻造桟瓦葺である。桁行４．５ｍ梁間３．６ｍの２階部分を中心に、南・東・北三方に一段低い平屋をまわし、西面に下屋吹放ち、北西隅に便所を付設する。屋根が重なる特徴的な外観をもつ。,https://bunka.nii.ac.jp/heritage/43967/_107829/43967_107829111225025119689_300.jpg
101,00006848,大箸家住宅井戸小屋,おおはしけじゅうたくいどごや,1棟,,登録有形文化財(建造物),住宅,その他工作,,昭和前,昭和前期,1926-1988,木造、鉄板葺、面積4.6㎡,,22 － 0129,58,2008.03.19(平成20.03.19),2008.03.07(平成20.03.07),,20080307,,国土の歴史的景観に寄与しているもの,,静岡県,静岡県磐田市壱貫地字道上429-1,,,,,34.82597000000000,137.83470000000000,敷地南門から主屋に延びる通路の東側に建つ。間口２．３ｍ、奥行２．０ｍ、切妻造鉄板葺。コンクリート製の礎石に、方柱の４本柱を四方転びに建て、内法貫と桁で頂部を固める。コンクリート製の井戸枠や釣瓶をかける滑車を残し、生活感のある佇まいをみせる。,https://bunka.nii.ac.jp/heritage/43967/_107830/43967_107830111225025121301_300.jpg
101,00006849,大箸家住宅外塀,おおはしけじゅうたくそとべい,1棟,,登録有形文化財(建造物),住宅,その他工作,,昭和前,昭和前期,1926-1988,木造、鉄板葺、延長49m,,22 － 0130,58,2008.03.19(平成20.03.19),2008.03.07(平成20.03.07),,20080307,,国土の歴史的景観に寄与しているもの,,静岡県,静岡県磐田市壱貫地字道上429-1,,,,,34.82603000000000,137.83440000000000,敷地南東隅から西辺に沿って矩折れに延びる。高さ１．８ｍ、延長４９ｍ、玉石積の基礎上に建ち、軸部は竪板張目板打ちで、黒色塗装を施す。屋根は、柱ごとに腕木を出して桁を受け、鉄板葺とする。もと庄屋屋敷に相応しい屋敷景観をみせる。,https://bunka.nii.ac.jp/heritage/43967/_107831/43967_107831111225025123863_300.jpg
101,00006850,大箸家住宅内塀,おおはしけじゅうたくうちべい,1棟,,登録有形文化財(建造物),住宅,その他工作,,昭和前,昭和前期／昭和30頃改修,1926-1988／1955頃改修,木造、銅板葺、延長28m,,22 － 0131,58,2008.03.19(平成20.03.19),2008.03.07(平成20.03.07),,20080307,,国土の歴史的景観に寄与しているもの,,静岡県,静岡県磐田市壱貫地字道上429-1,,,,,34.82588000000000,137.83470000000000,敷地南面の門の西脇から主屋の座敷部前面に向けて矩折れに延び、内庭入口に庭門を開く。高さ１．６ｍ、延長２８ｍ、玉石積の基礎上に土台を伏せ、軸部は大和塀形式とし、頂部には垂木を配して銅板屋根を葺く。外庭と内庭を区画し、上質な屋敷内景観をつくる。,https://bunka.nii.ac.jp/heritage/43967/_107832/43967_107832111225025125569_300.jpg
101,00007210,松村家住宅主屋,まつむらけじゅうたくしゅおく,1棟,,登録有形文化財(建造物),住宅,建築物,,昭和前,昭和12,1937,木造平屋建、スレート葺、建築面積123㎡,,22 － 0132,60,2008.07.23(平成20.07.23),2008.07.08(平成20.07.08),,20080708,,国土の歴史的景観に寄与しているもの,,静岡県,静岡県駿東郡小山町須走字相野尾31-32,,,,,35.35936000000000,138.87780000000000,南下り敷地の中央南寄りに南面して建つ、木造平屋建の別荘建築である。屋根は切妻造で、土間と食堂の東西棟の西端に、南北棟の和室が接続する。外壁はモルタル塗で、基礎などをスクラッチタイル貼とする。土間と食堂に設けた上げ下げ窓が印象的な外観をなす。,https://bunka.nii.ac.jp/heritage/43967/_108192/43967_108192111225030234793_300.jpg
101,00007357,旧南葵文庫,きゅうなんきぶんこ,1棟,,登録有形文化財(建造物),住宅,建築物,,明治,明治32／昭和8移築・昭和62移築改修,1899／1933移築・1987移築改修,木造2階建、銅板葺、建築面積151㎡,,22 － 0133,61,2008.11.10(平成20.11.10),2008.10.23(平成20.10.23),,20081023,,造形の規範となっているもの,,静岡県,静岡県熱海市伊豆山字東谷758-1-1他,,株式会社星野リゾート,,,35.11278000000000,139.08750000000000,相模湾に臨む丘の斜面に南面して建つ。桁行１５ｍ梁間１１ｍ、木造２階建で、寄棟造妻入とし、東面にはサンルームを張り出す。フリーズに和風を加味した植物文様をあしらいながらも、全体としてはルネサンス様式を基調とした端正なデザインでまとめる。,https://bunka.nii.ac.jp/heritage/43967/_108339/43967_108339971007013081503_300.jpg
101,00007500,旧伊東警察署松原交番（伊東観光番）,きゅういとうけいさつしょまつばらこうばん（いとうかんこうばん）,1棟,,登録有形文化財(建造物),官公庁舎,建築物,,昭和中,昭和33,1958,補強コンクリートブロック造2階建、建築面積38㎡,,22 － 0134,62,2009.01.22(平成21.01.22),2009.01.08(平成21.01.08),,20090108,,国土の歴史的景観に寄与しているもの,,静岡県,静岡県伊東市渚町144-1,,伊東市,,,34.97111000000000,139.09840000000000,市内中心部の角地に建つ。間口５．５ｍ奥行７．３ｍ、補強コンクリートブロック造２階建、陸屋根。１階は正面左右を四半円形平面の曲面壁とし、上下階ともほぼ左右対称に窓を配し、愛嬌のある特徴的な外観をもつ。県内に現存する最古の交番建築である。,https://bunka.nii.ac.jp/heritage/43967/_108482/43967_108482111225031244742_300.jpg
101,00007501,旧小松楼本館,きゅうこまつろうほんかん,1棟,,登録有形文化財(建造物),産業3次,建築物,,明治,明治末期,1868-1911,木造2階建、瓦葺、建築面積123㎡,,22 － 0135,62,2009.01.22(平成21.01.22),2009.01.08(平成21.01.08),,20090108,,国土の歴史的景観に寄与しているもの,,静岡県,静岡県湖西市新居町新居俵町1190-3,,新居町,,,34.69404000000000,137.55980000000000,旧新居宿内の通りに面して建つ。間口１０ｍ奥行１２ｍ、木造２階建、切妻造桟瓦葺。正面外観は、１階の正面中央を玄関、両脇を出格子とする。２階は高欄付の縁で、雨戸建とする。内部は大小の座敷を配し、色壁とするなど、料理茶屋の特徴を留めている。,https://bunka.nii.ac.jp/heritage/43967/_108483/43967_108483111225031246486_300.jpg
101,00007885,静岡市立高等学校旧正門,しずおかしりつこうとうがっこうきゅうせいもん,1基,,登録有形文化財(建造物),住宅,その他工作,,明治,明治前期／昭和33・昭和58移築・昭和61改修,1868-1911／1958・1983移築・1986改修,木造、瓦葺、間口2.9m、袖塀及び潜り付,,22-0136,65,2009.11.19(平成21.11.19),2009.11.02(平成21.11.02),,20091102,,造形の規範となっているもの,,静岡県,静岡県静岡市葵区千代田3-36-2,,,,,34.99237000000000,138.39940000000000,東面して建つ高さ４．７ｍの高麗門。間口２．９ｍに五平柱を建て、鼻先を木鼻風に造る腕木を出し、一軒疎垂木の軒を支持、起りのある切妻造桟瓦葺屋根を掛ける。両開板戸を吊り、上部に竪連子を嵌める。北に潜り、南に袖塀を付ける。規模の大きい高麗門の一例。,https://bunka.nii.ac.jp/heritage/43967/_108865/43967_108865111225032247435_300.jpg
101,00008001,鈴木家住宅主屋,すずきけじゅうたくしゅおく,1棟,,登録有形文化財(建造物),住宅,建築物,,昭和前,昭和3,1928,木造平屋建、瓦葺、建築面積265㎡,,22-0137,66,2010.02.03(平成22.02.03),2010.01.15(平成22.01.15),,20100115,,国土の歴史的景観に寄与しているもの,,静岡県,静岡県静岡市葵区中ノ郷249,,,,,35.02982000000000,138.36190000000000,敷地中央に南面して建ち、建築面積２６５㎡、木造平屋建、寄棟造桟瓦葺である。正面中央に構える玄関の東側を洋間の応接間とし、外観も、他が簓子下見板張とするのに対し、応接間は南京下見板張とする。落ち着いた外観の、和洋併立近代住宅の一つである。,https://bunka.nii.ac.jp/heritage/43967/_128833/43967_128833140905092359581_300.jpg
101,00008002,鈴木家住宅米蔵,すずきけじゅうたくこめぐら,1棟,,登録有形文化財(建造物),住宅,建築物,,大正,大正後期,1912-1925,煉瓦造平屋建、瓦葺、建築面積45㎡,,22-0138,66,2010.02.03(平成22.02.03),2010.01.15(平成22.01.15),,20100115,,国土の歴史的景観に寄与しているもの,,静岡県,静岡県静岡市葵区中ノ郷249,,,,,35.02976000000000,138.36180000000000,主屋の西側に建ち、桁行６．９ｍ梁間５．０ｍ、煉瓦造、寄棟造妻入桟瓦葺で、南面の出入口に下屋を付ける。壁体はイギリス積で一枚半厚とし、外部は内法高に水切りをまわす。軒蛇腹は二段に迫り出し、小屋組は和小屋とする。主屋と対照的に堅牢な外観になる。,https://bunka.nii.ac.jp/heritage/43967/_128834/43967_128834111225032606696_300.jpg
101,00008003,鈴木家住宅文蔵,すずきけじゅうたくふみぐら,1棟,,登録有形文化財(建造物),住宅,建築物,,明治,明治前期,1868-1911,土蔵造2階建、瓦葺、建築面積46㎡,,22-0139,66,2010.02.03(平成22.02.03),2010.01.15(平成22.01.15),,20100115,,国土の歴史的景観に寄与しているもの,,静岡県,静岡県静岡市葵区中ノ郷250,,,,,35.03004000000000,138.36190000000000,主屋後方の石垣上に建つ。桁行５．５ｍ梁間３．６ｍ、土蔵造２階建、切妻造妻入桟瓦葺で、四周に下屋庇を巡らせる。１階は正・背面を出入口とし、２階も正・背面に庇付の窓を設ける。正面外壁を海鼠壁として、２階に水切りを付ける、丁寧な造りの土蔵。,https://bunka.nii.ac.jp/heritage/43967/_128835/43967_128835111225032608432_300.jpg
101,00008004,鈴木家住宅味噌倉,すずきけじゅうたくみそぐら,1棟,,登録有形文化財(建造物),住宅,建築物,,明治,明治前期,1868-1911,木造平屋建、瓦葺、建築面積11㎡,,22-0140,66,2010.02.03(平成22.02.03),2010.01.15(平成22.01.15),,20100115,,国土の歴史的景観に寄与しているもの,,静岡県,静岡県静岡市葵区中ノ郷250,,,,,35.03004000000000,138.36200000000000,主屋後方の石垣上、文蔵の東隣に建つ。桁行２．７ｍ梁間３．０ｍ、木造平屋建、切妻造桟瓦葺で、正面を葺き降ろしの下屋とする。外壁は竪板張目板打で、南正面東半を板戸片引きの出入口とする。文蔵と対照的に簡素な外観の倉で、屋敷構えの一郭を構成している。,https://bunka.nii.ac.jp/heritage/43967/_128836/43967_128836111225032610341_300.jpg
101,00008005,鈴木家住宅渡り廊下,すずきけじゅうたくわたりろうか,1棟,,登録有形文化財(建造物),住宅,建築物,,昭和前,昭和前期,1926-1988,木造平屋建、鉄板葺、建築面積12㎡,,22-0141,66,2010.02.03(平成22.02.03),2010.01.15(平成22.01.15),,20100115,,国土の歴史的景観に寄与しているもの,,静岡県,静岡県静岡市葵区中ノ郷249他,,,,,35.02994000000000,138.36190000000000,主屋と文蔵の間にあって、石垣の上・下段に建つ廊下と、両者を繋ぐ階段からなる。建築面積１２㎡、木造平屋建、両下造鉄板葺である。手摺の下方を竪板張目板打とし、上方は吹放ちとする。開放的で軽快な造りの階段付廊下で、屋敷構成に変化を与えている。,https://bunka.nii.ac.jp/heritage/43967/_134288/43967_134288111225032612308_300.jpg
101,00008006,鈴木家住宅長屋門,すずきけじゅうたくながやもん,1棟,,登録有形文化財(建造物),住宅,建築物,,明治,明治前期,1868-1911,木造平屋建、瓦葺、建築面積60㎡,,22-0142,66,2010.02.03(平成22.02.03),2010.01.15(平成22.01.15),,20100115,,国土の歴史的景観に寄与しているもの,,静岡県,静岡県静岡市葵区中ノ郷249,,,,,35.02964000000000,138.36200000000000,主屋正面の石垣上に建ち、桁行１８ｍ梁間３．３ｍ、木造平屋建、切妻造桟瓦葺である。中央やや西寄りに門口を開き、西室は床張とし、東室は土間の納屋とする。外部は竪板張で正面に庇付の窓を穿つ。重厚な外観の長屋門で、旧家の屋敷構えを引き立てている。,https://bunka.nii.ac.jp/heritage/43967/_128837/43967_128837111225032614196_300.jpg
101,00008007,鈴木家住宅中庭仕切り塀,すずきけじゅうたくなかにわしきりべい,1基,,登録有形文化財(建造物),住宅,その他工作,,昭和前,昭和前期,1926-1988,木造、銅板葺及び鉄板葺、延長6.7m,,22-0143,66,2010.02.03(平成22.02.03),2010.01.15(平成22.01.15),,20100115,,国土の歴史的景観に寄与しているもの,,静岡県,静岡県静岡市葵区中ノ郷249,,,,,35.02970000000000,138.36190000000000,主屋の玄関と応接間の境から南に延びる。延長６．７ｍ、銅板葺及び鉄板葺で、中央に切妻造の門を開く。軸部は土台上に柱を建て、竪板張目板打とする。門は南半間を袖壁として、板戸片引きとする。前庭と中庭を仕切る塀で、落ち着いた屋敷景観をつくる。,https://bunka.nii.ac.jp/heritage/43967/_128838/43967_128838111225032617159_300.jpg
101,00008008,鈴木家住宅石垣,すずきけじゅうたくいしがき,1基,,登録有形文化財(建造物),住宅,その他工作,,明治,明治前期,1868-1911,石造、延長23m,,22-0144,66,2010.02.03(平成22.02.03),2010.01.15(平成22.01.15),,20100115,,国土の歴史的景観に寄与しているもの,,静岡県,静岡県静岡市葵区中ノ郷250,,,,,35.02994000000000,138.36180000000000,主屋背面の敷地内段差に築かれた石垣。最大高２．１ｍ、折曲り延長２３ｍとし、東・西に石段を設け、東端は池泉庭園の石組と一体に積む。緩やかな反りをもたせ、積石の合端を丁寧に加工し、隅部を算木積とするなど、旧家の屋敷に相応しい良質な造りである。,https://bunka.nii.ac.jp/heritage/43967/_128839/43967_128839111225032619040_300.jpg
101,00008461,天竜浜名湖鉄道利木隧道,てんりゅうはまなこてつどうりきずいどう,1基,,登録有形文化財(建造物),交通,土木構造物,,昭和前,昭和11年,1936,コンクリート造、延長663m、幅員4.8m,,22 － 0145,69,2011.01.26(平成23.01.26),2011.01.26(平成23.01.26),,20110126,,国土の歴史的景観に寄与しているもの,,静岡県,静岡県浜松市北区三ヶ日町下尾奈字瀬戸山2262-32～湖西市利木字赤羽根507-11,,天竜浜名湖鉄道株式会社,,,34.76855000000000,137.52600000000000,静岡県西部の内陸部に建設された旧国鉄二俣線の施設。断面は馬蹄形で、緩やかに湾曲するコンクリート造隧道。退避所を一四ヶ所設け、保線用に照明器具を掛ける金具が残る。延長六六三メートルを測り、天竜浜名湖線沿線では最長の隧道である。,https://bunka.nii.ac.jp/heritage/43967/_134857/43967_134857111225034059303_300.jpg
101,00008462,天竜浜名湖鉄道三ヶ日駅本屋,てんりゅうはまなこてつどうみっかびえきほんや,1棟,,登録有形文化財(建造物),交通,建築物,,昭和前,昭和11年／昭和62年改修,1936／1987改修,木造平屋建、瓦葺一部鉄板葺、建築面積194㎡,,22 － 0146,69,2011.01.26(平成23.01.26),2011.01.26(平成23.01.26),,20110126,,国土の歴史的景観に寄与しているもの,,静岡県,静岡県浜松市北区三ヶ日町三ヶ日字門田1148-3,,天竜浜名湖鉄道株式会社,,,34.80273000000000,137.55140000000000,利木隧道から四六〇〇メートル北東に位置する。北面して建つ木造平屋建、建築面積一九四平方メートル。東西棟の寄棟造瓦葺で、正面西寄りに寄棟屋根を突出し、鉄板葺庇を背面ホーム側に付設する。西寄りに待合室、東に駅務室などを配する小規模な駅舎。,https://bunka.nii.ac.jp/heritage/43967/_134858/43967_134858111225034100971_300.jpg
101,00008463,天竜浜名湖鉄道西気賀駅本屋,てんりゅうはまなこてつどうにしきがえきほんや,1棟,,登録有形文化財(建造物),交通,建築物,,昭和前,昭和13年／平成元年改修,1938／1989改修,木造平屋建、瓦葺一部スレート葺、建築面積106㎡,,22 － 0147,69,2011.01.26(平成23.01.26),2011.01.26(平成23.01.26),,20110126,,国土の歴史的景観に寄与しているもの,,静岡県,静岡県浜松市北区細江町気賀字岩根10185-3,,天竜浜名湖鉄道株式会社,,,34.80237000000000,137.62190000000000,三ヶ日駅から七九〇〇メートル東に位置する。木造平屋建、桁行一四メートル梁間八・八メートルで、南面して建つ。寄棟造瓦葺とし、スレート葺のホーム上屋を付ける。入口庇の鋼製持送りや、待合室の木製のベンチと改札口が往時の雰囲気を伝える。,https://bunka.nii.ac.jp/heritage/43967/_134859/43967_134859111225034102805_300.jpg
101,00008464,天竜浜名湖鉄道西気賀駅待合所,てんりゅうはまなこてつどうにしきがえきまちあいじょ,1棟,,登録有形文化財(建造物),交通,建築物,,昭和前,昭和13年／昭和34年改修,1938／1959改修,木造平屋建、スレート葺、建築面積10㎡,,22 － 0148,69,2011.01.26(平成23.01.26),2011.01.26(平成23.01.26),,20110126,,国土の歴史的景観に寄与しているもの,,静岡県,静岡県浜松市北区細江町気賀字岩根10185-3,,天竜浜名湖鉄道株式会社,,,34.80241000000000,137.62150000000000,本屋の北側、線路を挟んだ下りプラットホーム上に建つ。桁行六・四メートル梁間一・五メートル、木造平屋建。スレート葺の片流屋根を火打付の小屋組が受ける。側・背面を竪板壁とし、大きく窓を穿ち、引違いガラス戸をたてるなど、開放的な待合所。,https://bunka.nii.ac.jp/heritage/43967/_134860/43967_134860111225034104529_300.jpg
101,00008465,天竜浜名湖鉄道気賀駅本屋,てんりゅうはまなこてつどうきがえきほんや,1棟,,登録有形文化財(建造物),交通,建築物,,昭和前,昭和13年／昭和45年・昭和62年改修,1938／1970・1987改修,木造平屋建、瓦葺一部鉄板葺、建築面積183㎡,,22 － 0149,69,2011.01.26(平成23.01.26),2011.01.26(平成23.01.26),,20110126,,国土の歴史的景観に寄与しているもの,,静岡県,静岡県浜松市北区細江町気賀字上堀合427-1,,天竜浜名湖鉄道株式会社,,,34.80730000000000,137.65140000000000,西気賀駅から二九〇〇メートル東に位置する。木造平屋建、建築面積一八三平方メートル、北面して建つ。東西に落棟を設ける寄棟造瓦葺とし、背面に鉄板葺の下屋を付ける。外壁はモルタル塗、基礎タイル貼とし、緩い勾配の屋根と一体で穏やかな外観をつくる。,https://bunka.nii.ac.jp/heritage/43967/_134861/43967_134861111225034107131_300.jpg
101,00008466,天竜浜名湖鉄道気賀駅上屋及びプラットホーム,てんりゅうはまなこてつどうきがえきうわやおよびぷらっとほーむ,1棟,,登録有形文化財(建造物),交通,建築物,,昭和前,昭和13年／昭和34年改修,1938／1959改修,上屋　木造平屋建、スレート葺、建築面積229㎡　プラットホーム　コンクリート造、延長63m,,22 － 0150,69,2011.01.26(平成23.01.26),2011.01.26(平成23.01.26),,20110126,,国土の歴史的景観に寄与しているもの,,静岡県,静岡県浜松市北区細江町気賀字上堀合427-1,,天竜浜名湖鉄道株式会社,,,34.80721000000000,137.65180000000000,本屋の改札口の南に位置する。コンクリート造、延長六三メートルのプラットホームの上に、桁行三六メートル梁間三・六メートル、木造切妻造、スレート葺上屋を乗せる。トラス組で、架構を現す。長く続く木造上屋が地方鉄道の往時の賑わいを伝える。,https://bunka.nii.ac.jp/heritage/43967/_134862/43967_134862111225034108811_300.jpg
101,00008467,天竜浜名湖鉄道気賀町高架橋,てんりゅうはまなこてつどうきがまちこうかきょう,1基,,登録有形文化財(建造物),交通,土木構造物,,昭和前,昭和13年,1938,鉄筋コンクリート造、橋長90m、橋台及び橋脚付,,22 － 0151,69,2011.01.26(平成23.01.26),2011.01.26(平成23.01.26),,20110126,,国土の歴史的景観に寄与しているもの,,静岡県,静岡県浜松市北区細江町気賀字井領113-2他,,天竜浜名湖鉄道株式会社,,,34.80797000000000,137.65610000000000,気賀駅から四〇〇メートル東に位置する。第一気賀町高架橋と気賀架道橋、第二気賀町高架橋、井領架道橋からなる一体のＲＣ造高架橋で、姫街道や市道などを跨ぐ。全長九〇メートル。橋台とＴ形桁や単版桁の組み合わせや、ラーメン構造など場所により違える。,https://bunka.nii.ac.jp/heritage/43967/_134863/43967_134863111225034110615_300.jpg
101,00008468,天竜浜名湖鉄道金指駅上屋及びプラットホーム,てんりゅうはまなこてつどうかなさしえきうわやおよびぷらっとほーむ,1棟,,登録有形文化財(建造物),交通,建築物,,昭和前,昭和13年,1938,上屋　木造平屋建、スレート葺、建築面積48㎡　プラットホーム　コンクリート造、延長82m,,22 － 0152,69,2011.01.26(平成23.01.26),2011.01.26(平成23.01.26),,20110126,,造形の規範となっているもの,,静岡県,静岡県浜松市北区引佐町金指字東金指1033-2,,天竜浜名湖鉄道株式会社,,,34.81692000000000,137.68090000000000,気賀町高架橋から二五〇〇メートル北東に位置する。プラットホームはコンクリート造で、延長八二メートル。西端に建つ上屋は切妻造スレート葺。内側に傾斜した二本の柱を桁行に四・六メートル間隔で配置し、繋梁で固め、小屋をトラス組とする独特の構造になる。,https://bunka.nii.ac.jp/heritage/43967/_134864/43967_134864111225034112438_300.jpg
101,00008469,天竜浜名湖鉄道金指駅高架貯水槽,てんりゅうはまなこてつどうかなさしえきこうかちょすいそう,1基,,登録有形文化財(建造物),交通,その他工作,,昭和前,昭和13年頃,1938頃,鉄筋コンクリート造、面積13㎡,,22 － 0153,69,2011.01.26(平成23.01.26),2011.01.26(平成23.01.26),,20110126,,国土の歴史的景観に寄与しているもの,,静岡県,静岡県浜松市北区引佐町金指字東金指1033-2,,天竜浜名湖鉄道株式会社,,,34.81705000000000,137.68020000000000,プラットホームの西北に位置する鉄筋コンクリート造高架貯水槽。〇・五メートル角の柱を足下で方四・〇メートルに内転びにたて、外径四・〇メートルの円形貯水槽を支える。総高一二メートル。中央にバルブ付鉄管を降ろす。力強い外観になる構造物。,https://bunka.nii.ac.jp/heritage/43967/_134865/43967_134865111225034114015_300.jpg
101,00008470,天竜浜名湖鉄道瀬戸橋梁,てんりゅうはまなこてつどうせときょうりょう,1基,,登録有形文化財(建造物),交通,土木構造物,,昭和前,昭和13年,1938,鉄筋コンクリート造3連桁橋、橋長39m、橋台及び橋脚付,,22 － 0154,69,2011.01.26(平成23.01.26),2011.01.26(平成23.01.26),,20110126,,造形の規範となっているもの,,静岡県,静岡県浜松市北区細江町中川字渕ノ上382-3他,,天竜浜名湖鉄道株式会社,,,34.81518000000000,137.69720000000000,金指駅から一五〇〇メートル東、橋長三九メートルのＲＣ造三径間連続桁橋。中央の支間が二三メートルを測る長径間ＲＣ造桁を用い、桁と金指側橋脚を固定、他方の橋脚と桁を可動支承とする特殊な構造になる。鉄道省が直轄工事で実施した意欲的な試みを伝える。,https://bunka.nii.ac.jp/heritage/43967/_134866/43967_134866111225034116713_300.jpg
101,00008471,天竜浜名湖鉄道瀬戸山橋梁,てんりゅうはまなこてつどうせとやまきょうりょう,1基,,登録有形文化財(建造物),交通,土木構造物,,昭和前,昭和15年,1940,コンクリート造3連アーチ橋、橋長17m、橋台付,,22 － 0155,69,2011.01.26(平成23.01.26),2011.01.26(平成23.01.26),,20110126,,国土の歴史的景観に寄与しているもの,,静岡県,静岡県浜松市北区都田町字吉影7490-10,,天竜浜名湖鉄道株式会社,,,34.81664000000000,137.70220000000000,瀬戸橋梁から五〇〇メートル東、山肌が都田川に迫る傾斜地に国道に沿って設けられる。橋長一七メートル、幅四・二メートルの充腹式コンクリート造三連アーチ橋。両側を立ち上げ、砕石道床とする。径間四・〇メートルの半円アーチが連続する優美な意匠になる。,https://bunka.nii.ac.jp/heritage/43967/_134867/43967_134867111225034118588_300.jpg
101,00008472,天竜浜名湖鉄道都田川橋梁,てんりゅうはまなこてつどうみやこだがわきょうりょう,1基,,登録有形文化財(建造物),交通,土木構造物,,昭和前,昭和15年,1940,鋼製5連桁及びコンクリート造単桁橋、橋長123m、橋台及び橋脚付,,22 － 0156,69,2011.01.26(平成23.01.26),2011.01.26(平成23.01.26),,20110126,,国土の歴史的景観に寄与しているもの,,静岡県,静岡県浜松市北区都田町嶋4605-2,,天竜浜名湖鉄道株式会社,,,34.83414000000000,137.73110000000000,瀬戸山橋梁より三〇〇〇メートル北東に位置する。橋長一二三メートル、単線仕様の鋼製五連桁橋とコンクリート造単桁橋からなり、鋼製桁は上路式のプレートガーダーとする。たちの高いコンクリート造の橋脚は基礎、脚部とも円形とし、渓谷の景観によく調和する。,https://bunka.nii.ac.jp/heritage/43967/_134868/43967_134868111225034120253_300.jpg
101,00008473,天竜浜名湖鉄道宮口駅本屋及び上りプラットホーム,てんりゅうはまなこてつどうみやぐちえきほんやおよびのぼりぷらっとほーむ,1棟,,登録有形文化財(建造物),交通,建築物,,昭和前,昭和15年,1940,本屋　木造平屋建、瓦葺、建築面積139㎡　プラットホーム　コンクリート造、延長87m,,22 － 0157,69,2011.01.26(平成23.01.26),2011.01.26(平成23.01.26),,20110126,,国土の歴史的景観に寄与しているもの,,静岡県,静岡県浜松市浜北区宮口字山下119-2,,天竜浜名湖鉄道株式会社,,,34.83030000000000,137.77360000000000,都田川橋梁の三六〇〇メートル東に位置する。桁行一五メートル梁間七・五メートル、木造平屋建、北面を吹き放ち、八七メートル長のプラットホームを設ける。平面は東側を待合室、西側を事務室とし、西面北寄りに物置を付属する。建設当初の構成を全体に留める。,https://bunka.nii.ac.jp/heritage/43967/_134869/43967_134869111225034122003_300.jpg
101,00008474,天竜浜名湖鉄道宮口駅待合所及び下りプラットホーム,てんりゅうはまなこてつどうみやぐちえきまちあいじょおよびくだりぷらっとほーむ,1棟,,登録有形文化財(建造物),交通,建築物,,昭和前,昭和15年,1940,待合所　木造平屋建、鉄板葺、建築面積12㎡　プラットホーム　コンクリート造、延長90m,,22 － 0158,69,2011.01.26(平成23.01.26),2011.01.26(平成23.01.26),,20110126,,国土の歴史的景観に寄与しているもの,,静岡県,静岡県浜松市浜北区宮口字山下119-2,,天竜浜名湖鉄道株式会社,,,34.83040000000000,137.77320000000000,上りプラットホームの北、少し西方に位置する対面式プラットホーム。九〇メートル長のプラットホームの中央に待合所が建つ。桁行八･二メートル梁間一･五メートル、木造平屋建、鉄板葺片流屋根。南面を吹き放ち、三方を板壁に大きく窓を穿つ開放的な待合所。,https://bunka.nii.ac.jp/heritage/43967/_134870/43967_134870111225034123616_300.jpg
101,00008475,天竜浜名湖鉄道岩水寺駅待合所及びプラットホーム,てんりゅうはまなこてつどうがんすいじえきまちあいじょおよびぷらっとほーむ,1棟,,登録有形文化財(建造物),交通,建築物,,昭和前,昭和15年／平成3年改修,1940／1991改修,待合所　木造平屋建、スレート葺、建築面積20㎡　プラットホーム　コンクリート造、延長92m,,22 － 0159,69,2011.01.26(平成23.01.26),2011.01.26(平成23.01.26),,20110126,,造形の規範となっているもの,,静岡県,静岡県浜松市浜北区根堅字横町1730-2,,天竜浜名湖鉄道株式会社,,,34.83769000000000,137.79230000000000,宮口駅の二〇〇〇メートル北東に位置する。東西に延びる九二メートル長の島式プラットホーム。西寄りに建つ待合所は、桁行一〇メートルの規模で、独立柱をたて、変形トラス屋根を支持し、北半に外壁をまわす。独立柱による特徴的な屋根構造である。,https://bunka.nii.ac.jp/heritage/43967/_134871/43967_134871111225034126359_300.jpg
101,00008476,天竜浜名湖鉄道天竜川橋梁,てんりゅうはまなこてつどうてんりゅうがわきょうりょう,1基,,登録有形文化財(建造物),交通,土木構造物,,昭和前,昭和15年,1940,鋼製3連トラス及び鋼製7連桁橋、橋長403m、橋台及び橋脚付,,22 － 0160,69,2011.01.26(平成23.01.26),2011.01.26(平成23.01.26),,20110126,,国土の歴史的景観に寄与しているもの,,静岡県,静岡県浜松市天竜区二俣町字竹藪485-6他,,天竜浜名湖鉄道株式会社,,,34.85394000000000,137.80700000000000,岩水寺駅の二〇〇〇メートル北東に位置し、天竜川に架かる。橋長四〇三メートル、単線仕様で、北側の三連トラス橋と、南側の鋼製七連桁橋からなる。橋台及び橋脚は鉄筋コンクリート造。天竜浜名湖鉄道における最長の橋梁で、唯一のトラス橋である。,https://bunka.nii.ac.jp/heritage/43967/_134872/43967_134872111225034128141_300.jpg
101,00008477,天竜浜名湖鉄道二俣川橋梁,てんりゅうはまなこてつどうふたまたがわきょうりょう,1基,,登録有形文化財(建造物),交通,土木構造物,,昭和前,昭和15年,1940,鉄筋コンクリート造単桁及び鋼製2連桁橋、橋長58m、橋台及び橋脚付,,22 － 0161,69,2011.01.26(平成23.01.26),2011.01.26(平成23.01.26),,20110126,,国土の歴史的景観に寄与しているもの,,静岡県,静岡県浜松市天竜区二俣町二俣85-3地先他,,天竜浜名湖鉄道株式会社,,,34.85985000000000,137.81440000000000,天竜川橋梁の一〇〇〇メートル北東に位置し、二俣川に架かる。橋長五八メートル、単線仕様で、両端部にコンクリート造単桁橋を配し、中央部に鋼製二連桁橋を用いる。鋼製桁は上路式のプレートガーダー。緩やかにカーブする橋梁で、市街地景観に彩りを添える。,https://bunka.nii.ac.jp/heritage/43967/_134873/43967_134873111225034129830_300.jpg
101,00008478,天竜浜名湖鉄道天竜二俣駅本屋,てんりゅうはまなこてつどうてんりゅうふたまたえきほんや,1棟,,登録有形文化財(建造物),交通,建築物,,昭和前,昭和15年／昭和後期改修,1940／1966-1989改修,木造平屋建、瓦葺、建築面積460㎡,,22 － 0162,69,2011.01.26(平成23.01.26),2011.01.26(平成23.01.26),,20110126,,国土の歴史的景観に寄与しているもの,,静岡県,静岡県浜松市天竜区二俣町阿蔵字札木114-2,,天竜浜名湖鉄道株式会社,,,34.85949000000000,137.81980000000000,浜松市北部の二俣町の中心に位置する。桁行二〇メートル梁間一三メートル、木造平屋建、東西棟の切妻造桟瓦葺で、正背面を吹き放つ。西側を待合室、東側を事務室とする。外壁は竪板張で、煉瓦積基礎。吹放ちの深い軒が単調な外観に陰影を与える。,https://bunka.nii.ac.jp/heritage/43967/_134874/43967_134874111225034131882_300.jpg
101,00008479,天竜浜名湖鉄道天竜二俣駅上り上屋及びプラットホーム,てんりゅうはまなこてつどうてんりゅうふたまたえきのぼりうわやおよびぷらっとほーむ,1棟,,登録有形文化財(建造物),交通,建築物,,昭和前,昭和15年,1940,上屋　木造平屋建、鉄板葺、建築面積205㎡　プラットホーム　コンクリート造、延長94m,,22 － 0163,69,2011.01.26(平成23.01.26),2011.01.26(平成23.01.26),,20110126,,国土の歴史的景観に寄与しているもの,,静岡県,静岡県浜松市天竜区二俣町阿蔵字札木114-2,,天竜浜名湖鉄道株式会社,,,34.85935000000000,137.81970000000000,本屋の南に対面する島式プラットホーム。東西に延びる九四メートル長のプラットホームの西寄りに、桁行四〇メートル梁間二・六メートルの上屋を建てる。小屋組は変形のトラスで、柱や梁の一部に古レールを転用する。開業当初の建設技術を今に伝える。,https://bunka.nii.ac.jp/heritage/43967/_134875/43967_134875111225034133986_300.jpg
101,00008480,天竜浜名湖鉄道天竜二俣駅下り上屋及びプラットホーム,てんりゅうはまなこてつどうてんりゅうふたまたえきくだりうわやおよびぷらっとほーむ,1棟,,登録有形文化財(建造物),交通,建築物,,昭和前,昭和15年,1940,上屋　木造平屋建、鉄板葺、建築面積205㎡　プラットホーム　コンクリート造、延長94m,,22 － 0164,69,2011.01.26(平成23.01.26),2011.01.26(平成23.01.26),,20110126,,国土の歴史的景観に寄与しているもの,,静岡県,静岡県浜松市天竜区二俣町阿蔵字札木114-2,,天竜浜名湖鉄道株式会社,,,34.85923000000000,137.81970000000000,上りホームの南に対面する島式プラットホーム。九四メートル長のプラットホームの西寄りに、桁行四〇メートル梁間二・六メートルの上屋を建てる。小屋組は変形のトラス。同形・同規模の上下線のプラットホームと上屋が並び立ち、中心駅としての風格を示す。,https://bunka.nii.ac.jp/heritage/43967/_134876/43967_134876111225034136995_300.jpg
101,00008481,天竜浜名湖鉄道運転区揚水機室,てんりゅうはまなこてつどううんてんくようすいきしつ,1棟,,登録有形文化財(建造物),交通,建築物,,昭和前,昭和15年,1940,木造平屋建、瓦葺、建築面積20㎡、井戸付,,22 － 0165,69,2011.01.26(平成23.01.26),2011.01.26(平成23.01.26),,20110126,,国土の歴史的景観に寄与しているもの,,静岡県,静岡県浜松市天竜区二俣町阿蔵字坂下230-2,,天竜浜名湖鉄道株式会社,,,34.85851000000000,137.82170000000000,天竜二俣駅東方に設けられた機関区の中央南端に位置する。東西棟の切妻造桟瓦葺、桁行三・六メートル梁間五・五メートル、木造平屋建。竪板壁で、北面に出入口、南・西面に大きく窓を開ける簡易な建築。隣接して外径三・六メートル、コンクリート造井戸を付設。,https://bunka.nii.ac.jp/heritage/43967/_134877/43967_134877111225034138747_300.jpg
101,00008482,天竜浜名湖鉄道運転区高架貯水槽,てんりゅうはまなこてつどううんてんくこうかちょすいそう,1基,,登録有形文化財(建造物),交通,その他工作,,昭和前,昭和15年頃,1940頃,鉄筋コンクリート造、面積28㎡,,22 － 0166,69,2011.01.26(平成23.01.26),2011.01.26(平成23.01.26),,20110126,,国土の歴史的景観に寄与しているもの,,静岡県,静岡県浜松市天竜区二俣町阿蔵字坂下230-2,,天竜浜名湖鉄道株式会社,,,34.85839000000000,137.82190000000000,揚水機室の二〇メートル東に位置する。六本のコンクリート造脚部の上に外径六・〇メートル、内容量七〇トンのコンクリート造貯水槽を載せる。脚の内側にはポンプや配管の一部が残る。揚水機室と一体で、昭和前期における鉄道施設の一端を物語る。,https://bunka.nii.ac.jp/heritage/43967/_134878/43967_134878111225034140597_300.jpg
101,00008483,天竜浜名湖鉄道神田隧道,てんりゅうはまなこてつどうかんだずいどう,1基,,登録有形文化財(建造物),交通,土木構造物,,昭和前,昭和5年,1930,コンクリート造、延長260m、幅員4.6m,,22 － 0167,69,2011.01.26(平成23.01.26),2011.01.26(平成23.01.26),,20110126,,国土の歴史的景観に寄与しているもの,,静岡県,静岡県磐田市上野部字神田2434-5他,,天竜浜名湖鉄道株式会社,,,34.85335000000000,137.82810000000000,天竜二俣駅の一〇〇〇メートル南東に位置する。延長二六〇メートル、単線仕様、馬蹄形アーチ断面になるコンクリート造の隧道。光明電鉄の軌道として建設されたもので、坑門には迫石及び笠石を表現するなど、丁寧な仕上げが見られる。,https://bunka.nii.ac.jp/heritage/43967/_134879/43967_134879111225034142533_300.jpg
101,00008484,天竜浜名湖鉄道一宮川橋梁,てんりゅうはまなこてつどういちのみやがわきょうりょう,1基,,登録有形文化財(建造物),交通,土木構造物,,昭和前,昭和15年,1940,鋼製単桁及びコンクリート造2連桁橋、橋長40m、橋台及び橋脚付,,22 － 0168,69,2011.01.26(平成23.01.26),2011.01.26(平成23.01.26),,20110126,,国土の歴史的景観に寄与しているもの,,静岡県,静岡県袋井市川会地先,,天竜浜名湖鉄道株式会社,,,34.81109000000000,137.87810000000000,神田隧道の六〇〇〇メートル南東に位置する。橋長四〇メートル、単線仕様の鋼製単桁橋及びコンクリート造二連桁橋からなり、全体で緩やかな曲線を描く。橋脚は鉄筋コンクリート造。端部の上路式ＲＣ桁、河川上の下路式鋼製桁と、変化のある景観をつくる。,https://bunka.nii.ac.jp/heritage/43967/_134880/43967_134880111225034144319_300.jpg
101,00008485,天竜浜名湖鉄道遠江一宮駅本屋,てんりゅうはまなこてつどうとおとうみいちのみやえきほんや,1棟,,登録有形文化財(建造物),交通,建築物,,昭和前,昭和15年,1940,木造平屋建、瓦葺、建築面積139㎡,,22 － 0169,69,2011.01.26(平成23.01.26),2011.01.26(平成23.01.26),,20110126,,国土の歴史的景観に寄与しているもの,,静岡県,静岡県周智郡森町一宮字郷戸2431-2,,天竜浜名湖鉄道株式会社,,,34.81807000000000,137.88880000000000,一宮川橋梁の一〇〇〇メートル北東に位置する。桁行一五メートル梁間五・〇メートル、木造平屋建。東西棟の切妻造桟瓦葺で、ホーム側を葺き降ろして吹き放つ。西を待合室、東を事務所とし、東面南寄りに物置を付属。外壁を板壁とする簡素な駅舎。,https://bunka.nii.ac.jp/heritage/43967/_134881/43967_134881111225034147067_300.jpg
101,00008486,天竜浜名湖鉄道遠州森駅本屋及び上りプラットホーム,てんりゅうはまなこてつどうえんしゅうもりえきほんやおよびのぼりぷらっとほーむ,1棟,,登録有形文化財(建造物),交通,建築物,,昭和前,昭和10年,1935,本屋　木造平屋建、瓦葺一部鉄板葺、建築面積146㎡　プラットホーム　コンクリート造、延長86m,,22 － 0170,69,2011.01.26(平成23.01.26),2011.01.26(平成23.01.26),,20110126,,国土の歴史的景観に寄与しているもの,,静岡県,静岡県周智郡森町森字十七夜前980-2,,天竜浜名湖鉄道株式会社,,,34.83092000000000,137.92370000000000,森町の中心に位置する。西面して建つ、桁行一六メートル梁間六・〇メートルの木造平屋建。切妻造桟瓦葺で、正面に切妻屋根、ホーム側に庇を付け、八六メートル長のプラットホームを設ける。西を待合室、東を事務所とし、標準的な駅舎の一例。,https://bunka.nii.ac.jp/heritage/43967/_134882/43967_134882111225034148802_300.jpg
101,00008487,天竜浜名湖鉄道太田川橋梁,てんりゅうはまなこてつどうおおたがわきょうりょう,1基,,登録有形文化財(建造物),交通,土木構造物,,昭和前,昭和10年,1935,鋼製12連桁橋、橋長192m、橋台及び橋脚付,,22 － 0171,69,2011.01.26(平成23.01.26),2011.01.26(平成23.01.26),,20110126,,国土の歴史的景観に寄与しているもの,,静岡県,静岡県周智郡森町森地先,,天竜浜名湖鉄道株式会社,,,34.83200000000000,137.92970000000000,遠州森駅の四〇〇メートル東に位置し、太田川に架かる。橋長一九二メートル、単線仕様の鋼製一二連桁橋で、全体で緩やかな曲線を描く。鋼製桁はプレートガーダーで、信州街道に架かる東端のみ下路式とし、他は上路式とする。当初開通時における最長の橋梁。,https://bunka.nii.ac.jp/heritage/43967/_134883/43967_134883111225034150557_300.jpg
101,00008488,天竜浜名湖鉄道原野谷川橋梁,てんりゅうはまなこてつどうはらのやがわきょうりょう,1基,,登録有形文化財(建造物),交通,土木構造物,,昭和前,昭和10年,1935,鋼製6連桁橋、橋長105m、橋台及び橋脚付,,22 － 0172,69,2011.01.26(平成23.01.26),2011.01.26(平成23.01.26),,20110126,,国土の歴史的景観に寄与しているもの,,静岡県,静岡県掛川市本郷地先,,天竜浜名湖鉄道株式会社,,,34.81214000000000,137.95220000000000,太田川橋梁の三〇〇〇メートル南東に位置し、原野谷川に架かる。橋長一〇五メートル、単線仕様の鋼製六連桁橋で、鋼製桁には上路式のプレートガーダーを用いる。鉄筋コンクリート造の橋脚五基を据える。長く延びる単純な桁橋が河川の自然景観に調和する。,https://bunka.nii.ac.jp/heritage/43967/_134884/43967_134884111225034152422_300.jpg
101,00008489,天竜浜名湖鉄道原谷駅本屋,てんりゅうはまなこてつどうはらのやえきほんや,1棟,,登録有形文化財(建造物),交通,建築物,,昭和前,昭和10年,1935,木造平屋建、瓦葺一部鉄板葺、建築面積71㎡,,22 － 0173,69,2011.01.26(平成23.01.26),2011.01.26(平成23.01.26),,20110126,,国土の歴史的景観に寄与しているもの,,静岡県,静岡県掛川市本郷字西坪1416-2,,天竜浜名湖鉄道株式会社,,,34.80864000000000,137.95490000000000,原野谷川橋梁の五〇〇メートル南に位置する。桁行一三メートル梁間四・五メートル、木造平屋建。南北棟の切妻造スレート葺で、ホーム側に庇を張り出す。北側に待合室、西側に事務室を配し、待合室には駅務用の窓口や木製の改札口等が残る。,https://bunka.nii.ac.jp/heritage/43967/_134885/43967_134885111225034154087_300.jpg
101,00008490,天竜浜名湖鉄道桜木駅本屋及び上りプラットホーム,てんりゅうはまなこてつどうさくらぎえきほんやおよびのぼりぷらっとほーむ,1棟,,登録有形文化財(建造物),交通,建築物,,昭和前,昭和10年,1935,本屋　木造平屋建、瓦葺一部鉄板葺、建築面積93㎡　プラットホーム　コンクリート造、延長86m,,22 － 0174,69,2011.01.26(平成23.01.26),2011.01.26(平成23.01.26),,20110126,,国土の歴史的景観に寄与しているもの,,静岡県,静岡県掛川市富部字西ノ谷251-5,,天竜浜名湖鉄道株式会社,,,34.77829000000000,137.97290000000000,原谷駅の四〇〇〇メートル南に位置する。桁行一二メートル梁間四・五メートル、木造平屋建、南面に八六メートル長のプラットホームを設ける。切妻造スレート葺で、ホーム側に庇を架け、東面南寄りに物置を付属。外壁を上部漆喰壁の下見板張とする簡易な意匠。,https://bunka.nii.ac.jp/heritage/43967/_134886/43967_134886111225034156678_300.jpg
101,00008491,天竜浜名湖鉄道富部橋梁,てんりゅうはまなこてつどうとんべきょうりょう,1基,,登録有形文化財(建造物),交通,土木構造物,,昭和前,昭和10年,1935,鋼製4連桁橋、橋長21m、橋台及び橋脚付,,22 － 0175,69,2011.01.26(平成23.01.26),2011.01.26(平成23.01.26),,20110126,,国土の歴史的景観に寄与しているもの,,静岡県,静岡県掛川市富部字東浦666-3他,,天竜浜名湖鉄道株式会社,,,34.77779000000000,137.97680000000000,桜木駅の四〇〇メートル東に位置し、家代川の三本の支流が合流する地点に架かる。橋長二一メートル、単線仕様の鋼製四連桁橋で全体に僅かな曲線を描く。橋脚は及び橋台は鉄筋コンクリート造。各鋼製桁は五・一メートルと短く、Ｉビームを使用する。,https://bunka.nii.ac.jp/heritage/43967/_134887/43967_134887111225034158393_300.jpg
101,00008694,旧順天堂田中歯科医院診療所兼主屋,きゅうじゅんてんどうたなかしかいいんしんりょうじょけんしゅおく,1棟,,登録有形文化財(建造物),文化福祉,建築物,,明治,明治中期／大正14年移築増築,,木造2階一部平屋建、瓦葺一部鉄板葺、建築面積187㎡,,22 － 0176,70,2011.07.25(平成23.07.25),2011.07.25(平成23.07.25),,20110725,,国土の歴史的景観に寄与しているもの,,静岡県,静岡県富士市吉原3-3510-6,,,,,35.16418000000000,138.68610000000000,通りに西面する敷地の東寄りに建つ。洋館と和館からなり、屋根は鉄板葺、建築面積187㎡。洋館は2階1部平屋建で、屋根寄棟造とし、6角形平面でドーム型の屋根や、急勾配の屋根を付設する。下見板張で、縦長の上下窓を配する。町中の洋館として親しまれる。,https://bunka.nii.ac.jp/heritage/43967/_149415/43967_149415140216024029364_300.jpg
101,00008695,旧木村家住宅主屋,きゅうきむらけじゅうたくしゅおく,1棟,,登録有形文化財(建造物),文化福祉,建築物,,昭和前,昭和前期,,木造2階一部平屋建、瓦葺、建築面積304㎡,,22 － 0177,70,2011.07.25(平成23.07.25),2011.07.25(平成23.07.25),,20110725,,造形の規範となっているもの,,静岡県,静岡県賀茂郡河津町峰603,,,,,34.75514000000000,138.98280000000000,北に川を望む庭園内に建つ。木造2階1部平屋建、建築面積三304㎡。基礎まわりをタイル貼とし、壁はベージュ色のモルタル洗出し仕上げ、緑釉の桟瓦を葺き、所々に出窓を付け、ポーチなどに節のある磨丸太を使う。抑制のきいた意匠になる別荘建築。,https://bunka.nii.ac.jp/heritage/43967/_149416/43967_149416140216024031775_300.jpg
101,00009172,旧住吉浄水場着水井,きゅうすみよしじょうすいじょうちゃくすいせい,1基,,登録有形文化財(建造物),生活関連,土木構造物,,昭和前,昭和6年,1931,鉄筋コンクリート造、面積66㎡,,,72,2012.02.23(平成24.02.23),2012.02.23(平成24.02.23),,20120223,,国土の歴史的景観に寄与しているもの,,静岡県,静岡県浜松市中区住吉5-182-1,,浜松市,市区町村,,34.73487000000000,137.72880000000000,敷地北東隅に建つ鉄筋コンクリート造。外径9.2メートルの正八角形平面で、頂部に円形の軒を張出し、内部は深さ6.8メートルを測る。外壁の隅に柱形を配し、基部にペデスタル、頂部に持送りを表し、柱身に溝彫りを施すなど、外部意匠を凝らした水道施設。,https://bunka.nii.ac.jp/heritage/43967/_164725/43967_164725140222025022477_300.jpg
101,00009173,旧住吉浄水場接合井,きゅうすみよしじょうすいじょうせつごうせい,1基,,登録有形文化財(建造物),生活関連,土木構造物,,昭和前,昭和6年,1931,鉄筋コンクリート造、面積275㎡,,,72,2012.02.23(平成24.02.23),2012.02.23(平成24.02.23),,20120223,,国土の歴史的景観に寄与しているもの,,静岡県,静岡県浜松市中区住吉5-283,,浜松市,市区町村,,34.73436000000000,137.72780000000000,敷地中央に位置する。鉄筋コンクリート造で、外径18.7メートルの円形平面になり、内部は深さ2.7メートルを測る。外壁は洗出し仕上げで、上下の帯と束を表して基壇風に見せ、各束間に石積を模した目地を切る。上面は芝を張り、換気塔2基を立ち上げる。,https://bunka.nii.ac.jp/heritage/43967/_164726/43967_164726140222025024514_300.jpg
101,00009174,旧住吉浄水場配水池,きゅうすみよしじょうすいじょうはいすいち,1基,,登録有形文化財(建造物),生活関連,土木構造物,,昭和前,昭和6年,1931,鉄筋コンクリート造、面積1844㎡,,,72,2012.02.23(平成24.02.23),2012.02.23(平成24.02.23),,20120223,,国土の歴史的景観に寄与しているもの,,静岡県,静岡県浜松市中区住吉5-284,,浜松市,市区町村,,34.73413000000000,137.72720000000000,敷地西側に位置する。東西24メートル南北34メートルの鉄筋コンクリート造の池2基を、アーチ状の通路を挟んで東西に並べ、盛土で被覆し、台形の土壇状を呈する。南北面中央に建つ塔屋は、3連アーチを配し、タイル貼の帯を上下に廻らすなど装飾を施す。,https://bunka.nii.ac.jp/heritage/43967/_164727/43967_164727140222025027609_300.jpg
101,00009175,旧住吉浄水場直送ポンプ井,きゅうすみよしじょうすいじょうちょくそうぽんぷせい,1基,,登録有形文化財(建造物),生活関連,土木構造物,,昭和前,昭和6年,1931,鉄筋コンクリート造、面積49㎡,,,72,2012.02.23(平成24.02.23),2012.02.23(平成24.02.23),,20120223,,国土の歴史的景観に寄与しているもの,,静岡県,静岡県浜松市中区住吉5-283,,浜松市,市区町村,,34.73408000000000,137.72780000000000,接合井とポンプ室の間に建ち、鉄筋コンクリート造で、外径7.9メートルの円筒形になる。外壁はモルタル洗出し仕上げで、基部にペデスタル風の飾りを廻し、石積を模した目地を切る。頂部の張出しでは帯状にメアンダーを飾り、外観を引き締める。,https://bunka.nii.ac.jp/heritage/43967/_164728/43967_164728140222025029486_300.jpg
101,00009176,旧住吉浄水場ポンプ室,きゅうすみよしじょうすいじょうぽんぷしつ,1棟,,登録有形文化財(建造物),生活関連,建築物,,昭和前,昭和6年,1931,鉄筋コンクリート造平屋建、鉄板葺、建築面積453㎡,,,72,2012.02.23(平成24.02.23),2012.02.23(平成24.02.23),,20120223,,国土の歴史的景観に寄与しているもの,,静岡県,静岡県浜松市中区住吉5-283,,浜松市,市区町村,,34.73387000000000,137.72780000000000,敷地南側に建ち、桁行23メートル梁間17.6メートル、鉄筋コンクリート造、寄棟造鉄板葺で、小屋はフィンクトラスを架ける。外壁に植物模様の漆喰彫刻や放物線アーチの窓、松葉のステンドグラスを配し、パラペットにメダルを付すなど、豊かに装飾する。,https://bunka.nii.ac.jp/heritage/43967/_164729/43967_164729140222025031323_300.jpg
101,00009177,旧住吉浄水場正門,きゅうすみよしじょうすいじょうせいもん,1基,,登録有形文化財(建造物),生活関連,その他工作,,昭和前,昭和6年,1931,鉄筋コンクリート造、間口5.6m、左右脇門付,,,72,2012.02.23(平成24.02.23),2012.02.23(平成24.02.23),,20120223,,国土の歴史的景観に寄与しているもの,,静岡県,静岡県浜松市中区住吉5-182-1,,浜松市,市区町村,,34.73343000000000,137.72770000000000,敷地南面中央に位置する。鉄筋コンクリート造、5.6メートル間隔で親柱を立て、その両側に脇柱を立てて脇門とする。各門柱は洗出し仕上げで、幾何模様の飾りや溝彫りを施し、頂部に球形の灯具をおく。正面に建つポンプ室と1体で良好な景観を形成している。,https://bunka.nii.ac.jp/heritage/43967/_164730/43967_164730140222025033179_300.jpg
101,00009178,旧常光水源地ポンプ室,きゅうじょうこうすいげんちぽんぷしつ,1基,,登録有形文化財(建造物),生活関連,建築物,,昭和前,昭和6年,1931,鉄筋コンクリート造平屋一部2階建、建築面積205㎡,,,72,2012.02.23(平成24.02.23),2012.02.23(平成24.02.23),,20120223,,国土の歴史的景観に寄与しているもの,,静岡県,静岡県浜松市東区常光町字矢来773,,浜松市,市区町村,,34.74876000000000,137.80480000000000,旧住吉浄水場から約8キロメートル東方の天竜川右岸に建ち、桁行14.7メートル梁間11.8メートル、鉄筋コンクリート造、平屋1部2階建、寄棟造鉄板葺である。東面入口の円柱頂部にアカンサスを飾り、周囲に植物紋の漆喰彫刻を配するなど意匠を凝らす。,https://bunka.nii.ac.jp/heritage/43967/_164731/43967_164731140222025034956_300.jpg
101,00009179,富士カントリー倶楽部クラブハウス,ふじかんとりーくらぶくらぶはうす,1棟,,登録有形文化財(建造物),産業3次,建築物,,昭和前,昭和33年／昭和35年・昭和43年増築、平成5年改修,1958／1960・1978年増築、1993改修,鉄筋コンクリート造及び木造2階建、鉄板葺、建築面積1084㎡,,,72,2012.02.23(平成24.02.23),2012.02.23(平成24.02.23),,20120223,,造形の規範となっているもの,,静岡県,静岡県御殿場市深沢2472,,株式会社富士カントリー倶楽部,営利法人,,35.29679000000000,138.96720000000000,ゴルフ場の中央東寄りに建つ。建築面積1084平方メートル、鉄筋コンクリート造及び木造2階建、切妻造鉄板葺。建ちを抑えた直線的で明快な立面構成になり、内部では丸太の柱や方杖を表し、石張りの暖炉を築く。レーモンドの作風をよく示すクラブハウス。,https://bunka.nii.ac.jp/heritage/43967/_164732/43967_164732140222025037888_300.jpg
101,00009180,旧菅沼家住宅（知半庵）主屋,きゅうすがぬまけじゅうたく（ちはんあん）しゅおく,1棟,,登録有形文化財(建造物),住宅,建築物,,江戸,文化5年(1808)頃／昭和41年・昭和49年・平成6年改修,1808頃／1966・1974・1994改修,木造平屋建、茅葺（鉄板仮葺）、建築面積175㎡,,,72,2012.02.23(平成24.02.23),2012.02.23(平成24.02.23),,20120223,,国土の歴史的景観に寄与しているもの,,静岡県,静岡県伊豆の国市吉田字城内623-1,,,,,34.99972000000000,138.94170000000000,下田街道沿いの敷地西寄りに西面して建つ。桁行19.2メートル梁間9.1メートル、平屋建、寄棟造茅葺で、鉄板を仮葺する。南半がもと土間で大戸口を開き、床上部は前後2列に6室を配し、奥座敷に大ドコを構える。伊豆地方における上層農家の住宅。,https://bunka.nii.ac.jp/heritage/43967/_164733/43967_164733140222025039653_300.jpg
101,00009181,旧菅沼家住宅（知半庵）門及び塀,きゅうすがぬまけじゅうたく（ちはんあん）もんおよびへい,1基,,登録有形文化財(建造物),住宅,その他工作,,昭和前,昭和10年,1935,門　石造、間口3.6m　塀　石造、総延長32m,,,72,2012.02.23(平成24.02.23),2012.02.23(平成24.02.23),,20120223,,国土の歴史的景観に寄与しているもの,,静岡県,静岡県伊豆の国市吉田字城内623-1,,,,,34.99985000000000,138.94160000000000,主屋大戸口の正面に門を構えて左右に塀を延ばし、いずれも地元産の小室石を使用する。門は高さ2.6メートルの門柱1対を間口3.6メートルに立てる。塀は高さ1.8メートル、総延長32メートルを測り、基礎石上に切石を4段積み、笠石を載せる。,https://bunka.nii.ac.jp/heritage/43967/_164734/43967_164734140222025040509_300.jpg
101,00009284,旧掛塚郵便局（長谷川家住宅）局舎,きゅうかけつかゆうびんきょく（はせがわけじゅうたく）きょくしゃ,1棟,,登録有形文化財(建造物),生活関連,建築物,,昭和前,昭和10年,1935,木造2階一部平屋建、鉄板葺一部瓦葺、建築面積178㎡,,22 － 0188,73,2012.08.13(平成24.08.13),2012.08.13(平成24.08.13),,20120813,,国土の歴史的景観に寄与しているもの,,静岡県,静岡県磐田市白羽29-2,,,,,34.67340000000000,137.79810000000000,天竜川畔に西面して建つ。木造平屋一部二階建、建築面積一七八平方メートル、寄棟造鉄板葺及び桟瓦葺。正面の旧局舎は石造風のモルタル塗とし、柱形のほか上部にはコーニスやメダリオンを象る。後方平屋は和風住宅である。廻船で栄えた掛塚の近代化を示す。,https://bunka.nii.ac.jp/heritage/43967/_194077/43967_194077461637010982764_300.jpg
101,00009285,旧掛塚郵便局（長谷川家住宅）蔵,きゅうかけつかゆうびんきょく（はせがわけじゅうたく）くら,1棟,,登録有形文化財(建造物),生活関連,建築物,,明治,明治中期,1883～1897,木造2階建、瓦葺、建築面積33㎡,,22 － 0189,73,2012.08.13(平成24.08.13),2012.08.13(平成24.08.13),,20120813,,国土の歴史的景観に寄与しているもの,,静岡県,静岡県磐田市白羽29-2,,,,,34.67336000000000,137.79820000000000,主屋後方に南北棟で建つ。木造二階建、桁行七・三メートル梁間四・六メートル、寄棟造桟瓦葺で西面出入口に庇を付ける。外壁は伊豆石張で石造風とし、石造の窓廻りでは、庇に垂木形を表し、窓枠に唐草や家紋を陽刻し、庇持送りに繰形を施すなど技巧を凝らす。,https://bunka.nii.ac.jp/heritage/43967/_194078/43967_194078844930075815091_300.jpg
101,00009286,靏谷家住宅主屋,つるたにけじゅうたくしゅおく,1棟,,登録有形文化財(建造物),産業3次,建築物,,明治,明治17年頃,1884頃,木造2階建、鉄板葺、建築面積117㎡,,22 － 0190,73,2012.08.13(平成24.08.13),2012.08.13(平成24.08.13),,20120813,,国土の歴史的景観に寄与しているもの,,静岡県,静岡県磐田市掛塚1177-2他,,,,,34.67176000000000,137.79730000000000,通りに東面して建つ店舗兼用住宅。木造二階建、桁行八・八メートル梁間一三・三メートル、切妻造鉄板葺。下階正面に出格子を設け、軒は上下階とも出桁造とする。内部は前後に三分され、前列を土間、後列に座敷二室を並べる。明治前期の掛塚の佇まいを伝える。,https://bunka.nii.ac.jp/heritage/43967/_194079/43967_194079660761324432220_300.jpg
101,00009607,寺田家住宅主屋（旧丸四織物合名会社事務所兼主屋）,てらだけじゅうたくしゅおく（きゅうまるしおりものごうめいがいしゃじむしょけんしゅおく）,1棟,,登録有形文化財(建造物),産業2次,建築物,,昭和前,昭和12／昭和42改修,1937／1967改修,木造2階建、瓦葺、建築面積165㎡,,22 － 0191,75,2013.06.21(平成25.06.21),2013.06.21(平成25.06.21),,20130621,,国土の歴史的景観に寄与しているもの,,静岡県,静岡県磐田市福田字村前東4447-2他,,,,,34.67526000000000,137.87870000000000,綿織物工場主の住宅で、木造二階建、切妻造桟瓦葺である。寄棟造の南東突出部は下見板張で、上下階に二つずつ並ぶ上下窓が外観を特徴づける。内部は一階南東室が洋室、一階八畳、二階一〇畳の座敷に座敷飾を備え、南面に広縁がつく。洋間付の良質な近代住宅。,https://bunka.nii.ac.jp/heritage/43967/_194603/43967_194603140916101249123_300.jpg
101,00009608,旧丸四織物合名会社倉庫（ドルチェ倉庫）,きゅうまるしおりものごうめいがいしゃそうこ（どるちぇそうこ）,1棟,,登録有形文化財(建造物),産業2次,建築物,,昭和前,昭和前期／平成9改修,1926～1945／1997改修,木造、瓦葺、建築面積129㎡,,22 － 0192,75,2013.06.21(平成25.06.21),2013.06.21(平成25.06.21),,20130621,,国土の歴史的景観に寄与しているもの,,静岡県,静岡県磐田市福田字村前東4447-2他,,,,,34.67502000000000,137.87880000000000,敷地の南東に建つもと織物工場の木造倉庫。切妻造桟瓦葺で、北面に下屋を設けて中央を入口とする。外壁は下見板張で、東、南、西の各面二箇所に両開窓、両妻に高窓を開く。小屋裏二階の床は撤去し、二重梁和小屋の小屋組を現す。地場産業の名残を伝える倉庫。,https://bunka.nii.ac.jp/heritage/43967/_194604/43967_194604140916101250198_300.jpg
101,00009965,旧片岡醸造所酒蔵,きゅうかたおかじょうぞうしょさかぐら,1棟,,登録有形文化財(建造物),産業2次,建築物,,明治,明治27,1894,土蔵造2階建、瓦葺、建築面積397㎡,,22 － 0193,77,2014.04.25(平成26.04.25),2014.04.25(平成26.04.25),,20140425,,国土の歴史的景観に寄与しているもの,,静岡県,静岡県島田市横岡新田字新宿193,,,,,34.85161000000000,138.11860000000000,大井川右岸の敷地後方に東西棟で建ち、土蔵造二階建、桁行二八メートル梁間一五メートル、寄棟造桟瓦葺である。外壁は漆喰塗で各階の上部に窓を並べる。主構造は側柱と三本の丸太の独立柱で構成し、広大な内部空間をつくる。造酒屋の盛期を伝える大型土蔵。,https://bunka.nii.ac.jp/heritage/43967/_196112/43967_196112140718092119721_300.jpg
101,00009966,菊川赤れんが倉庫,きくがわあかれんがそうこ,1棟,,登録有形文化財(建造物),産業1次,建築物,,明治,明治後期,1898～1912,煉瓦造2階建、瓦葺、建築面積79㎡,,22 － 0194,77,2014.04.25(平成26.04.25),2014.04.25(平成26.04.25),,20140425,,国土の歴史的景観に寄与しているもの,,静岡県,静岡県菊川市堀之内字古井戸1425,,,,,34.76003000000000,138.08330000000000,菊川駅南側に南北棟で建ち、煉瓦造二階建、寄棟造桟瓦葺で、小屋は洋小屋を組む。外壁下部や軒蛇腹、開口部の欠円アーチなどに焼過煉瓦を効果的に用いる。茶葉の搬出入を考慮して開口を配置し、内部に合組作業の用具痕跡を残すなど、菊川製茶の歴史を伝える。,https://bunka.nii.ac.jp/heritage/43967/_196113/43967_196113140718092120824_300.jpg
101,00010304,穂積家住宅長屋門,ほづみけじゅうたくながやもん,1棟,,登録有形文化財(建造物),住宅,建築物,,明治,明治11年／明治30年頃・平成25年移築,1878年／1897頃・2013年移築,木造平屋建、瓦葺、建築面積40㎡,,22-0195,79,2014.12.19(平成26.12.19),2014.12.19(平成26.12.19),,20141219,,国土の歴史的景観に寄与しているもの,,静岡県,静岡県磐田市前野字石代2010-1他,,,,,34.70142000000000,137.82140000000000,田園地帯に所在する屋敷地南面に構え、間口一一メートル、寄棟造桟瓦葺である。中央間を門口として扉を吊り、東西を土間の物置とする。外壁は真壁漆喰塗で正背面の腰と両側面を簓子下見板張とし、正面西室に与力窓を設ける。旧家の格式を伝える長屋門である。,https://bunka.nii.ac.jp/heritage/43967/_199077/43967_199077150807110501189_300.jpg
101,00010305,玄妙寺経蔵,げんみょうじきょうぞう,1棟,,登録有形文化財(建造物),宗教,建築物,,昭和前,昭和9年,1934年,鉄筋コンクリート造平屋建、瓦葺、建築面積13㎡,,22-0196,79,2014.12.19(平成26.12.19),2014.12.19(平成26.12.19),,20141219,,造形の規範となっているもの,,静岡県,静岡県磐田市見付字西坂2598,,宗教法人玄妙寺,非営利法人,,34.72704000000000,137.85600000000000,境内南東隅に西面して建ち、鉄筋コンクリート造、切妻造セメント瓦葺である。外壁は人造石洗出しで、柱形や軒蛇腹を表し、石造風に化粧目地を切る。正面に扉口、北面に窓を設けて庇を付け、鉄扉を開く。耐火性を重視した、戦前のコンクリート造経蔵の好例。,https://bunka.nii.ac.jp/heritage/43967/_199078/43967_199078150807110502042_300.jpg
101,00010306,玄妙寺門柱及び塀,げんみょうじもんちゅうおよびへい,1基,,登録有形文化財(建造物),宗教,その他工作物,,昭和前,昭和前期,1926～1945年,土塀、延長16m,,22-0197,79,2014.12.19(平成26.12.19),2014.12.19(平成26.12.19),,20141219,,再現することが容易でないもの,,静岡県,静岡県磐田市見付字玄妙小路2440-1他,,宗教法人玄妙寺,非営利法人,,,,境内西辺を画す門柱と土塀で、いずれも三和土を成型した中空ブロックを積む。門柱は五段積として頂部に宝形造屋根を載せ、土塀は版築基礎上に四段布積し、同じ三和土で切妻屋根を造る。左官技法を駆使した独特な構造の門塀で、当地の建築技術を伝える希少例。,https://bunka.nii.ac.jp/heritage/43967/_199079/43967_199079150807110503949_300.jpg
101,00010307,可睡斎瑞龍閣,かすいさいずいりゅうかく,1棟,,登録有形文化財(建造物),宗教,建築物,,昭和前,昭和12年,1937年,木造2階建、瓦葺及び銅板葺、建築面積638㎡,,22-0198,79,2014.12.19(平成26.12.19),2014.12.19(平成26.12.19),,20141219,,造形の規範となっているもの,,静岡県,静岡県袋井市久能2915-1,,宗教法人可睡斎,非営利法人,,34.77436000000000,137.92010000000000,木造二階建、妻入り、入母屋造桟瓦葺で下屋を廻らし、正面に唐破風玄関を構える。一階は大振りな座敷飾を備えた六間取、二階は大広間の周囲に畳廊下を廻らし、各室ごとに異なる主題に因む欄間や絵襖で華やかに飾る。規模雄大で優美な内装をもつ迎賓施設。,https://bunka.nii.ac.jp/heritage/43967/_199080/43967_199080150807110505697_300.jpg
101,00010308,可睡斎東司,かすいさいとうす,1棟,,登録有形文化財(建造物),宗教,建築物,,昭和前,昭和12年頃,1937年頃,木造平屋建、瓦葺、建築面積108㎡,,22-0199,79,2014.12.19(平成26.12.19),2014.12.19(平成26.12.19),,20141219,,造形の規範となっているもの,,静岡県,静岡県袋井市久能2915-1,,宗教法人可睡斎,非営利法人,,34.77447000000000,137.91990000000000,約八メートル四方の規模をもつ東司で、南辺に小便器、北東面に大便器室を並べ、中央の壇上に烏枢沙摩明王を祀る。天井は周囲に吹寄せの格縁を廻らして内側に網代天井を張り、中央に天蓋風の飾りを設ける。欄間に組子細工を飾るなど、風雅な意匠を持つ東司。,https://bunka.nii.ac.jp/heritage/43967/_199081/43967_199081150807110508087_300.jpg
101,00010452,吉野屋主屋,よしのやしゅおく,1棟,,登録有形文化財(建造物),産業3次,建築物,,昭和中,昭和25頃,1950頃,木造2階建、瓦葺、建築面積242㎡,,22 － 0200,80,2015.03.26(平成27.03.26),2015.03.26(平成27.03.26),,20150326,,国土の歴史的景観に寄与しているもの,,静岡県,静岡県浜松市北区細江町気賀字陣中904-1,,,,,34.80997000000000,137.65350000000000,敷地南西寄りに建つ切妻造桟瓦葺で、周囲に下屋を廻らせる。平面は中廊下式で、西端の座敷を住居とし、北東隅に洋風意匠を加味した応接間を配す。南東側を厨房としてここから各棟に配膳している。施主の住居と接客、調理場としての機能を兼備した主屋である。,https://bunka.nii.ac.jp/heritage/43967/_199411/43967_199411151005165643897_300.jpg
101,00010453,吉野屋北棟,よしのやきたとう,1棟,,登録有形文化財(建造物),産業3次,建築物,,昭和前,昭和初期／昭和10改修,1926～1945／1935改修,木造2階建、茅葺及び瓦葺、建築面積104㎡,,22 － 0201,80,2015.03.26(平成27.03.26),2015.03.26(平成27.03.26),,20150326,,国土の歴史的景観に寄与しているもの,,静岡県,静岡県浜松市北区細江町気賀字陣中904-1,,,,,34.81019000000000,137.65350000000000,入母屋造平屋建の松の間と、日の出の間及び萩の間からなる切妻造茅葺の二階建建物を接続した独特な外観をもつ。松の間は比較的端正な造作とするのに対し、二階建部分は丸太材や籠目状の網代天井、古木を多用する等、数寄屋意匠を取入れて遊興的雰囲気を醸す。,https://bunka.nii.ac.jp/heritage/43967/_199412/43967_199412151005165644856_300.jpg
101,00010454,吉野屋南棟,よしのやみなみとう,1棟,,登録有形文化財(建造物),産業3次,建築物,,昭和前,昭和初期,1926～1945,木造平屋建、瓦葺、建築面積45㎡,,22 － 0202,80,2015.03.26(平成27.03.26),2015.03.26(平成27.03.26),,20150326,,国土の歴史的景観に寄与しているもの,,静岡県,静岡県浜松市北区細江町気賀字陣中904-1,,,,,34.80994000000000,137.65360000000000,主屋東側に接し、池に面して建つ平屋建の離れ座敷。床と床脇を備えた八畳を主室として四畳半を附属し、屋根は棟をＬ字形とした寄棟造桟瓦葺とする。渡廊下を背面に通し、庭側は柱間を開放し、濡縁と軽快な意匠の庇を折曲がりに廻らせて、瀟洒な外観とする。,https://bunka.nii.ac.jp/heritage/43967/_199413/43967_199413151005165645788_300.jpg
101,00010455,吉野屋東棟,よしのやひがしとう,1棟,,登録有形文化財(建造物),産業3次,建築物,,昭和前,昭和初期／昭和25改修,1926～1945／1950改修,木造平屋建、瓦葺、建築面積105㎡,,22 － 0203,80,2015.03.26(平成27.03.26),2015.03.26(平成27.03.26),,20150326,,国土の歴史的景観に寄与しているもの,,静岡県,静岡県浜松市北区細江町気賀字陣中904-1,,,,,34.80999000000000,137.65380000000000,敷地東辺に建つ、入母屋造桟瓦葺。十畳三室を南北に並べて縁を廻らし、西面には池に迫出すように濡縁を設ける。中央の桐の間は東面に床と床脇を備えて狆潜を瓢箪形に象り、欄間に煤竹を組込み風趣ある意匠とするなど、庭園との一体感創出が図られている。,https://bunka.nii.ac.jp/heritage/43967/_199414/43967_199414151005165646707_300.jpg
101,00010456,沼津倶楽部北棟,ぬまづくらぶきたとう,1棟,,登録有形文化財(建造物),住宅,建築物,,昭和前,大正2,1913,木造平屋建、瓦葺一部銅板葺、建築面積237㎡,,22 － 0204,80,2015.03.26(平成27.03.26),2015.03.26(平成27.03.26),,20150326,,国土の歴史的景観に寄与しているもの,,静岡県,静岡県沼津市本字千本郷林1907-8,,一般社団法人沼津倶楽部,非営利法人,,35.08755000000000,138.85240000000000,海浜に臨む勝地に建ち、田字形平面の広間棟と、茶室春日などをもつ座敷棟を雁行配置する。起りを持たせた瓦屋根と丸太垂木で深く差し出す庇が風雅な印象を創る。大小の茶室を巧みに配置し、座敷飾や欄間などに多様な数寄屋技法が駆使され上質で見応えがある。,https://bunka.nii.ac.jp/heritage/43967/_199415/43967_199415151005165647675_300.jpg
101,00010457,沼津倶楽部南棟,ぬまづくらぶみなみとう,1棟,,登録有形文化財(建造物),住宅,建築物,,昭和前,大正2,1913,木造平屋建、瓦葺一部銅板葺、建築面積206㎡,,22 － 0205,80,2015.03.26(平成27.03.26),2015.03.26(平成27.03.26),,20150326,,国土の歴史的景観に寄与しているもの,,静岡県,静岡県沼津市本字千本郷林1907-8,,一般社団法人沼津倶楽部,非営利法人,,35.08736000000000,138.85260000000000,十畳主室とサロンを南北軸とし、東西方向に大小の茶室を並べており、外観も複雑で変化に富む。サロンは洋間の空間的雰囲気をもつが丸太柱や網代天井など数寄屋が基調で、他の室も濃厚な数寄屋意匠になり、文人としても著名な施主の好みが具現化されている。,https://bunka.nii.ac.jp/heritage/43967/_199416/43967_199416151005165650212_300.jpg
101,00010458,沼津倶楽部長屋門,ぬまづくらぶながやもん,1棟,,登録有形文化財(建造物),住宅,建築物,,昭和前,大正2／平成20移築,1913／2008移築,木造平屋建、茅葺、建築面積19㎡,,22 － 0206,80,2015.03.26(平成27.03.26),2015.03.26(平成27.03.26),,20150326,,国土の歴史的景観に寄与しているもの,,静岡県,静岡県沼津市本字千本郷林1907-8,,一般社団法人沼津倶楽部,非営利法人,,35.08730000000000,138.85220000000000,北棟の西に東西棟で建ち、桁行七メートル規模、寄棟造茅葺である。中央東寄りを門口とし、西室を床板張とする。柱はなぐり仕上げ、壁は中塗仕上げとし、腰に割竹や杉皮、なぐり仕上げの竪板を張るなど、数寄屋意匠を用いた草庵風の佇まいをもつ長屋門。,https://bunka.nii.ac.jp/heritage/43967/_199417/43967_199417151005165652204_300.jpg
101,00010459,吉澤家住宅煉瓦蔵,よしざわけじゅうたくれんがぐら,1棟,,登録有形文化財(建造物),住宅,建築物,,明治,明治24,1891,土蔵造2階建、瓦葺、建築面積49㎡,,22 － 0207,80,2015.03.26(平成27.03.26),2015.03.26(平成27.03.26),,20150326,,国土の歴史的景観に寄与しているもの,,静岡県,静岡県富士宮市宮町947-1,,,,,35.22480000000000,138.60810000000000,浅間大社の門前に位置する文具店後方に北面し、土蔵造二階建で北に下屋を設ける。下屋は軸組の外側に長手に積んだ煉瓦壁を内面に現し、主体部も同様に煉瓦積を内包する木骨煉瓦工法とみられる。明治期に市内で盛んに建てられた煉瓦蔵の希少な遺例である。,https://bunka.nii.ac.jp/heritage/43967/_199418/43967_199418151005165654084_300.jpg
101,00010460,伊東市立木下杢太郎記念館,いとうしりつきのしたもくたろうきねんかん,1棟,,登録有形文化財(建造物),産業3次,建築物,,明治,明治40／昭和60改修,1907／1985改修,木造2階建、瓦葺、建築面積140㎡,,22 － 0208,80,2015.03.26(平成27.03.26),2015.03.26(平成27.03.26),,20150326,,国土の歴史的景観に寄与しているもの,,静岡県,静岡県伊東市湯川2-70-5,,伊東市,市区町村,,34.97373000000000,139.09590000000000,通りに南面する二階建、寄棟造桟瓦葺で、軒蛇腹を廻らすなど土蔵風の外観をもつ。中央右寄りに土間を通し、奥寄りと二階に居室を配する。展示室としている前半部は、もと広い板の間のミセで前側一間も土間であった。当地の伝統的な商家の形態を良好に伝える。,https://bunka.nii.ac.jp/heritage/43967/_199419/43967_199419151005165654990_300.jpg
101,00010461,旧加藤酒店店舗兼主屋,きゅうかとうさけてんてんぽけんしゅおく,1棟,,登録有形文化財(建造物),産業3次,建築物,,昭和前,昭和6,1931,木造2階建、瓦葺、建築面積143㎡,,22 － 0209,80,2015.03.26(平成27.03.26),2015.03.26(平成27.03.26),,20150326,,国土の歴史的景観に寄与しているもの,,静岡県,静岡県富士市本町30,,,,,35.15462000000000,138.65080000000000,商店街に所在する町家形式の店舗兼用住宅。正面に成の高い桁を通し、二階は出桁造とする。店舗部にカウンターや傾斜付の量売り台など酒店の設えを残し、二階は和室主体ながら洋間も附属し、何れも材工共に質が高い。製紙業を主とした当地の隆盛をよく示す。,https://bunka.nii.ac.jp/heritage/43967/_199420/43967_199420857017935210904_300.jpg
101,00010601,ヤマタケの蔵新蔵,やまたけのくらしんぐら,1棟,,登録有形文化財(建造物),住宅,建築物,,大正,大正12年,1923,木造2階建、瓦葺、建築面積39㎡,,22－0210,81,2015.08.04(平成27.08.04),2015.08.04(平成27.08.04),,20150804,,国土の歴史的景観に寄与しているもの,,静岡県,静岡県浜松市天竜区二俣町二俣字中町1162-4,,浜松市,市区町村,,34.86677000000000,137.81510000000000,敷地西奥に東面し、木造二階建、切妻造桟瓦葺である。外壁はモルタル塗で、腰を洗出し仕上げ、上部は石造風に目地を切る。衣裳部屋として建てられ、上下階とも座敷二室を配して地袋を造作し、下階に電話室を設ける。ケヤキやスギの良材を用いた良質な座敷蔵。,https://bunka.nii.ac.jp/heritage/43967/_201175/43967_201175151228153440841_300.jpg
101,00010602,ヤマタケの蔵南の蔵,やまたけのくらみなみのくら,1棟,,登録有形文化財(建造物),住宅,建築物,,大正,大正期,1912～1926,煉瓦造平屋建、瓦葺、建築面積40㎡、門付,,22－0211,81,2015.08.04(平成27.08.04),2015.08.04(平成27.08.04),,20150804,,国土の歴史的景観に寄与しているもの,,静岡県,静岡県浜松市天竜区二俣町二俣字中町1162-4,,浜松市,市区町村,,34.86670000000000,137.81520000000000,新蔵の南側に東西棟で建ち、新蔵との間に欠円アーチの門を開く。細長い平面の煉瓦造平屋建で、外壁南面はイギリス積煉瓦壁を現し、他はモルタル塗で石造風に目地を切る。内部は東から使用人部屋、便所、倉庫に間仕切る。実業家の屋敷構えの様相を伝える。,https://bunka.nii.ac.jp/heritage/43967/_201176/43967_201176160215100433310_300.jpg
101,00010603,ヤマタケの蔵北の蔵,やまたけのくらきたのくら,1棟,,登録有形文化財(建造物),住宅,建築物,,明治,明治前期,1868～1882,土蔵造2階一部平屋建、瓦葺、建築面積39㎡,,22－0212,81,2015.08.04(平成27.08.04),2015.08.04(平成27.08.04),,20150804,,国土の歴史的景観に寄与しているもの,,静岡県,静岡県浜松市天竜区二俣町二俣字中町1162-4,,浜松市,市区町村,,34.86683000000000,137.81520000000000,新蔵の北側に東西棟で建つ土蔵造二階建で、東端を落棟の平屋建とし、切妻造桟瓦葺である。主体部と平屋部の南面に戸口を開き、南西面に窓を穿つ。外壁は漆喰塗で鉢巻を廻らし、西妻面はモルタル塗の下屋を張出し、新蔵同様の外観として街路景観の調和を図る。,https://bunka.nii.ac.jp/heritage/43967/_201177/43967_201177151228153443291_300.jpg
101,00010783,旧田代家住宅主屋,きゅうたしろけじゅうたくしゅおく,1棟,,登録有形文化財(建造物),産業3次,建築物,,江戸,安政6,1859,木造2階建、瓦葺、建築面積233㎡,,22 ‐ 0213,82,2015.11.17(平成27.11.17),2015.11.17(平成27.11.17),,20151117,,国土の歴史的景観に寄与しているもの,,静岡県,静岡県浜松市天竜区二俣町鹿島489,,浜松市,市区町村,,34.85631000000000,137.80740000000000,天竜川畔の敷地中央に南面して建つ。木造二階建、切妻造の三面に下屋を廻らせ、軒は上下階とも出桁造とする。右土間形式で、六間取の中央列前面に式台を構える。二階は八畳主体の座敷に床などを備え、南面に開放的な縁を通す。舟運による繁栄を伝える大型民家。,https://bunka.nii.ac.jp/heritage/43967/_201618/43967_201618160322112131965_300.jpg
101,00010784,旧田代家住宅土蔵,きゅうたしろけじゅうたくどぞう,1棟,,登録有形文化財(建造物),産業3次,建築物,,昭和前,昭和前期,1926～1945,土蔵造2階建、瓦葺、建築面積28㎡,,22 ‐ 0214,82,2015.11.17(平成27.11.17),2015.11.17(平成27.11.17),,20151117,,国土の歴史的景観に寄与しているもの,,静岡県,静岡県浜松市天竜区二俣町鹿島489,,浜松市,市区町村,,34.85611000000000,137.80760000000000,敷地南東隅に南北棟で建つ、桁行六・一メートル梁間四・五メートル、土蔵造二階建、切妻造桟瓦葺。漆喰塗の外壁に水切を数段廻らせ、腰を海鼠壁とする。西面中央の戸口と二階東面に並べる小窓に、繰形のある持送付の庇を設ける。屋敷構えを引立てる旧道具蔵。,https://bunka.nii.ac.jp/heritage/43967/_201619/43967_201619160322112134049_300.jpg
101,00010971,小長井家住宅店蔵,こながいけじゅうたくみせぐら,1棟,,登録有形文化財(建造物),住宅,建築物,,大正,大正8／昭和中期移築,1919／1946～1965移築,土蔵造2階建、瓦葺、建築面積17㎡,,22-0215,83,2016.02.25(平成28.02.25),2016.02.25(平成28.02.25),,20160225,,再現することが容易でないもの,,静岡県,静岡県静岡市葵区土太夫町22-1他,,,,,34.97806000000000,138.37350000000000,事務所の裏に南北棟で建ち、桁行四・五メートル梁間三・六メートル、木造二階建、切妻造桟瓦葺。木造の軸部に石張し、漆喰塗で仕上げて軒蛇腹を廻らす。一階北面を戸口とし南妻の窓ともに丁寧な漆喰仕上げの土戸を開く。市街地に残る特異な工法の蔵。,https://bunka.nii.ac.jp/heritage/43967/_208941/43967_208941387628171355669_300.jpg
101,00010972,小長井家住宅奥蔵,こながいけじゅうたくおくぐら,1棟,,登録有形文化財(建造物),住宅,建築物,,明治,明治39／昭和中期移築,1906／1946～1965移築,土蔵造3階建、瓦葺、建築面積25㎡,,22-0216,83,2016.02.25(平成28.02.25),2016.02.25(平成28.02.25),,20160225,,再現することが容易でないもの,,静岡県,静岡県静岡市葵区土太夫町22-1他,,,,,34.97793000000000,138.37350000000000,敷地の南奥に南北棟で建ち、桁行五・五メートル梁間四・五メートル、木造三階建、切妻造桟瓦葺。木造の軸部に石張したうえで漆喰塗で仕上げ、水切と軒蛇腹を廻らす。一階両妻を戸口とし、二階窓に重厚な土戸を開く。店蔵とともに茶問屋の屋敷構えを伝える。,https://bunka.nii.ac.jp/heritage/43967/_208942/43967_208942501159055963778_300.jpg
101,00010973,旧静岡英和女学院院長住宅主屋,きゅうしずおかえいわじょがくいんいんちょうじゅうたくしゅおく,1棟,,登録有形文化財(建造物),住宅,建築物,,昭和中,昭和25,1950,木造2階建一部地階付、瓦葺、建築面積113㎡,,22-0217,83,2016.02.25(平成28.02.25),2016.02.25(平成28.02.25),,20160225,,造形の規範となっているもの,,静岡県,静岡県静岡市葵区西深草町34-5,,,,,34.98355000000000,138.37880000000000,閑静な住宅地に建つ。外観は白色で平明な立面に、出隅部など内法全高の開口を連続させ採光し、モダニズムへの指向が読み取れる。一階は南テラスをＬ・Ｄ・Ｋの各室で囲み、居間に暖炉を備える。住生活への配慮と洋風内装にヴォーリズ事務所の特徴が窺える。,https://bunka.nii.ac.jp/heritage/43967/_208943/43967_208943816578496632198_300.jpg
101,00010974,旧気多村立勝坂小学校校舎,きゅうけたそんりつかつさかしょうがっこうこうしゃ,1棟,,登録有形文化財(建造物),学校,建築物,,昭和中,昭和30,1955,木造2階建、鉄板葺、建築面積208㎡,,22-0218,83,2016.02.25(平成28.02.25),2016.02.25(平成28.02.25),,20160225,,国土の歴史的景観に寄与しているもの,,静岡県,静岡県浜松市天竜区春野町豊岡字キタノシマ240-3他,,勝坂自治会,その他,,35.06246000000000,137.91360000000000,外壁下見板張の校舎。当初から複式学級を想定し、一階に職員室と普通教室、二階に講堂兼特別教室を配す。柱の添柱や小屋の方杖、採光に配慮して広めた窓部や反射光を取り入れる中庇などに当時の学校建築の特徴を示す。山村風景に彩りを添える木造校舎。,https://bunka.nii.ac.jp/heritage/43967/_208944/43967_208944149264169666034_300.jpg
101,00010975,川奈ホテル本館,かわなほてるほんかん,1棟,,登録有形文化財(建造物),産業3次,建築物,,昭和前,昭和11／昭和33頃改修,1936／1958頃改修,鉄筋コンクリート造3階建一部地階及び塔屋付、瓦葺、建築面積2453㎡,,22-0219,83,2016.02.25(平成28.02.25),2016.02.25(平成28.02.25),,20160225,,造形の規範となっているもの,,静岡県,静岡県伊東市川奈字セットノ畠1459-2他,,株式会社プリンスホテル,営利法人,,34.93964000000000,139.14060000000000,太平洋を望むリゾートホテル。テラスは高大な列柱空間を創り、隣に張出すサンパーラーは先端を半円形平面のガラス張とし、雄大な眺望を得る。吹抜けのロビーなどは様々な洋風意匠を駆使し、随所に高級石材や装飾タイルなどを使い、気品ある優れた造形になる。,https://bunka.nii.ac.jp/heritage/43967/_208945/43967_208945010936353329923_300.jpg
101,00010976,川奈ホテル田舎家,かわなほてるいなかや,1棟,,登録有形文化財(建造物),住宅,建築物,,江戸,江戸後期／昭和11移築,1751～1830／1936移築,木造平屋建、茅葺、建築面積227㎡,,22-0220,83,2016.02.25(平成28.02.25),2016.02.25(平成28.02.25),,20160225,,造形の規範となっているもの,,静岡県,静岡県伊東市川奈字ヒカゲ1460-4,,株式会社プリンスホテル,営利法人,,34.94036000000000,139.14030000000000,本館北側に南北棟で東面して建つ、木造平屋建、入母屋造茅葺。南半を土間として五平の独立柱を立て、床上部は食違い四間取系とする。上手奥の八畳に床を構え、表二室は一五畳及び一二畳と広い。柱配置や部材加工等に古式をとどめる、戦前期の民家移築の好例。,https://bunka.nii.ac.jp/heritage/43967/_208946/43967_208946396136917606843_300.jpg
101,00011136,前嶋家住宅主屋,まえじまけじゅうたくしゅおく,1棟,,登録有形文化財(建造物),住宅,建築物,,江戸,江戸後期／江戸末期改修,1751～1830／1830～1868改修,木造平屋建、瓦葺、建築面積164㎡,,22 - 0221,84,2016.08.01(平成28.08.01),2016.08.01(平成28.08.01),,20160801,,造形の規範となっているもの,,静岡県,静岡県浜松市北区引佐町川名字平505,,,,,34.87000000000000,137.70300000000000,山間の敷地に南面して建つ。東半の土間は屋根を落棟とし、西半は四間取に縁を廻らす。小屋組に土間部が床上部と別棟だった痕跡をもち、ナンド軸部材には蛤刃の加工痕があり古式を示す。当地方に展開した分棟型民家の発展と分布を理解するうえで価値ある住宅。,https://bunka.nii.ac.jp/heritage/43967/_205243/43967_205243842389428659690_300.jpg
101,00011137,松蔭寺開山堂,しょういんじかいさんどう,1棟,,登録有形文化財(建造物),宗教,建築物,,明治,明治36,1903,石造平屋建、瓦葺、建築面積19㎡,,22 - 0222,84,2016.08.01(平成28.08.01),2016.08.01(平成28.08.01),,20160801,,国土の歴史的景観に寄与しているもの,,静岡県,静岡県沼津市原字東畑128-1,,宗教法人白隠宗大本山松蔭寺,宗教法人,,35.12329000000000,138.80010000000000,境内南寄りに建ち、坐禅堂を接続する。一辺二・七メートルの六角形平面で屋根は六注の桟瓦葺とし、露盤上に宝珠を飾る。壁体は伊豆石積で内外ともに漆喰仕上げとし、石製の軒蛇腹を廻らす。内部は須弥壇を設け、白隠像を祀る。独自性の高い構造形式をもつ堂。,https://bunka.nii.ac.jp/heritage/43967/_205244/43967_205244751603015003425_300.jpg
101,00011138,松蔭寺山門,しょういんじさんもん,1棟,,登録有形文化財(建造物),宗教,その他工作物,,江戸,江戸後期,1751～1830,木造、瓦葺、間口3.0m,,22 - 0223,84,2016.08.01(平成28.08.01),2016.08.01(平成28.08.01),,20160801,,再現することが容易でないもの,,静岡県,静岡県沼津市原字東畑128-1,,宗教法人白隠宗大本山松蔭寺,宗教法人,,35.12393000000000,138.80030000000000,境内北正面で旧東海道に向かって構える、間口三・〇メートルの一間薬医門、切妻造石瓦葺である。五平の本柱に冠木を渡し、控柱筋では差物と桁を重ねて堅固に組む。石瓦は長さ一メートルの伊豆石切石を三段に葺く。古刹の門前を特徴付ける希少な屋根の門。,https://bunka.nii.ac.jp/heritage/43967/_205245/43967_205245091152563064316_300.jpg
101,00011139,東山荘本館,とうざんそうほんかん,1棟,,登録有形文化財(建造物),住宅,建築物,,昭和前,昭和8／昭和15増築,1933／1940増築,木造2階建、瓦葺一部銅板葺、建築面積240㎡,,22 - 0224,84,2016.08.01(平成28.08.01),2016.08.01(平成28.08.01),,20160801,,国土の歴史的景観に寄与しているもの,,静岡県,静岡県熱海市春日町1712-5他,,宗教法人世界救世教,宗教法人,,35.10388000000000,139.08170000000000,相模湾を望む敷地北東寄りに位置する。南北廊下の東側中央を二階建として、上下階とも座敷二室に縁を廻らす。下階は北に玄関棟、南に浴室を配する。全体に木柄が細く、数寄屋を加味した繊細な意匠を基調とし、東面は大きなガラス窓をたて、開放感をもたせる。,https://bunka.nii.ac.jp/heritage/43967/_205246/43967_205246297412668975406_300.jpg
101,00011140,東山荘離れ,とうざんそうはなれ,1棟,,登録有形文化財(建造物),住宅,建築物,,昭和前,昭和10頃,1935頃,木造平屋建、瓦葺一部銅板葺、建築面積47㎡,,22 - 0225,84,2016.08.01(平成28.08.01),2016.08.01(平成28.08.01),,20160801,,造形の規範となっているもの,,静岡県,静岡県熱海市春日町1712-4,,宗教法人世界救世教,宗教法人,,35.10406000000000,139.08170000000000,敷地北端に東西棟で建ち、本館と渡廊下で繋ぐ、一五畳大の応接室と玄関等からなる独立棟。軸部や軒に多様な樹種の丸太を使い、応接室主体部を船底天井、周囲を網代天井などとする数寄屋意匠で上品にまとめつつ、出窓風の長椅子などに当時の住宅の潮流も示す。,https://bunka.nii.ac.jp/heritage/43967/_205247/43967_205247448289556453994_300.jpg
101,00011141,東山荘別館,とうざんそうべっかん,1棟,,登録有形文化財(建造物),住宅,建築物,,昭和前,昭和15,1940,木造平屋建、瓦葺一部銅板葺、建築面積152㎡,,22 - 0226,84,2016.08.01(平成28.08.01),2016.08.01(平成28.08.01),,20160801,,造形の規範となっているもの,,静岡県,静岡県熱海市春日町1712-1,,宗教法人世界救世教,宗教法人,,35.10364000000000,139.08150000000000,敷地南西隅に位置する木造平屋建で、海側となる東側に座敷を雁行配置し、西に廊下を廻らせる。一三畳の主室では拭板と畳による二畳大の踏込床を残月風に仕立て、北に四半瓦敷の土縁を設ける。数寄屋風意匠と太鼓斫の梁などによる野趣を備え、独特な趣を醸す。,https://bunka.nii.ac.jp/heritage/43967/_205248/43967_205248944187497092917_300.jpg
101,00011142,東山荘茶室,とうざんそうちゃしつ,1棟,,登録有形文化財(建造物),住宅,建築物,,昭和前,昭和15／昭和50頃増築,1940／1975頃増築,木造平屋建、瓦葺、建築面積83㎡,,22 - 0227,84,2016.08.01(平成28.08.01),2016.08.01(平成28.08.01),,20160801,,造形の規範となっているもの,,静岡県,静岡県熱海市春日町1712-3他,,宗教法人世界救世教,宗教法人,,35.10391000000000,139.08150000000000,本館西側のやや高い位置に南北棟で建ち、東側の応接室に縁を設ける。離れと同様、多種の丸太を柱に使い、主室となる大炉之間では、荒加工の梁組と丸竹詰張の天井を現して民家風に見せ、大振りの座敷飾りを備える。主室のほか、六畳や浴室も備えた接客施設。,https://bunka.nii.ac.jp/heritage/43967/_205249/43967_205249581090749458640_300.jpg
101,00011143,東山荘蔵,とうざんそうくら,1棟,,登録有形文化財(建造物),住宅,建築物,,昭和中,昭和21,1946,鉄筋コンクリート造、建築面積19㎡,,22 - 0228,84,2016.08.01(平成28.08.01),2016.08.01(平成28.08.01),,20160801,,国土の歴史的景観に寄与しているもの,,静岡県,静岡県熱海市春日町1712-3,,宗教法人世界救世教,宗教法人,,35.10397000000000,139.08160000000000,美術品収蔵用に建てた鉄筋コンクリート造二階建で、茶室北端に接続する。桁行四・九メートル梁間三・九メートル、陸屋根で壁頂にパラペットを廻らせる。外壁漆喰塗で腰の石積風意匠とコーニス風の水切を人造石洗出しで作る。耐火性と意匠性を兼備する収蔵庫。,https://bunka.nii.ac.jp/heritage/43967/_205250/43967_205250474674659594469_300.jpg
101,00011144,東山荘物置,とうざんそうものおき,1棟,,登録有形文化財(建造物),住宅,建築物,,昭和前,昭和8,1933,木造一部鉄筋コンクリート造2階建、瓦葺、建築面積17㎡,,22 - 0229,84,2016.08.01(平成28.08.01),2016.08.01(平成28.08.01),,20160801,,国土の歴史的景観に寄与しているもの,,静岡県,静岡県熱海市春日町1712-6他,,宗教法人世界救世教,宗教法人,,35.10381000000000,139.08160000000000,本館南西側に東西棟で建つ、寄棟造桟瓦葺である。一階は敷地の高低差を利用した半地下状で土間一室の物置とし、二階は北側を出桁状に張り出した畳敷の居室で、外壁を簓子下見板張とし、西妻に出入口を設ける。別荘の保守管理の様相を伝える付属施設。,https://bunka.nii.ac.jp/heritage/43967/_205251/43967_205251024582057917464_300.jpg
101,00011145,東山荘正門,とうざんそうせいもん,1棟,,登録有形文化財(建造物),住宅,その他工作物,,昭和前,昭和8,1933,木造、瓦葺、間口1.8m、南方潜戸付,,22 - 0230,84,2016.08.01(平成28.08.01),2016.08.01(平成28.08.01),,20160801,,国土の歴史的景観に寄与しているもの,,静岡県,静岡県熱海市春日町1712-16,,宗教法人世界救世教,宗教法人,,35.10407000000000,139.08150000000000,敷地西辺北端の道路沿いに開く門。総間口三・六メートルの切妻造で、一文字瓦葺の周囲を銅板葺とする。中央間の門口に板戸を引違にたて、北側の半間を土壁として南側に潜戸を開き、両側面も土壁とする。磨丸太で軸部を構成し、端正で気品を備えた意匠の正門。,https://bunka.nii.ac.jp/heritage/43967/_205252/43967_205252818377673374011_300.jpg
101,00011504,明治屋醤油店舗兼主屋,めいじやしょうゆてんぽけんしゅおく,1棟,,登録有形文化財(建造物),産業2次,建築物,,明治,明治前期／大正6年増築、平成27年改修,1868～1882/1917増築、2015改修,木造平屋建、瓦葺、建築面積169㎡,,22-0231,86,2017.05.02(平成29.05.02),2017.05.02(平成29.05.02),,20170502,,造形の規範となっているもの,,静岡県,静岡県浜松市浜北区小松2276,,,,,34.79027000000000,137.77460000000000,浜松市街地の北方に位置する。敷地東寄りに街路に面して建ち、切妻造桟瓦葺の木造平屋建を二棟並べた構成をとるが、東棟は大正六年の増築。平面は三列構成となり、街路側は店舗、敷地内側は居室を配する。特徴的な構造をとる店舗兼主屋である。,https://bunka.nii.ac.jp/heritage/43967/_210533/43967_210533704774775382258_300.jpg
101,00011505,明治屋醤油離れ,めいじやしょうゆはなれ,1棟,,登録有形文化財(建造物),産業2次,建築物,,昭和前,昭和8年,1933,木造2階建、瓦葺、建築面積64㎡,,22-0232,86,2017.05.02(平成29.05.02),2017.05.02(平成29.05.02),,20170502,,国土の歴史的景観に寄与しているもの,,静岡県,静岡県浜松市浜北区小松2276,,,,,34.79023000000000,137.77450000000000,主屋の南西側に雁行して建つ。切妻造の二階建部分の東・南に下屋を張出し、北には玄関、西には浴室を張出す。一階は八畳座敷と六畳次の間の三方に広縁を廻らし、二階も八畳座敷、六畳次の間の二室構成とする。建ちの高い外観が特徴的な近代和風住宅である。,https://bunka.nii.ac.jp/heritage/43967/_210534/43967_210534819287764203438_300.jpg
101,00011506,明治屋醤油醸造所,めいじやしょうゆじょうぞうじょ,1棟,,登録有形文化財(建造物),産業2次,建築物,,明治,明治前期／大正前期改修,1868～1882/1912～1918改修,木造2階一部平屋建、醪蔵部鉄筋コンクリート造平屋建、瓦葺一部銅板葺、建築面積774㎡,,22-0233,86,2017.05.02(平成29.05.02),2017.05.02(平成29.05.02),,20170502,,国土の歴史的景観に寄与しているもの,,静岡県,静岡県浜松市浜北区小松2276,,,,,34.79055000000000,137.77480000000000,敷地東北寄りに建つ。南東隅部分が当初で、その後増築を繰り返して複雑な構成を取るが、東側街路寄りに香辛料倉庫・穀物倉庫、南方に圧搾等の機能を配し、北西側には鉄筋コンクリート造の醪蔵があり、中央部分に麹室を配する。醸造業の歴史を今に伝えている。,https://bunka.nii.ac.jp/heritage/43967/_210535/43967_210535330361103737471_300.jpg
101,00011507,旧中村洋裁学院,きゅうなかむらようさいがくいん,1棟,,登録有形文化財(建造物),学校,建築物,,昭和中,昭和25年／昭和28年増築、平成24年改修,1950/1953増築、2012改修,木造2階建、瓦葺、建築面積191㎡,,22-0234,86,2017.05.02(平成29.05.02),2017.05.02(平成29.05.02),,20170502,,国土の歴史的景観に寄与しているもの,,静岡県,静岡県袋井市袋井260-1,,,,,34.74693000000000,137.92320000000000,原野谷川沿いに南北棟で建つ。木造二階建、切妻造桟瓦葺で、棟端のフィニアルに校章を表す。外壁下見板張で妻にガラリを付け、軒天井を廻す。内部は上下階とも南半を広い一室の教室とし、北半に和室・洋室を配する。戦後復興期の各種学校校舎の特徴を示す。,https://bunka.nii.ac.jp/heritage/43967/_210466/43967_210466199463306552593_300.jpg
101,00011702,三養荘（旧岩崎久彌別邸）本館中央棟,さんようそう（きゅういわさきひさやべってい）ほんかんちゅうおうとう,1棟,,登録有形文化財(建造物),住宅,建築物,,昭和前,昭和4年,1929,木造2階建、スレート葺一部銅板葺、建築面積214㎡,,22-0235,87,2017.06.28(平成29.06.28),2017.06.28(平成29.06.28),,20170628,,造形の規範となっているもの,,静岡県,静岡県伊豆の国市墹之上字谷戸洞270-1他,,株式会社プリンスホテル,営利法人,,35.03953000000000,138.93300000000000,岩崎久彌の別邸として建てられたもの。東下りの緩斜面に東面して建つ。入母屋造人造スレート葺、二階建で、八畳座敷と次の間を配し、二階は階段を挟んで三室を設ける。奥の平屋建には一〇畳座敷と次の間を設ける。意匠・造作共に質の高い大規模近代和風住宅。,https://bunka.nii.ac.jp/heritage/43967/_210718/43967_210718744502635208050_300.jpg
